     2.11           OBSERVATION DATA    G (GPS)             RINEX VERSION / TYPE
teqc  2019Feb25                         20221121 12:28:15UTCPGM / RUN BY / DATE
OSX ker:10.11.6|Core i5|gcc 4.3 -m64|OSX ker:10.10+|=+      COMMENT
BIT 2 OF LLI FLAGS DATA COLLECTED UNDER A/S CONDITION       COMMENT
04712850                                                    MARKER NAME
2850                                                        MARKER NUMBER
-Unknown-           -Unknown-                               OBSERVER / AGENCY
0220400471          TRIMBLE R7          2.30                REC # / TYPE / VERS
-Unknown-           TRM39105.00     NONE                    ANT # / TYPE
  1449459.8875 -1709240.7522  5952444.8659                  APPROX POSITION XYZ
        0.0000        0.0000        0.0000                  ANTENNA: DELTA H/E/N
     1     1                                                WAVELENGTH FACT L1/2
    20    L1    L2    L5    L6    L7    L8    C1    P1    C2# / TYPES OF OBSERV
          P2    C5    C6    C7    C8    S1    S2    S5    S6# / TYPES OF OBSERV
          S7    S8                                          # / TYPES OF OBSERV
    30.0000                                                 INTERVAL
    15                                                      LEAP SECONDS
Forced Modulo Decimation to 30 seconds                      COMMENT
 SNR is mapped to RINEX snr flag value [0-9]                COMMENT
  L1 & L2: min(max(int(snr_dBHz/6), 0), 9)                  COMMENT
teqc edited: Beidou # 1 - 37 excluded                       COMMENT
  2009    10    12     0     0    0.0000000     GPS         TIME OF FIRST OBS
                                                            END OF HEADER
 09 10 12  0  0  0.0000000  0  9G02G04G05G13G29G23G30G31G10
 -12566985.07048  -9728267.62147
                  20462978.4384                                   20462972.7974
                                                                        51.5004
        42.7504
  -4043789.06648  -3121090.55946
                  21449031.6334                                   21449028.9614
                                                                        49.7504
        39.0004
  -5535281.71147  -4265847.79345
                  23747494.9694                                   23747491.5904
                                                                        42.2504
        30.5004
 -14666403.53948 -11355085.03146
                  21329456.9534                                   21329452.7274
                                                                        51.2504
        36.5004
 -11903401.66847  -9238032.40245
                  23239291.8594                                   23239288.9224
                                                                        44.5004
        31.0004
  -6256960.96948  -4834251.20745
                  22273590.8914                                   22273585.0744
                                                                        48.0004
        31.7504
  -3216664.87147  -2478203.28944
                  23606058.8754                                   23606055.5594
                                                                        44.7504
        27.0004
  -3948522.64546  -3048733.29343
                  24575231.2114                                   24575227.5204
                                                                        39.0004
        22.0004
 -11477808.85947  -8922539.52045
                  22903156.5944                                   22903153.2034
                                                                        44.0004
        32.0004
 09 10 12  0  0 30.0000000  0  9G02G04G05G13G29G23G30G31G10
 -12659620.53148  -9800451.10547
                  20445350.6024                                   20445344.8594
                                                                        51.2504
        43.2504
  -4055126.08648  -3129924.58246
                  21446874.5164                                   21446871.3954
                                                                        50.0004
        39.2504
  -5728454.11747  -4416371.71145
                  23710735.8674                                   23710731.8444
                                                                        44.5004
        30.2504
 -14776738.40248 -11441060.29746
                  21308460.9774                                   21308456.7344
                                                                        50.7504
        36.5004
 -12067376.43747  -9365804.96145
                  23208088.0164                                   23208085.3634
                                                                        44.7504
        31.5004
  -6284662.56648  -4855836.88745
                  22268319.3284                                   22268313.6954
                                                                        48.7504
        33.0004
  -3217374.43047  -2478756.21144
                  23605924.0164                                   23605920.9264
                                                                        42.7504
        26.5004
  -3958665.34846  -3056636.74643
                  24573301.2114                                   24573297.1954
                                                                        40.5004
        22.7504
 -11667098.29347  -9070037.77745
                  22867136.2114                                   22867132.4384
                                                                        45.2504
        31.2504
 09 10 12  0  1  0.0000000  0 10G02G04G05G13G29G23G30G31G10G25
 -12751665.48048  -9872174.44147
                  20427834.9774                                   20427829.9344
                                                                        52.0004
        43.5004
  -4066017.11348  -3138411.09046
                  21444802.0474                                   21444798.6684
                                                                        50.0004
        39.5004
  -5921434.21947  -4566745.81245
                  23674012.7344                                   23674008.8754
                                                                        42.7504
        30.7504
 -14886404.77348 -11526514.64846
                  21287592.0234                                   21287587.6454
                                                                        51.0004
        36.7504
 -12230939.34047  -9493256.61345
                  23176963.7734                                   23176960.8874
                                                                        44.5004
        32.2504
  -6311807.13748  -4876988.45745
                  22263154.1024                                   22263147.8244
                                                                        49.2504
        32.2504
  -3217627.45347  -2478953.37544
                  23605875.2274                                   23605872.1914
                                                                        42.0004
        24.5004
  -3968375.77746  -3064203.34844
                  24571454.0704                                   24571449.6644
                                                                        41.2504
        27.2504
 -11856104.79747  -9217315.55545
                  22831169.4924                                   22831165.9454
                                                                        45.2504
        31.5004
   -218491.49656   -128983.67653
                  24189591.6024                                   24189588.7074
                                                                        39.5004
        19.7504
 09 10 12  0  1 30.0000000  0 10G02G04G05G13G29G23G30G31G10G25
 -12843121.02748  -9943438.49647
                  20410431.5864                                   20410426.1094
                                                                        52.5004
        42.7504
  -4076465.29348  -3146552.53146
                  21442813.5944                                   21442810.5594
                                                                        50.0004
        38.2504
  -6114220.81647  -4716969.09845
                  23637326.6724                                   23637323.7854
                                                                        43.2504
        31.0004
 -14995402.55948 -11611447.97746
                  21266850.4454                                   21266846.2424
                                                                        50.2504
        36.2504
 -12394088.96147  -9620386.23445
                  23145917.0864                                   23145914.1524
                                                                        45.2504
        32.2504
  -6338397.50848  -4897708.23445
                  22258093.8914                                   22258088.0514
                                                                        48.7504
        32.7504
  -3217428.44147  -2478798.32444
                  23605913.2194                                   23605910.0944
                                                                        43.5004
        24.7504
  -3977657.68446  -3071436.03144
                  24569687.5634                                   24569683.4804
                                                                        40.5004
        27.7504
 -12044827.35947  -9364372.10945
                  22795255.6954                                   22795252.7624
                                                                        44.5004
        31.0004
   -390712.35946   -263181.44543
                  24156818.1954                                   24156816.2704
                                                                        38.5004
        19.0004
 09 10 12  0  2  0.0000000  0  9G02G04G05G13G29G23G30G10G25
 -12933987.92648 -10014243.85947
                  20393140.3284                                   20393134.5004
                                                                        52.0004
        43.0004
  -4086473.95348  -3154351.48046
                  21440909.3444                                   21440906.0164
                                                                        50.5004
        38.5004
  -6306813.51647  -4867041.28145
                  23600677.3524                                   23600674.1524
                                                                        43.0004
        31.0004
 -15103732.56248 -11695860.94546
                  21246235.7814                                   21246231.5234
                                                                        51.2504
        36.2504
 -12556824.32847  -9747193.05145
                  23114949.7504                                   23114946.7464
                                                                        44.2504
        31.7504
  -6364436.99648  -4917998.71545
                  22253138.6254                                   22253132.8284
                                                                        48.5004
        31.5004
  -3216781.73047  -2478294.37144
                  23606036.1174                                   23606033.6644
                                                                        42.2504
        25.0004
 -12233265.77747  -9511207.19945
                  22759398.0084                                   22759394.5744
                                                                        45.2504
        32.2504
   -562636.97746   -397148.72743
                  24124102.7274                                   24124100.0824
                                                                        39.7504
        20.7504
 09 10 12  0  2 30.0000000  0  9G02G04G05G13G29G23G30G10G25
 -13024264.64848 -10084589.34047
                  20375961.3364                                   20375955.9144
                                                                        52.7504
        42.7504
  -4096043.62948  -3161808.34846
                  21439088.0004                                   21439084.7814
                                                                        50.2504
        38.5004
  -6499209.93047  -5016960.55545
                  23564065.6884                                   23564062.5164
                                                                        45.2504
        33.0004
 -15211392.88348 -11779752.09846
                  21225749.0394                                   21225744.5784
                                                                        51.5004
        36.0004
 -12719142.82847  -9873675.07845
                  23084061.2194                                   23084058.6914
                                                                        45.5004
        32.0004
  -6389926.91448  -4937860.97345
                  22248288.2814                                   22248282.3484
                                                                        48.0004
        31.2504
  -3215690.42647  -2477444.00844
                  23606243.4614                                   23606241.1844
                                                                        42.0004
        24.7504
 -12421416.55947  -9657818.16045
                  22723594.2424                                   22723590.8834
                                                                        45.5004
        33.2504
   -734259.96146   -530880.73043
                  24091443.9774                                   24091441.2074
                                                                        41.0004
        21.7504
 09 10 12  0  3  0.0000000  0  9G02G04G05G13G29G23G30G10G25
 -13113945.39848 -10154470.43747
                  20358895.4304                                   20358890.0234
                                                                        52.7504
        43.0004
  -4105171.33248  -3168920.85546
                  21437351.1024                                   21437347.7154
                                                                        50.2504
        38.5004
  -6691402.09447  -5166720.68445
                  23527492.8364                                   23527489.3594
                                                                        45.7504
        32.0004
 -15318378.05948 -11863117.18446
                  21205390.1954                                   21205385.8674
                                                                        50.7504
        36.0004
 -12881035.02047  -9999824.85245
                  23053254.0784                                   23053251.6644
                                                                        44.5004
        32.0004
  -6414863.83648  -4957292.34845
                  22243542.6254                                   22243536.9104
                                                                        48.5004
        32.2504
  -3214150.83247  -2476244.36744
                  23606537.6024                                   23606534.0944
                                                                        43.2504
        25.5004
 -12609271.56647  -9804198.66045
                  22687846.1174                                   22687843.1054
                                                                        45.5004
        33.2504
   -905575.65246   -664373.77743
                  24058844.2974                                   24058840.8054
                                                                        41.7504
        22.5004
 09 10 12  0  3 30.0000000  0  9G02G04G05G13G29G23G30G10G25
 -13203022.45348 -10223881.12947
                  20341944.5704                                   20341938.8634
                                                                        52.2504
        42.7504
  -4113851.27748  -3175684.45346
                  21435699.2814                                   21435696.2894
                                                                        50.2504
        38.5004
  -6883381.42247  -5316314.95745
                  23490960.3914                                   23490957.2384
                                                                        46.0004
        31.5004
 -15424679.00448 -11945949.10246
                  21185162.0004                                   21185157.9384
                                                                        50.2504
        37.0004
 -13042492.52347 -10125635.85545
                  23022530.0784                                   23022527.2854
                                                                        45.0004
        31.5004
  -6439242.34448  -4976288.57845
                  22238903.5314                                   22238897.6414
                                                                        49.0004
        31.2504
  -3212160.04347  -2474693.16044
                  23606915.7974                                   23606912.9224
                                                                        43.2504
        25.2504
 -12796822.21147  -9950341.99245
                  22652156.7194                                   22652153.2734
                                                                        46.5004
        32.5004
  -1076571.29346   -797616.98843
                  24026303.9384                                   24026301.8204
                                                                        41.0004
        22.7504
 09 10 12  0  4  0.0000000  0  9G02G04G05G13G29G23G30G10G25
 -13291494.92648 -10292820.69947
                  20325108.8984                                   20325103.4024
                                                                        51.7504
        43.5004
  -4122085.46948  -3182100.71546
                  21434132.2814                                   21434129.4534
                                                                        51.0004
        39.0004
  -7075144.93447  -5465741.06245
                  23454468.3524                                   23454465.1454
                                                                        44.2504
        30.0004
 -15530295.57048 -12028247.75446
                  21165063.5474                                   21165059.5394
                                                                        50.7504
        36.7504
 -13203512.09447 -10251105.62945
                  22991888.8524                                   22991886.1054
                                                                        45.0004
        31.5004
  -6463064.21948  -4994851.05945
                  22234370.6564                                   22234364.4304
                                                                        48.0004
        31.7504
  -3209719.50847  -2472791.45344
                  23607380.1094                                   23607378.2034
                                                                        43.5004
        26.5004
 -12984065.45347 -10096245.80145
                  22616525.2664                                   22616521.9494
                                                                        46.2504
        31.7504
  -1247245.12547   -930609.37543
                  23993826.2584                                   23993822.8954
                                                                        42.7504
        22.5004
 09 10 12  0  4 30.0000000  0  9G02G04G05G13G29G23G30G10G25
 -13379368.83248 -10361293.88747
                  20308387.1884                                   20308381.2234
                                                                        52.5004
        43.2504
  -4129880.89148  -3188175.07446
                  21432649.0944                                   21432645.8404
                                                                        50.7504
        38.5004
  -7266697.36347  -5615002.71945
                  23418017.4694                                   23418014.1844
                                                                        43.5004
        31.2504
 -15635232.52048 -12110016.82446
                  21145095.0164                                   21145090.7544
                                                                        50.0004
        36.7504
 -13364098.55547 -10376238.02045
                  22961330.1954                                   22961327.3134
                                                                        45.7504
        31.5004
  -6486337.50047  -5012986.06245
                  22229942.2584                                   22229935.4414
                                                                        47.5004
        31.0004
  -3206839.89947  -2470547.65044
                  23607928.4694                                   23607925.9264
                                                                        45.5004
        28.0004
 -13171005.72347 -10241913.50845
                  22580951.8594                                   22580948.3554
                                                                        46.0004
        33.5004
  -1417599.98047  -1063353.30943
                  23961408.6724                                   23961404.9534
                                                                        42.5004
        21.5004
 09 10 12  0  5  0.0000000  0  9G02G04G05G13G29G23G30G10G25
 -11891222.63348  -9201699.46547
                  20591571.8054                                   20591566.3484
                                                                        52.7504
        43.5004
  -2561822.44948  -1966311.35546
                  21731040.8054                                   21731037.0664
                                                                        49.7504
        38.2504
  -5882612.07847  -4536494.68745
                  23681400.4694                                   23681396.9414
                                                                        44.7504
        32.2504
 -14164068.32848 -10963655.14546
                  21425047.7274                                   21425043.7544
                                                                        50.0004
        36.2504
 -11948824.64547  -9273427.16845
                  23230648.1644                                   23230645.1644
                                                                        45.0004
        31.5004
  -4933646.22748  -3803096.75445
                  22525408.8524                                   22525402.7154
                                                                        48.0004
        31.0004
  -1628105.02347  -1240364.66844
                  23908351.9694                                   23908349.0824
                                                                        46.0004
        27.0004
 -11782216.20747  -9159739.84045
                  22845229.7664                                   22845226.2234
                                                                        46.2504
        33.0004
    -12210.96946     31754.91043
                  24228844.9064                                   24228842.0474
                                                                        40.0004
        21.7504
 09 10 12  0  5 30.0000000  0  9G02G04G05G13G29G23G30G10G25
 -11977903.16048  -9269242.75047
                  20575077.0004                                   20575071.2344
                                                                        52.5004
        43.2504
  -2568753.43748  -1971712.13746
                  21729721.6174                                   21729718.5984
                                                                        50.0004
        38.5004
  -6073741.37547  -4685426.61345
                  23645029.9454                                   23645026.5274
                                                                        45.5004
        33.7504
 -14267649.60548 -11044367.86746
                  21405337.3364                                   21405333.5234
                                                                        50.2504
        36.2504
 -12108541.19947  -9397881.60945
                  23200254.7424                                   23200252.1414
                                                                        43.7504
        31.5004
  -4955834.68048  -3820386.44945
                  22521186.7114                                   22521180.6294
                                                                        48.0004
        31.7504
  -1624359.84047  -1237446.33644
                  23909064.9384                                   23909061.7704
                                                                        45.2504
        27.5004
 -11968549.39847  -9304934.52345
                  22809771.6644                                   22809768.0354
                                                                        46.5004
        32.7504
   -181926.46146   -100490.75443
                  24196548.5864                                   24196546.5944
                                                                        39.0004
        20.5004
 09 10 12  0  6  0.0000000  0  9G02G04G05G13G29G23G30G10G25
 -12063987.69948  -9336321.61747
                  20558695.7194                                   20558690.5514
                                                                        52.7504
        43.0004
  -2575255.92648  -1976779.03546
                  21728484.4614                                   21728481.3244
                                                                        51.0004
        38.2504
  -6264657.40647  -4834192.30145
                  23608699.9534                                   23608696.5164
                                                                        44.7504
        33.5004
 -14370553.61348 -11124552.83646
                  21385755.1254                                   21385751.7934
                                                                        50.7504
        37.0004
 -12267820.85547  -9521995.57845
                  23169945.1094                                   23169942.9654
                                                                        43.7504
        32.7504
  -4977484.94147  -3837256.77345
                  22517066.8834                                   22517060.9304
                                                                        47.0004
        31.0004
  -1620188.16847  -1234195.69944
                  23909858.2344                                   23909855.8204
                                                                        44.5004
        28.0004
 -12154576.98447  -9449891.07845
                  22774371.3984                                   22774368.3404
                                                                        46.5004
        33.0004
   -351319.52346   -232485.38743
                  24164314.1804                                   24164311.7504
                                                                        40.2504
        21.0004
 09 10 12  0  6 30.0000000  0  9G02G04G05G13G29G23G30G10G25
 -12149478.58248  -9402937.89847
                  20542427.2194                                   20542421.7854
                                                                        52.5004
        43.2504
  -2581334.02348  -1981515.20346
                  21727327.7974                                   21727324.5004
                                                                        51.0004
        38.5004
  -6455360.89547  -4982792.40645
                  23572409.7424                                   23572406.2274
                                                                        45.2504
        32.0004
 -14472781.85948 -11204211.20746
                  21366302.0944                                   21366297.7074
                                                                        50.2504
        37.2504
 -12426663.95747  -9645769.37145
                  23139717.9224                                   23139715.5664
                                                                        43.2504
        32.7504
  -4998601.31647  -3853711.08645
                  22513048.1174                                   22513042.7464
                                                                        47.2504
        31.7504
  -1615595.51347  -1230616.98044
                  23910731.6804                                   23910729.7704
                                                                        44.2504
        26.0004
 -12340299.41847  -9594609.84845
                  22739029.8984                                   22739026.5314
                                                                        46.5004
        32.2504
   -520388.77347   -364227.45343
                  24132141.8444                                   24132138.7074
                                                                        42.0004
        21.5004
 09 10 12  0  7  0.0000000  0  9G02G04G05G13G29G23G30G10G25
 -12234374.42248  -9469090.48047
                  20526272.3204                                   20526266.5594
                                                                        52.7504
        43.5004
  -2586989.62148  -1985922.17646
                  21726251.5234                                   21726248.5664
                                                                        51.0004
        38.7504
  -6645848.71547  -5131224.43445
                  23536160.9384                                   23536157.5234
                                                                        45.5004
        31.2504
 -14574333.64848 -11283342.46146
                  21346977.3914                                   21346973.3014
                                                                        50.0004
        37.0004
 -12585066.97747  -9769200.26445
                  23109574.9774                                   23109572.4844
                                                                        43.5004
        32.2504
  -5019185.89147  -3869751.00445
                  22509131.5234                                   22509125.6024
                                                                        46.5004
        31.5004
  -1610583.89147  -1226711.84444
                  23911685.5084                                   23911683.9224
                                                                        44.0004
        25.7504
 -12525713.42647  -9739088.27045
                  22703746.8834                                   22703743.5784
                                                                        47.2504
        33.2504
   -689132.07847   -495715.61343
                  24100031.1414                                   24100027.6094
                                                                        42.5004
        23.7504
 09 10 12  0  7 30.0000000  0  9G02G04G05G13G29G23G30G10G25
 -12318674.99648  -9534779.23047
                  20510230.4144                                   20510225.0354
                                                                        53.0004
        42.7504
  -2592224.50448  -1990001.32046
                  21725255.2504                                   21725252.5314
                                                                        49.5004
        38.2504
  -6836119.25047  -5279487.14845
                  23499953.8674                                   23499949.8164
                                                                        44.5004
        31.2504
 -14675207.85548 -11361945.70746
                  21327781.5314                                   21327777.7464
                                                                        49.2504
        37.2504
 -12743027.51247  -9892286.33645
                  23079516.2344                                   23079513.7814
                                                                        43.7504
        33.5004
  -5039240.05947  -3885377.59445
                  22505315.3524                                   22505309.2114
                                                                        47.5004
        32.0004
  -1605156.83647  -1222483.01644
                  23912718.3524                                   23912716.7344
                                                                        43.0004
        24.7504
 -12710817.03947  -9883324.83245
                  22668522.2664                                   22668519.0514
                                                                        46.7504
        33.5004
   -857546.48447   -626947.63744
                  24067983.1644                                   24067979.8794
                                                                        44.0004
        24.5004
 09 10 12  0  8  0.0000000  0  9G02G04G05G13G29G23G30G10G25
 -12402376.98448  -9600001.55947
                  20494302.5554                                   20494296.7934
                                                                        53.0004
        43.2504
  -2597036.94948  -1993751.27746
                  21724339.2194                                   21724336.1604
                                                                        50.5004
        37.7504
  -7026167.48847  -5427576.66845
                  23463788.6094                                   23463785.0474
                                                                        46.2504
        31.0004
 -14775400.80148 -11440018.12946
                  21308715.3054                                   21308711.4064
                                                                        50.0004
        36.5004
 -12900540.77047 -10015023.86345
                  23049542.2974                                   23049539.5664
                                                                        44.0004
        33.2504
  -5058763.27747  -3900590.48845
                  22501600.3444                                   22501594.1914
                                                                        47.2504
        32.0004
  -1599315.08247  -1217931.05143
                  23913829.6884                                   23913827.7344
                                                                        42.7504
        22.5004
 -12895604.85947 -10027315.30545
                  22633358.5634                                   22633355.2504
                                                                        46.7504
        33.0004
  -1025624.93047   -757917.46143
                  24035998.4224                                   24035995.1804
                                                                        42.2504
        22.5004
 09 10 12  0  8 30.0000000  0  9G02G04G05G13G29G23G30G10G25
 -12485484.39148  -9664760.57847
                  20478487.6804                                   20478482.0164
                                                                        53.0004
        42.5004
  -2601433.70348  -1997177.30146
                  21723502.7814                                   21723499.6054
                                                                        50.2504
        38.0004
  -7215995.82447  -5575494.80945
                  23427665.8364                                   23427662.3834
                                                                        45.0004
        33.2504
 -14874916.66848 -11517562.93746
                  21289778.2114                                   21289773.9924
                                                                        50.0004
        36.2504
 -13057608.42647 -10137414.19545
                  23019653.3364                                   23019650.6644
                                                                        45.0004
        32.7504
  -5077761.99648  -3915394.67645
                  22497984.8204                                   22497979.0354
                                                                        48.2504
        31.0004
  -1593065.30147  -1213061.07043
                  23915018.8284                                   23915016.2274
                                                                        42.7504
        22.7504
 -13080079.37947 -10171061.68445
                  22598254.1644                                   22598251.2814
                                                                        47.0004
        33.0004
  -1193370.77846   -888628.34943
                  24004076.4694                                   24004074.0234
                                                                        40.2504
        22.5004
 09 10 12  0  9  0.0000000  0  9G02G04G05G13G29G23G30G10G25
 -12567996.93748  -9729056.06647
                  20462785.8914                                   20462780.1994
                                                                        52.7504
        43.0004
  -2605416.37948  -2000280.69546
                  21722745.3594                                   21722742.0044
                                                                        50.5004
        38.0004
  -7405602.04747  -5723239.82445
                  23391585.0234                                   23391581.4144
                                                                        46.0004
        34.0004
 -14973754.74648 -11594579.60946
                  21270970.0474                                   21270965.7664
                                                                        49.5004
        37.0004
 -13214228.60247 -10259455.85545
                  22989849.4454                                   22989846.5004
                                                                        44.0004
        33.2504
  -5096238.70347  -3929792.09845
                  22494468.6644                                   22494462.6764
                                                                        47.0004
        30.0004
  -1586411.17247  -1207876.04743
                  23916285.6254                                   23916282.0234
                                                                        44.0004
        23.2504
 -13264237.99647 -10314561.89545
                  22563210.2194                                   22563206.7154
                                                                        47.0004
        33.5004
  -1360779.90246  -1019076.57043
                  23972219.3134                                   23972216.7974
                                                                        40.5004
        22.5004
 09 10 12  0  9 30.0000000  0  9G02G04G05G13G29G23G30G10G25
 -12649916.37148  -9792889.41047
                  20447197.0394                                   20447191.8204
                                                                        52.5004
        43.0004
  -2608989.01648  -2003064.55946
                  21722065.1334                                   21722062.0084
                                                                        50.0004
        38.0004
  -7594986.16047  -5870811.84045
                  23355546.1724                                   23355543.0354
                                                                        46.2504
        34.0004
 -15071916.33248 -11671069.15246
                  21252290.3134                                   21252285.9844
                                                                        49.5004
        36.5004
 -13370400.25047 -10381148.03545
                  22960131.1094                                   22960127.9614
                                                                        44.2504
        33.2504
  -5114196.78547  -3943785.39545
                  22491051.4454                                   22491045.1884
                                                                        47.5004
        30.5004
  -1579356.85547  -1202379.19944
                  23917628.2274                                   23917625.3754
                                                                        45.0004
        25.5004
 -13448080.86747 -10457816.05545
                  22528226.2274                                   22528222.5904
                                                                        47.2504
        33.7504
  -1527852.53146  -1149262.84043
                  23940426.5084                                   23940423.8874
                                                                        41.0004
        22.2504
 09 10 12  0 10  0.0000000  0  9G02G04G05G13G29G23G30G10G25
 -12731241.02748  -9856259.28547
                  20431721.4774                                   20431716.2584
                                                                        52.7504
        42.5004
  -2612152.38748  -2005529.52346
                  21721462.7894                                   21721459.6524
                                                                        50.0004
        37.7504
  -7784145.08647  -6018208.39545
                  23319550.6024                                   23319546.4804
                                                                        47.0004
        33.2504
 -15169399.89848 -11747030.43746
                  21233739.8674                                   21233735.9454
                                                                        49.5004
        36.5004
 -13526120.19947 -10502488.25045
                  22930498.7274                                   22930495.5784
                                                                        44.5004
        33.5004
  -5131637.82047  -3957375.81245
                  22487732.3674                                   22487726.8014
                                                                        47.0004
        31.0004
  -1571904.67647  -1196572.34844
                  23919046.9844                                   23919043.6334
                                                                        44.2504
        27.0004
 -13631604.68047 -10600821.62945
                  22493302.1414                                   22493298.7384
                                                                        47.0004
        33.7504
  -1694584.60247  -1279183.71543
                  23908698.4384                                   23908695.3364
                                                                        43.0004
        22.0004
 09 10 12  0 10 30.0000000  0  9G02G04G05G13G29G23G30G10G25
 -12811968.93448  -9919164.14547
                  20416359.7894                                   20416354.1454
                                                                        52.5004
        42.7504
  -2614906.27048  -2007675.43446
                  21720939.1094                                   21720936.0274
                                                                        50.0004
        37.5004
  -7973075.12547  -6165426.60945
                  23283598.3524                                   23283594.8834
                                                                        45.7504
        33.0004
 -15266202.84448 -11822461.29346
                  21215319.0474                                   21215314.9734
                                                                        49.2504
        36.2504
 -13681384.64847 -10623473.51245
                  22900952.5394                                   22900949.4224
                                                                        44.5004
        31.7504
  -5148561.73847  -3970563.27745
                  22484512.1254                                   22484505.6524
                                                                        46.5004
        30.7504
  -1564056.75847  -1190457.25444
                  23920540.1484                                   23920537.4654
                                                                        43.5004
        27.0004
 -13814805.59847 -10743575.57045
                  22458440.3834                                   22458437.4104
                                                                        45.5004
        33.2504
  -1860971.48447  -1408835.85543
                  23877036.7114                                   23877032.7274
                                                                        42.7504
        20.5004
 09 10 12  0 11  0.0000000  0  9G02G04G05G13G29G23G30G10G25
 -12892102.21548  -9981605.62547
                  20401110.7974                                   20401105.2194
                                                                        52.0004
        42.7504
  -2617255.71948  -2009506.18446
                  21720492.0394                                   21720488.8594
                                                                        49.7504
        37.2504
  -8161776.70347  -6312466.72745
                  23247689.0704                                   23247686.0944
                                                                        45.0004
        31.7504
 -15362327.75048 -11897363.78546
                  21197026.8134                                   21197022.9884
                                                                        49.2504
        37.0004
 -13836193.21947 -10744103.53145
                  22871493.6644                                   22871490.7584
                                                                        44.2504
        32.7504
  -5164973.39147  -3983351.56645
                  22481389.1954                                   22481382.9734
                                                                        46.2504
        30.5004
  -1555817.55547  -1184037.16844
                  23922107.7194                                   23922105.3524
                                                                        42.2504
        26.5004
 -13997683.32847 -10886077.66045
                  22423639.9924                                   22423637.0554
                                                                        46.0004
        34.0004
  -2027013.13347  -1538219.00843
                  23845439.5004                                   23845435.7304
                                                                        43.0004
        22.2504
 09 10 12  0 11 30.0000000  0  9G02G04G05G13G29G23G30G10G25
 -12971640.35548 -10043583.39847
                  20385975.0784                                   20385969.8834
                                                                        52.5004
        42.5004
  -2619201.37948  -2011022.27046
                  21720121.8204                                   21720118.3014
                                                                        48.2504
        37.5004
  -8350247.52047  -6459327.07445
                  23211824.5474                                   23211820.7854
                                                                        45.7504
        32.5004
 -15457773.40248 -11971737.02346
                  21178864.4144                                   21178860.1954
                                                                        49.0004
        37.0004
 -13990543.54347 -10864376.46145
                  22842121.2274                                   22842118.2934
                                                                        44.2504
        32.2504
  -5180874.37947  -3995741.93445
                  22478363.0314                                   22478357.2304
                                                                        47.0004
        30.7504
  -1547190.08646  -1177314.47344
                  23923749.3914                                   23923747.6524
                                                                        41.0004
        26.5004
 -14180235.30547 -11028325.95345
                  22388901.7664                                   22388898.1884
                                                                        46.0004
        35.0004
  -2192705.58247  -1667329.91443
                  23813909.3984                                   23813905.9144
                                                                        42.7504
        22.5004
 09 10 12  0 12  0.0000000  0  9G02G04G05G13G29G23G30G10G25
 -13050583.46148 -10105097.53947
                  20370952.6564                                   20370946.9144
                                                                        52.0004
        43.0004
  -2620745.85548  -2012225.75846
                  21719827.9614                                   21719825.0824
                                                                        48.7504
        37.5004
  -8538485.00847  -6606005.60245
                  23176004.3834                                   23176000.5784
                                                                        47.0004
        33.5004
 -15552540.07048 -12045581.20746
                  21160830.4224                                   21160826.6844
                                                                        48.5004
        36.7504
 -14144433.33247 -10984290.52745
                  22812837.5864                                   22812834.5004
                                                                        45.0004
        33.5004
  -5196267.34047  -4007736.43045
                  22475434.2194                                   22475428.0274
                                                                        45.5004
        31.5004
  -1538178.06246  -1170292.16043
                  23925463.9064                                   23925462.2344
                                                                        40.7504
        23.0004
 -14362459.82447 -11170319.07845
                  22354225.5864                                   22354221.9344
                                                                        46.5004
        34.5004
  -2358047.07046  -1796167.45743
                  23782446.2584                                   23782442.6954
                                                                        40.2504
        22.5004
 09 10 12  0 12 30.0000000  0  9G02G04G05G13G29G23G30G10G25
 -13128932.99648 -10166149.09047
                  20356043.2814                                   20356037.8014
                                                                        51.7504
        43.2504
  -2621892.88748  -2013119.55546
                  21719609.5784                                   21719606.8404
                                                                        50.5004
        37.2504
  -8726489.36747  -6752502.49245
                  23140228.3594                                   23140224.6294
                                                                        47.7504
        33.5004
 -15646628.56648 -12118896.85546
                  21142926.4144                                   21142922.0664
                                                                        49.5004
        36.5004
 -14297861.64147 -11103845.02745
                  22783640.5554                                   22783637.5274
                                                                        44.5004
        33.5004
  -5211156.15247  -4019338.10945
                  22472600.8834                                   22472594.6374
                                                                        45.7504
        31.2504
  -1528785.87146  -1162973.58243
                  23927251.4304                                   23927249.6334
                                                                        40.2504
        23.7504
 -14544356.08647 -11312056.38345
                  22319612.1484                                   22319608.1844
                                                                        46.7504
        34.5004
  -2523036.62546  -1924730.71143
                  23751048.5864                                   23751046.2624
                                                                        40.2504
        22.5004
 09 10 12  0 13  0.0000000  0  9G02G04G05G13G29G23G30G10G25
 -13206688.74648 -10226738.00047
                  20341246.5864                                   20341241.2544
                                                                        52.0004
        42.7504
  -2622644.29348  -2013705.07846
                  21719466.6414                                   21719463.7304
                                                                        49.7504
        37.0004
  -8914258.84447  -6898816.34045
                  23104496.4064                                   23104493.1254
                                                                        46.5004
        33.7504
 -15740038.81648 -12191684.06246
                  21125151.1094                                   21125146.8094
                                                                        49.5004
        37.0004
 -14450827.04747 -11223038.84845
                  22754532.6884                                   22754529.5744
                                                                        44.7504
        34.0004
  -5225542.82447  -4030548.50045
                  22469863.3674                                   22469857.0664
                                                                        47.2504
        31.0004
  -1519017.46546  -1155361.81244
                  23929110.4534                                   23929107.9454
                                                                        41.5004
        24.2504
 -14725922.47347 -11453536.68745
                  22285060.5704                                   22285057.5354
                                                                        45.7504
        33.7504
  -2687671.10546  -2053017.21143
                  23719720.0314                                   23719717.3954
                                                                        40.0004
        23.7504
 09 10 12  0 13 30.0000000  0  9G02G04G05G13G29G23G30G10G25
 -13283850.83248 -10286864.29347
                  20326563.2814                                   20326557.9024
                                                                        52.0004
        43.2504
  -2623002.25047  -2013984.02046
                  21719398.5164                                   21719395.4694
                                                                        47.5004
        37.0004
  -9101791.79747  -7044945.86345
                  23068810.3444                                   23068807.2894
                                                                        46.7504
        33.7504
 -15832770.96548 -12263942.85946
                  21107504.6564                                   21107500.2934
                                                                        48.7504
        36.5004
 -14603327.23447 -11341870.16445
                  22725512.6644                                   22725510.0984
                                                                        44.7504
        34.0004
  -5239430.36747  -4041369.96545
                  22467220.0394                                   22467214.3284
                                                                        46.7504
        30.5004
  -1508875.74247  -1147459.07443
                  23931040.2814                                   23931037.8554
                                                                        42.5004
        23.7504
 -14907156.82847 -11594758.24245
                  22250572.6884                                   22250569.8284
                                                                        45.7504
        34.5004
  -2851948.47346  -2181025.46143
                  23688459.5164                                   23688456.4264
                                                                        39.5004
        22.7504
 09 10 12  0 14  0.0000000  0  9G02G04G05G13G29G23G30G10G25
 -13360418.43048 -10346527.35547
                  20311993.0704                                   20311987.3634
                                                                        51.5004
        43.0004
  -2622968.28948  -2013957.55546
                  21719405.1724                                   21719401.9264
                                                                        49.7504
        37.0004
  -9289084.89147  -7190888.48445
                  23033169.2504                                   23033166.5514
                                                                        46.7504
        33.7504
 -15924824.14548 -12335672.57846
                  21089987.1414                                   21089983.2934
                                                                        49.7504
        36.2504
 -14755358.78947 -11460336.25045
                  22696582.4064                                   22696579.4064
                                                                        46.7504
        34.7504
  -5252820.31247  -4051803.69945
                  22464671.8444                                   22464666.5204
                                                                        46.0004
        30.0004
  -1498363.03547  -1139267.34443
                  23933040.8054                                   23933037.8914
                                                                        42.5004
        23.5004
 -15088056.05147 -11735718.66045
                  22216149.0864                                   22216145.5664
                                                                        46.5004
        35.2504
  -3015865.60546  -2308753.04043
                  23657267.2584                                   23657263.9654
                                                                        40.2504
        23.0004
 09 10 12  0 14 30.0000000  0  9G02G04G05G13G29G23G30G10G25
 -11860971.93448  -9178127.46947
                  20597328.4454                                   20597322.8984
                                                                        51.5004
        43.5004
  -1047126.94548   -786029.21946
                  22019277.7194                                   22019274.4414
                                                                        48.7504
        37.0004
  -7900713.57848  -6109040.66845
                  23297368.1484                                   23297364.6054
                                                                        48.0004
        34.0004
 -14440777.61748 -11179272.67246
                  21372392.1724                                   21372388.2114
                                                                        49.7504
        36.7504
 -13331498.40647 -10350834.67645
                  22967533.9694                                   22967530.7154
                                                                        46.2504
        34.2504
  -3690296.65647  -2834252.79345
                  22762010.7894                                   22762004.7814
                                                                        46.5004
        30.0004
     87933.71947     96808.15643
                  24234903.3754                                   24234900.1954
                                                                        43.0004
        23.2504
 -13693195.49247 -10648814.32445
                  22481581.8204                                   22481578.4344
                                                                        47.0004
        34.2504
  -1603996.66446  -1208595.40243
                  23925936.7974                                   23925933.5434
                                                                        41.2504
        22.5004
 09 10 12  0 15  0.0000000  0  9G02G04G05G13G29G23G30G10G25
 -11936356.83248  -9236868.92647
                  20582983.1484                                   20582977.4844
                                                                        51.7504
        43.2504
  -1046320.82448   -785401.07446
                  22019431.0084                                   22019427.8054
                                                                        49.5004
        37.0004
  -8087528.61747  -6254610.80945
                  23261818.3204                                   23261814.5354
                                                                        47.0004
        34.2504
 -14531478.05148 -11249948.30946
                  21355132.1724                                   21355128.0744
                                                                        49.2504
        36.7504
 -13482593.79747 -10468571.33245
                  22938781.2814                                   22938778.1484
                                                                        45.5004
        33.7504
  -3702703.81247  -2843920.69545
                  22759649.3834                                   22759643.8794
                                                                        46.5004
        30.0004
     99171.29747    105564.67243
                  24237042.1564                                   24237038.6564
                                                                        43.0004
        23.2504
 -13873425.20347 -10789253.07445
                  22447285.5944                                   22447282.1684
                                                                        47.0004
        34.5004
  -1767190.67246  -1335759.48844
                  23894881.9304                                   23894878.6804
                                                                        41.7504
        25.0004
 09 10 12  0 15 30.0000000  0  9G02G04G05G13G29G23G30G10G25
 -12011142.32448  -9295143.34047
                  20568752.0394                                   20568746.4224
                                                                        51.7504
        42.5004
  -1045123.53948   -784468.11346
                  22019658.8524                                   22019655.6994
                                                                        49.0004
        36.5004
  -8274093.33248  -6399985.89845
                  23226316.1954                                   23226312.0864
                                                                        48.0004
        34.0004
 -14621493.78948 -11320090.41846
                  21338002.5084                                   21337998.5274
                                                                        49.7504
        36.0004
 -13633209.57847 -10585934.25845
                  22910119.6174                                   22910117.0044
                                                                        45.2504
        34.2504
  -3714615.07847  -2853202.19945
                  22757382.8674                                   22757376.8204
                                                                        45.5004
        30.0004
    110774.77747    114606.39143
                  24239249.2974                                   24239246.3984
                                                                        42.0004
        22.5004
 -14053308.71147 -10929422.05945
                  22413054.4144                                   22413051.4804
                                                                        47.5004
        35.5004
  -1930011.23046  -1462632.60944
                  23863898.1414                                   23863894.9884
                                                                        41.2504
        24.5004
 09 10 12  0 16  0.0000000  0  9G02G04G05G13G29G23G30G10G25
 -12085332.82448  -9352954.09447
                  20554633.4534                                   20554628.3364
                                                                        51.7504
        42.5004
  -1043541.87548   -783235.66046
                  22019959.8054                                   22019957.0004
                                                                        49.5004
        36.5004
  -8460409.77748  -6545167.55945
                  23190861.2344                                   23190857.6954
                                                                        48.2504
        34.0004
 -14710829.53948 -11389702.66846
                  21321002.8284                                   21320998.7424
                                                                        50.2504
        36.2504
 -13783347.13347 -10702924.53545
                  22881549.1414                                   22881546.2584
                                                                        45.2504
        32.5004
  -3726037.55547  -2862102.81245
                  22755209.1174                                   22755203.5204
                                                                        45.0004
        30.5004
    122737.60547    123928.05544
                  24241526.1954                                   24241523.5514
                                                                        42.0004
        25.5004
 -14232848.01247 -11069322.84045
                  22378889.3914                                   22378885.8754
                                                                        47.7504
        34.7504
  -2092460.73846  -1589216.59043
                  23832984.9064                                   23832981.4734
                                                                        40.7504
        22.7504
 09 10 12  0 16 30.0000000  0  9G02G04G05G13G29G23G30G10G25
 -12158926.77048  -9410300.03547
                  20540629.4384                                   20540624.0514
                                                                        51.5004
        42.7504
  -1041575.79748   -781703.67646
                  22020334.1024                                   22020330.8874
                                                                        50.0004
        36.7504
  -8646475.46947  -6690153.81245
                  23155454.1024                                   23155450.9024
                                                                        47.5004
        34.5004
 -14799483.19148 -11458783.39146
                  21304132.8524                                   21304128.4694
                                                                        50.2504
        36.2504
 -13933004.20747 -10819540.40245
                  22853070.5234                                   22853067.4884
                                                                        45.5004
        33.7504
  -3736971.74247  -2870622.96145
                  22753128.9144                                   22753122.6454
                                                                        47.0004
        31.2504
    135056.26647    133526.96144
                  24243869.7894                                   24243867.5594
                                                                        42.0004
        25.0004
 -14412040.23047 -11208953.13745
                  22344790.4224                                   22344786.8554
                                                                        47.7504
        35.2504
  -2254534.21146  -1715507.55943
                  23802143.3364                                   23802139.9494
                                                                        41.0004
        22.5004
 09 10 12  0 17  0.0000000  0  9G02G04G05G13G29G23G30G10G25
 -12231920.71548  -9467178.42647
                  20526739.1024                                   20526733.1054
                                                                        51.7504
        43.0004
  -1039224.96948   -779871.87946
                  22020781.4534                                   22020777.9454
                                                                        49.5004
        37.0004
  -8832284.80947  -6834940.28145
                  23120095.3054                                   23120092.5634
                                                                        47.2504
        34.0004
 -14887451.73848 -11527330.28146
                  21287392.8674                                   21287388.8244
                                                                        50.0004
        36.5004
 -14082174.93747 -10935777.30945
                  22824684.6484                                   22824681.4964
                                                                        45.5004
        33.5004
  -3747416.94947  -2878762.05945
                  22751140.9454                                   22751134.7384
                                                                        47.0004
        30.0004
    147730.87147    143403.14144
                  24246282.2504                                   24246280.0864
                                                                        42.5004
        25.2504
 -14590879.59047 -11348308.50045
                  22310758.1024                                   22310755.0124
                                                                        47.2504
        35.0004
  -2416226.57846  -1841501.57844
                  23771374.4144                                   23771370.9734
                                                                        41.0004
        25.2504
 09 10 12  0 17 30.0000000  0  9G02G04G05G13G29G23G30G10G25
 -12304323.69948  -9523596.32847
                  20512961.1884                                   20512955.6214
                                                                        52.0004
        42.7504
  -1036499.17248   -777747.86746
                  22021300.3204                                   22021296.7854
                                                                        49.5004
        36.7504
  -9017844.56647  -6979532.26245
                  23084784.4454                                   23084781.3324
                                                                        47.2504
        34.7504
 -14974743.54748 -11595349.85546
                  21270781.7274                                   21270777.4414
                                                                        49.5004
        36.5004
 -14230865.81647 -11051640.33245
                  22796389.4384                                   22796386.3364
                                                                        46.5004
        32.7504
  -3757384.04347  -2886528.62144
                  22749244.2034                                   22749238.0824
                                                                        46.5004
        29.7504
    160750.22347    153547.97344
                  24248760.2974                                   24248757.2974
                                                                        43.7504
        25.5004
 -14769372.99247 -11487394.24646
                  22276792.1644                                   22276789.0514
                                                                        47.5004
        36.0004
  -2577543.38346  -1967202.89843
                  23740676.2344                                   23740673.7854
                                                                        41.0004
        22.7504
 09 10 12  0 18  0.0000000  0  8G02G04G05G13G29G23G10G25
 -12376130.41848  -9579549.59847
                  20499296.8134                                   20499291.5204
                                                                        51.5004
        42.5004
  -1033395.62548   -775329.53946
                  22021890.6414                                   22021887.5044
                                                                        48.2504
        36.7504
  -9203147.15647  -7123923.87945
                  23049523.0634                                   23049519.6454
                                                                        47.7504
        35.2504
 -15061353.77048 -11662838.32446
                  21254299.9454                                   21254296.0354
                                                                        49.2504
        36.2504
 -14379069.10247 -11167123.43745
                  22768187.7814                                   22768184.6254
                                                                        46.7504
        34.0004
  -3766870.16847  -2893920.39844
                  22747439.0784                                   22747433.0084
                                                                        45.5004
        29.2504
 -14947512.80547 -11626204.49245
                  22242893.6724                                   22242890.3134
                                                                        47.0004
        35.7504
  -2738477.19946  -2092605.79743
                  23710051.3444                                   23710048.3954
                                                                        41.2504
        23.5004
 09 10 12  0 18 30.0000000  0  8G02G04G05G13G29G23G10G25
 -12447345.26648  -9635041.70747
                  20485745.0234                                   20485739.6094
                                                                        51.7504
        42.7504
  -1029920.41048   -772621.57446
                  22022552.0164                                   22022549.0824
                                                                        49.0004
        36.2504
  -9388195.34448  -7268117.29346
                  23014309.9844                                   23014306.0204
                                                                        48.0004
        36.2504
 -15147286.11348 -11729798.57846
                  21237947.5164                                   21237943.7504
                                                                        48.2504
        37.0004
 -14526787.11347 -11282228.36345
                  22740078.2114                                   22740075.0354
                                                                        45.7504
        35.5004
  -3775881.93447  -2900942.55945
                  22745723.9384                                   22745718.3594
                                                                        45.2504
        30.2504
 -15125301.21147 -11764740.91045
                  22209061.4304                                   22209058.5234
                                                                        46.7504
        34.7504
  -2899029.33647  -2217711.28144
                  23679499.2114                                   23679496.7384
                                                                        43.0004
        24.5004
 09 10 12  0 19  0.0000000  0  8G02G04G05G13G29G23G10G25
 -12517961.99248  -9690067.74247
                  20472306.8364                                   20472301.4184
                                                                        52.0004
        42.7504
  -1026069.50448   -769620.84846
                  22023284.7894                                   22023281.6294
                                                                        48.5004
        36.7504
  -9572980.46948  -7412105.69145
                  22979145.9614                                   22979142.5124
                                                                        48.0004
        35.0004
 -15232535.05148 -11796226.31646
                  21221725.5474                                   21221721.1414
                                                                        49.0004
        36.5004
 -14674012.04747 -11396949.11745
                  22712061.9844                                   22712058.8754
                                                                        46.7504
        34.7504
  -3784415.91447  -2907592.41845
                  22744100.1954                                   22744093.8634
                                                                        45.2504
        30.2504
 -15302729.86347 -11902997.04745
                  22175298.0634                                   22175294.4774
                                                                        47.2504
        35.7504
  -3059191.45347  -2342512.91444
                  23649021.8364                                   23649018.2974
                                                                        43.5004
        25.0004
 09 10 12  0 19 30.0000000  0  8G02G04G05G13G29G23G10G25
 -12587978.48848  -9744626.05147
                  20458983.4614                                   20458977.7504
                                                                        52.0004
        43.0004
  -1021842.66848   -766327.18046
                  22024089.2424                                   22024086.1214
                                                                        49.0004
        36.0004
  -9757498.64847  -7555886.07045
                  22944033.0474                                   22944029.8364
                                                                        47.5004
        34.0004
 -15317097.92248 -11862119.45746
                  21205633.7114                                   21205629.1564
                                                                        49.0004
        36.5004
 -14820738.49647 -11511281.41445
                  22684140.7734                                   22684137.9304
                                                                        46.5004
        35.5004
  -3792471.61747  -2913869.60244
                  22742567.6024                                   22742561.1294
                                                                        45.0004
        29.7504
 -15479794.62947 -12040969.60945
                  22141603.5314                                   22141600.4104
                                                                        47.2504
        35.7504
  -3218958.48447  -2467006.70344
                  23618619.6254                                   23618615.7234
                                                                        43.5004
        25.0004
 09 10 12  0 20  0.0000000  0  8G02G04G05G13G29G23G10G25
 -12657398.31248  -9798719.39547
                  20445773.3914                                   20445767.5784
                                                                        52.0004
        42.7504
  -1017244.91848   -762744.51245
                  22024964.0864                                   22024960.8594
                                                                        48.5004
        35.7504
  -9941751.52747  -7699459.70745
                  22908971.2584                                   22908967.6254
                                                                        47.5004
        34.5004
 -15400978.28948 -11927480.78546
                  21189671.8134                                   21189667.7854
                                                                        49.0004
        36.7504
 -14966968.73047 -11625227.03145
                  22656314.0634                                   22656311.3834
                                                                        47.2504
        34.7504
  -3800054.92647  -2919778.67245
                  22741124.1334                                   22741118.4144
                                                                        44.0004
        30.0004
 -15656496.60548 -12178659.46946
                  22107978.5004                                   22107975.1524
                                                                        48.0004
        36.5004
  -3378330.74247  -2591192.86343
                  23588292.1564                                   23588288.2274
                                                                        44.0004
        23.2504
 09 10 12  0 20 30.0000000  0  8G02G04G05G13G29G23G10G25
 -12726222.77748  -9852348.83247
                  20432676.6174                                   20432671.2114
                                                                        52.2504
        42.5004
  -1012280.41048   -758876.05546
                  22025908.8914                                   22025905.7154
                                                                        49.0004
        36.2504
 -10125737.48048  -7842825.35545
                  22873959.5944                                   22873956.3484
                                                                        48.0004
        35.0004
 -15484177.85948 -11992311.61746
                  21173839.1254                                   21173835.0784
                                                                        48.5004
        36.2504
 -15112700.87547 -11738784.53145
                  22628582.3754                                   22628578.9064
                                                                        46.0004
        35.0004
  -3807170.11347  -2925322.98444
                  22739770.3284                                   22739764.7814
                                                                        43.2504
        29.7504
 -15832834.56648 -12316065.68046
                  22074422.2194                                   22074419.0704
                                                                        48.2504
        36.0004
  -3537308.19147  -2715071.37143
                  23558038.5944                                   23558035.5944
                                                                        42.2504
        23.7504
 09 10 12  0 21  0.0000000  0  8G02G04G05G13G29G23G10G25
 -12794456.53548  -9905517.97347
                  20419692.1804                                   20419686.5434
                                                                        52.0004
        43.0004
  -1006955.25447   -754726.59046
                  22026922.0784                                   22026918.9734
                                                                        47.7504
        36.0004
 -10309460.46147  -7985986.14545
                  22838998.4534                                   22838995.0044
                                                                        47.2504
        35.7504
 -15566700.82848 -12056615.23046
                  21158135.6484                                   21158131.6644
                                                                        48.5004
        36.0004
 -15257938.65647 -11851956.78945
                  22600944.0704                                   22600941.2664
                                                                        47.0004
        35.0004
  -3813823.83647  -2930507.68445
                  22738504.3914                                   22738498.4104
                                                                        46.0004
        30.7504
 -16008812.09048 -12453191.00446
                  22040935.2584                                   22040931.5124
                                                                        48.0004
        36.0004
  -3695891.99246  -2838643.11343
                  23527861.1884                                   23527858.6564
                                                                        40.2504
        23.2504
 09 10 12  0 21 30.0000000  0  8G02G04G05G13G29G23G10G25
 -12862103.08248  -9958229.57047
                  20406819.5554                                   20406813.9574
                                                                        52.0004
        42.7504
  -1001274.22347   -750299.81645
                  22028002.9774                                   22027999.9454
                                                                        47.2504
        35.7504
 -10492920.38747  -8128941.89846
                  22804087.0394                                   22804083.5554
                                                                        47.0004
        36.0004
 -15648550.34848 -12120394.06646
                  21142560.4534                                   21142556.5594
                                                                        49.0004
        36.5004
 -15402682.23847 -11964743.98445
                  22573400.1644                                   22573397.4494
                                                                        47.2504
        34.2504
  -3820021.28547  -2935336.83644
                  22737325.0234                                   22737319.0944
                                                                        45.0004
        29.2504
 -16184429.11347 -12590035.43745
                  22007515.9144                                   22007512.4064
                                                                        47.2504
        35.7504
  -3854082.63747  -2961908.48844
                  23497758.6334                                   23497755.7194
                                                                        42.2504
        25.2504
 09 10 12  0 22  0.0000000  0  8G02G04G05G13G29G23G10G25
 -12929163.25048 -10010484.24247
                  20394058.4614                                   20394052.7074
                                                                        52.0004
        42.0004
   -995240.38347   -745598.12545
                  22029151.6094                                   22029147.9534
                                                                        47.5004
        35.5004
 -10676116.77747  -8271692.30146
                  22769226.4534                                   22769222.6334
                                                                        46.7504
        36.0004
 -15729727.60248 -12183649.08246
                  21127112.8914                                   21127108.8244
                                                                        48.5004
        36.5004
 -15546930.91447 -12077145.54345
                  22545950.5784                                   22545947.3244
                                                                        47.7504
        34.2504
  -3825765.86747  -2939813.12544
                  22736231.2424                                   22736225.7194
                                                                        45.0004
        28.2504
 -16359684.63347 -12726598.16845
                  21974166.2734                                   21974162.9144
                                                                        47.5004
        35.7504
  -4011878.57047  -3084866.34444
                  23467731.3134                                   23467728.3324
                                                                        42.0004
        24.5004
 09 10 12  0 22 30.0000000  0  8G02G04G05G13G29G23G10G25
 -12995637.00048 -10062281.98047
                  20381408.7034                                   20381403.1374
                                                                        51.2504
        42.5004
   -988855.62148   -740622.98446
                  22030366.2814                                   22030362.9104
                                                                        48.0004
        36.5004
 -10859046.84847  -8414235.20345
                  22734415.8204                                   22734412.2624
                                                                        45.5004
        35.2504
 -15810232.38348 -12246380.07446
                  21111793.0944                                   21111788.9884
                                                                        49.2504
        36.0004
 -15690681.32847 -12189158.84445
                  22518595.9694                                   22518592.5124
                                                                        46.5004
        33.5004
  -3831059.43747  -2943937.95744
                  22735224.4844                                   22735217.7504
                                                                        44.7504
        28.0004
 -16534575.73048 -12862876.94946
                  21940885.3594                                   21940882.0784
                                                                        48.0004
        36.5004
  -4169276.92247  -3207514.39544
                  23437779.7814                                   23437776.0394
                                                                        42.5004
        26.2504
 09 10 12  0 23  0.0000000  0  8G02G04G05G13G29G23G10G25
 -13061525.38748 -10113623.55947
                  20368870.6024                                   20368864.7344
                                                                        52.0004
        42.5004
   -982122.73048   -735376.58245
                  22031647.7344                                   22031644.3874
                                                                        49.0004
        35.5004
 -11041709.89847  -8556570.05145
                  22699655.8674                                   22699652.2814
                                                                        45.7504
        35.2504
 -15890066.01248 -12308588.10946
                  21096601.3364                                   21096597.4774
                                                                        50.0004
        36.7504
 -15833933.34447 -12300783.79745
                  22491336.0784                                   22491333.1484
                                                                        47.2504
        34.5004
  -3835905.73847  -2947714.28944
                  22734301.9224                                   22734295.8164
                                                                        45.0004
        28.5004
 -16709102.30948 -12998871.67246
                  21907674.1884                                   21907670.6334
                                                                        48.5004
        36.5004
  -4326276.22347  -3329851.50444
                  23407903.8054                                   23407899.8484
                                                                        43.0004
        24.7504
 09 10 12  0 23 30.0000000  0  8G02G04G05G13G29G23G10G25
 -13126831.46548 -10164511.43447
                  20356443.4224                                   20356437.6564
                                                                        51.5004
        42.7504
   -975046.80548   -729862.87545
                  22032994.1884                                   22032991.1844
                                                                        48.5004
        35.2504
 -11224107.00047  -8698697.67645
                  22664947.1564                                   22664943.4344
                                                                        46.5004
        35.5004
 -15969231.98448 -12370275.87946
                  21081536.5784                                   21081532.5594
                                                                        50.2504
        36.7504
 -15976687.27047 -12412020.58245
                  22464170.9534                                   22464167.5634
                                                                        47.5004
        35.0004
  -3840310.07847  -2951146.24244
                  22733464.5864                                   22733457.6954
                                                                        44.5004
        28.2504
 -16883264.83247 -13134582.71546
                  21874532.0554                                   21874528.8284
                                                                        47.7504
        36.0004
  -4482876.81247  -3451877.96144
                  23378103.5394                                   23378100.0354
                                                                        42.2504
        25.5004
 09 10 12  0 24  0.0000000  0  8G02G04G05G13G29G23G10G25
 -13191553.72348 -10214944.35247
                  20344126.7034                                   20344121.2664
                                                                        51.5004
        42.2504
   -967627.89148   -724081.91445
                  22034405.7894                                   22034402.6214
                                                                        48.5004
        35.5004
 -11406233.77747  -8840614.63346
                  22630289.4224                                   22630285.9574
                                                                        46.0004
        36.0004
 -16047727.89848 -12431441.52346
                  21066599.0164                                   21066595.5784
                                                                        50.2504
        36.2504
 -16118939.58647 -12522866.51645
                  22437101.2034                                   22437097.9454
                                                                        47.5004
        35.0004
  -3844273.16847  -2954234.37544
                  22732709.5554                                   22732703.9734
                                                                        44.5004
        28.2504
 -17057059.03148 -13270006.76246
                  21841460.1024                                   21841456.8054
                                                                        48.7504
        36.7504
  -4639074.27746  -3573590.23844
                  23348379.9924                                   23348376.7154
                                                                        41.5004
        26.5004
 09 10 12  0 24 30.0000000  0  8G02G04G05G13G29G23G10G25
 -11680270.23048  -9037320.85247
                  20631714.6024                                   20631709.1454
                                                                        52.0004
        42.5004
    615551.78148    509564.56645
                  22335675.0474                                   22335672.2384
                                                                        49.2504
        35.2504
 -10012662.37947  -7754714.82846
                  22895477.3054                                   22895473.5434
                                                                        46.2504
        36.5004
 -14550131.79348 -11264483.49646
                  21351582.3674                                   21351578.5314
                                                                        50.7504
        36.7504
 -14685263.23047 -11405716.07045
                  22709920.5474                                   22709917.7344
                                                                        47.7504
        35.5004
  -2272377.09447  -1729380.30545
                  23031831.9304                                   23031826.0204
                                                                        45.2504
        30.0004
 -15655057.01648 -12177537.65646
                  22108252.4694                                   22108248.9774
                                                                        49.0004
        36.7504
  -3219441.04746  -2467382.54344
                  23618527.4924                                   23618524.0474
                                                                        41.0004
        24.7504
 09 10 12  0 25  0.0000000  0  8G02G04G05G13G29G23G10G25
 -11743828.29348  -9086846.60547
                  20619619.7034                                   20619614.4344
                                                                        51.5004
        42.5004
    623647.50448    515872.91445
                  22337215.4224                                   22337212.2234
                                                                        49.0004
        35.2504
 -10194245.57847  -7896208.22745
                  22860922.5864                                   22860919.2464
                                                                        46.0004
        35.7504
 -14627292.21148 -11324608.49246
                  21336898.9774                                   21336895.0744
                                                                        51.5004
        36.7504
 -14826508.19547 -11515777.09845
                  22683042.8134                                   22683040.0664
                                                                        46.2504
        35.5004
  -2275467.47347  -1731788.39145
                  23031243.3834                                   23031237.9844
                                                                        46.2504
        30.2504
 -15828110.85548 -12312384.77046
                  22075321.4774                                   22075318.1214
                                                                        48.0004
        36.5004
  -3374827.82446  -2588463.07444
                  23588957.6094                                   23588954.7424
                                                                        40.5004
        25.2504
 09 10 12  0 25 30.0000000  0  8G02G04G05G13G29G23G10G25
 -11806803.69548  -9135918.36347
                  20607636.3674                                   20607631.0084
                                                                        51.7504
        43.0004
    632080.54348    522444.10545
                  22338820.1254                                   22338817.3094
                                                                        49.0004
        34.2504
 -10375553.20747  -8037486.90245
                  22826421.0944                                   22826417.6254
                                                                        47.0004
        35.5004
 -14703783.69548 -11384212.24246
                  21322343.4924                                   21322339.3164
                                                                        51.2504
        36.5004
 -14967246.05147 -11625442.91845
                  22656261.0474                                   22656258.3284
                                                                        45.7504
        35.7504
  -2278123.59447  -1733858.11744
                  23030738.2584                                   23030732.4344
                                                                        45.0004
        28.7504
 -16000790.72748 -12446940.49245
                  22042461.2734                                   22042457.9494
                                                                        48.0004
        35.7504
  -3529803.68746  -2709223.42644
                  23559466.6644                                   23559463.5984
                                                                        40.0004
        25.5004
 09 10 12  0 26  0.0000000  0  8G02G04G05G13G29G23G10G25
 -11869196.94148  -9184536.47347
                  20595763.2504                                   20595757.7664
                                                                        51.7504
        42.7504
    640847.69948    529275.63345
                  22340488.8444                                   22340485.4804
                                                                        48.7504
        35.5004
 -10556582.96147  -8178549.03546
                  22791972.1954                                   22791968.5554
                                                                        47.5004
        36.2504
 -14779607.41048 -11443295.66046
                  21307914.4614                                   21307910.1524
                                                                        51.0004
        36.2504
 -15107474.35547 -11734711.70345
                  22629576.6334                                   22629573.4694
                                                                        46.7504
        35.0004
  -2280348.73047  -1735592.03144
                  23030314.7974                                   23030308.8244
                                                                        46.7504
        29.5004
 -16173094.36748 -12581203.05946
                  22009673.0164                                   22009669.4534
                                                                        48.7504
        36.0004
  -3684367.32446  -2829662.60944
                  23530054.4224                                   23530051.2854
                                                                        40.5004
        24.5004
 09 10 12  0 26 30.0000000  0  8G02G04G05G13G29G23G10G25
 -11931009.90248  -9232702.40647
                  20584000.5554                                   20583994.8444
                                                                        52.0004
        43.0004
    649945.10248    536364.50845
                  22342219.5164                                   22342216.2774
                                                                        49.0004
        34.7504
 -10737334.92647  -8319394.71546
                  22757576.5084                                   22757573.2774
                                                                        47.5004
        36.7504
 -14854765.26648 -11501860.21146
                  21293612.5944                                   21293608.5084
                                                                        51.5004
        36.0004
 -15247192.62547 -11843583.07445
                  22602988.6414                                   22602986.0864
                                                                        46.7504
        35.0004
  -2282146.69547  -1736993.03544
                  23029973.2194                                   23029966.7814
                                                                        46.0004
        28.7504
 -16345021.59048 -12715172.31246
                  21976956.4924                                   21976953.2034
                                                                        49.0004
        36.7504
  -3838517.70747  -2949779.77044
                  23500720.8444                                   23500717.8134
                                                                        42.0004
        26.0004
 09 10 12  0 27  0.0000000  0  8G02G04G05G13G29G23G10G25
 -11992240.75848  -9280414.75847
                  20572348.6484                                   20572342.8164
                                                                        52.2504
        42.7504
    659373.59448    543711.36745
                  22344014.0394                                   22344010.7194
                                                                        48.7504
        34.7504
 -10917804.89848  -8460020.66046
                  22723234.4144                                   22723230.9104
                                                                        48.0004
        36.2504
 -14929255.46548 -11559904.53146
                  21279437.3364                                   21279433.3634
                                                                        51.0004
        36.7504
 -15386397.34447 -11952054.28945
                  22576499.1954                                   22576496.0784
                                                                        47.5004
        35.7504
  -2283518.05547  -1738061.63344
                  23029711.0234                                   23029705.3954
                                                                        45.0004
        27.2504
 -16516568.15248 -12848844.94946
                  21944311.8284                                   21944308.7624
                                                                        48.7504
        37.2504
  -3992249.98847  -3069571.16444
                  23471466.5944                                   23471462.9884
                                                                        42.5004
        25.2504
 09 10 12  0 27 30.0000000  0  8G02G04G05G13G29G23G10G25
 -12052888.56648  -9327672.79347
                  20560807.8364                                   20560802.2154
                                                                        52.7504
        42.7504
    669132.27048    551315.51645
                  22345871.0234                                   22345867.8134
                                                                        48.7504
        34.5004
 -11097989.87548  -8600424.52346
                  22688946.3054                                   22688942.4734
                                                                        49.0004
        36.5004
 -15003077.08648 -11617427.87946
                  21265389.8054                                   21265385.7424
                                                                        51.0004
        36.5004
 -15525084.93747 -12060122.50445
                  22550107.9064                                   22550104.5944
                                                                        47.2504
        35.5004
  -2284463.95347  -1738798.67244
                  23029532.0554                                   23029525.1214
                                                                        45.0004
        26.0004
 -16687730.93048 -12982218.51246
                  21911740.8754                                   21911737.8874
                                                                        48.5004
        36.7504
  -4145560.39547  -3189033.82844
                  23442293.1024                                   23442289.2384
                                                                        42.5004
        26.5004
 09 10 12  0 28  0.0000000  0  8G02G04G05G13G29G23G10G25
 -12112954.76248  -9374477.60947
                  20549377.6484                                   20549371.6884
                                                                        52.2504
        42.5004
    679217.62147    559174.20345
                  22347790.2114                                   22347787.3284
                                                                        47.2504
        34.2504
 -11277888.35948  -8740605.10946
                  22654712.5164                                   22654709.1644
                                                                        48.2504
        36.5004
 -15076231.62548 -11674431.41046
                  21251469.1954                                   21251464.8634
                                                                        51.5004
        36.7504
 -15663254.64147 -12167787.20746
                  22523814.9774                                   22523812.0634
                                                                        46.5004
        36.0004
  -2284987.55547  -1739206.67644
                  23029431.3834                                   23029425.8874
                                                                        45.0004
        26.5004
 -16858508.29748 -13115291.76646
                  21879242.9224                                   21879239.7584
                                                                        48.5004
        37.5004
  -4298447.65646  -3308166.77744
                  23413198.7734                                   23413195.7304
                                                                        40.7504
        24.5004
 09 10 12  0 28 30.0000000  0  8G02G04G05G13G29G23G10G25
 -12172439.17648  -9420829.10947
                  20538057.8444                                   20538052.9224
                                                                        52.5004
        42.2504
    689628.59048    567286.62145
                  22349771.5784                                   22349768.4964
                                                                        48.7504
        34.5004
 -11457497.54748  -8880560.28546
                  22620534.1564                                   22620530.6844
                                                                        48.5004
        36.2504
 -15148719.34848 -11730915.34446
                  21237674.8674                                   21237670.8014
                                                                        51.5004
        36.2504
 -15800903.75047 -12275046.25445
                  22497620.9534                                   22497617.9964
                                                                        46.7504
        35.5004
  -2285091.41047  -1739287.59444
                  23029412.1644                                   23029406.1914
                                                                        45.7504
        27.5004
 -17028897.74247 -13248062.73846
                  21846819.0084                                   21846815.4734
                                                                        47.5004
        37.0004
  -4450909.10246  -3426967.90244
                  23384186.1884                                   23384182.8984
                                                                        41.2504
        25.5004
 09 10 12  0 29  0.0000000  0  8G02G04G05G13G29G23G10G25
 -12231343.44148  -9466728.53947
                  20526848.8204                                   20526843.0784
                                                                        52.0004
        42.5004
    700362.10248    575650.37945
                  22351814.0784                                   22351811.0634
                                                                        49.0004
        34.7504
 -11636817.08648  -9020289.77346
                  22586410.9304                                   22586407.1214
                                                                        48.2504
        37.0004
 -15220541.21948 -11786880.44146
                  21224007.7114                                   21224003.9304
                                                                        51.2504
        37.0004
 -15938031.40247 -12381898.94546
                  22471526.5554                                   22471523.4654
                                                                        47.7504
        36.2504
  -2284778.25847  -1739043.57444
                  23029472.1484                                   23029465.8754
                                                                        45.5004
        28.0004
 -17198898.65648 -13380530.96146
                  21814468.7664                                   21814465.6094
                                                                        48.5004
        36.7504
  -4602942.80146  -3545435.66044
                  23355255.2664                                   23355251.9184
                                                                        40.5004
        26.2504
 09 10 12  0 29 30.0000000  0  8G02G04G05G13G29G23G10G25
 -12289668.32848  -9512176.48447
                  20515749.9534                                   20515744.5394
                                                                        51.5004
        42.0004
    711415.43448    584263.34445
                  22353917.5234                                   22353914.4614
                                                                        48.0004
        34.2504
 -11815845.84448  -9159792.69146
                  22552342.4924                                   22552339.2544
                                                                        48.0004
        36.7504
 -15291698.68748 -11842327.81246
                  21210467.0554                                   21210463.0044
                                                                        50.7504
        36.5004
 -16074636.54747 -12488344.44946
                  22445531.6414                                   22445528.8754
                                                                        47.0004
        36.0004
  -2284051.30147  -1738477.11344
                  23029610.2034                                   23029604.2934
                                                                        45.7504
        27.2504
 -17368509.42648 -13512695.18746
                  21782192.7194                                   21782189.6604
                                                                        48.5004
        37.5004
  -4754547.14146  -3663568.93443
                  23326406.1724                                   23326402.7274
                                                                        41.0004
        23.7504
 09 10 12  0 30  0.0000000  0  8G02G04G05G13G29G23G10G25
 -12347408.53948  -9557168.85547
                  20504762.5554                                   20504756.9344
                                                                        51.7504
        42.0004
    722792.18447    593128.32845
                  22356082.1254                                   22356079.0664
                                                                        47.5004
        34.5004
 -11994575.77347  -9299062.77046
                  22518331.6564                                   22518327.9844
                                                                        47.7504
        36.5004
 -15362186.62548 -11897253.47346
                  21197053.5084                                   21197049.4024
                                                                        51.0004
        36.2504
 -16210711.34047 -12594376.71545
                  22419637.4384                                   22419634.6724
                                                                        47.0004
        35.7504
  -2282908.12547  -1737586.32044
                  23029827.1484                                   23029821.9344
                                                                        45.0004
        29.5004
 -17537721.94148 -13644549.07846
                  21749992.9694                                   21749989.3834
                                                                        49.0004
        37.0004
  -4905714.28946  -3781361.51644
                  23297640.0314                                   23297636.8134
                                                                        40.7504
        25.5004
 09 10 12  0 30 30.0000000  0  8G02G04G05G13G29G23G10G25
 -12404567.10948  -9601707.98447
                  20493885.5394                                   20493880.0634
                                                                        52.0004
        42.2504
    734488.24647    602242.12545
                  22358307.9774                                   22358304.9774
                                                                        47.7504
        33.7504
 -12173009.29348  -9438101.85946
                  22484376.4774                                   22484372.9104
                                                                        48.0004
        36.7504
 -15432007.66448 -11951659.47346
                  21183766.8674                                   21183762.6484
                                                                        50.7504
        36.5004
 -16346256.43048 -12699996.23446
                  22393843.8444                                   22393841.1994
                                                                        48.5004
        37.0004
  -2281352.74247  -1736374.32444
                  23030123.5784                                   23030118.1414
                                                                        44.5004
        28.0004
 -17706537.31248 -13776093.51246
                  21717868.3984                                   21717865.0784
                                                                        49.5004
        37.5004
  -5056443.67247  -3898812.91844
                  23268957.3444                                   23268954.3484
                                                                        42.2504
        27.5004
 09 10 12  0 31  0.0000000  0  8G02G04G05G13G29G23G10G25
 -12461144.41448  -9645794.21547
                  20483118.8204                                   20483113.6844
                                                                        51.5004
        42.2504
    746501.05548    611602.75045
                  22360594.2664                                   22360590.6454
                                                                        48.2504
        34.0004
 -12351137.55148  -9576903.09846
                  22450480.0784                                   22450476.4774
                                                                        48.5004
        37.5004
 -15501162.77748 -12005546.57046
                  21170607.1804                                   21170603.1054
                                                                        50.7504
        36.2504
 -16481269.72347 -12805201.36746
                  22368151.6644                                   22368148.6484
                                                                        47.7504
        37.0004
  -2279388.29347  -1734843.60244
                  23030497.1564                                   23030491.4614
                                                                        43.0004
        27.2504
 -17874952.95748 -13907326.49646
                  21685820.3594                                   21685816.5784
                                                                        50.0004
        37.0004
  -5206733.30147  -4015921.68444
                  23240358.1024                                   23240354.5824
                                                                        42.0004
        27.0004
 09 10 12  0 31 30.0000000  0  8G02G04G05G13G29G23G10G25
 -12517144.74248  -9689430.85547
                  20472462.4304                                   20472457.3404
                                                                        50.5004
        43.0004
    758824.73448    621205.59845
                  22362939.2974                                   22362936.4184
                                                                        48.0004
        34.7504
 -12528968.73447  -9715472.87946
                  22416639.5704                                   22416636.6644
                                                                        47.5004
        37.5004
 -15569656.45348 -12058918.26646
                  21157573.1884                                   21157569.0314
                                                                        50.0004
        36.2504
 -16615753.10248 -12909993.60545
                  22342560.0864                                   22342557.2774
                                                                        48.2504
        35.7504
  -2277021.10247  -1732999.03544
                  23030947.6484                                   23030941.7544
                                                                        42.7504
        26.5004
 -18042970.28548 -14038249.09446
                  21653847.2034                                   21653843.5354
                                                                        49.2504
        37.2504
  -5356584.92647  -4132689.19144
                  23211842.4224                                   23211838.7624
                                                                        43.7504
        27.7504
 09 10 12  0 32  0.0000000  0  8G02G04G05G13G29G23G10G25
 -12572564.15248  -9732614.82447
                  20461916.8284                                   20461911.1954
                                                                        51.5004
        42.7504
    771462.16848    631052.93045
                  22365343.7974                                   22365340.9804
                                                                        48.5004
        34.5004
 -12706495.96148  -9853805.79746
                  22382857.7974                                   22382854.5824
                                                                        48.0004
        37.5004
 -15637484.14148 -12111770.99246
                  21144666.2504                                   21144662.0044
                                                                        49.7504
        36.7504
 -16749700.54348 -13014368.20745
                  22317071.1094                                   22317067.7304
                                                                        48.2504
        35.5004
  -2274248.52747  -1730838.61344
                  23031475.9614                                   23031469.5984
                                                                        44.5004
        27.7504
 -18210583.64848 -14168856.91846
                  21621951.4614                                   21621947.5044
                                                                        50.2504
        37.7504
  -5505990.71547  -4249109.21544
                  23183411.2814                                   23183407.6914
                                                                        43.0004
        26.7504
 09 10 12  0 32 30.0000000  0  8G02G04G05G13G29G23G10G25
 -12627404.17248  -9775347.29747
                  20451481.1254                                   20451475.7154
                                                                        51.7504
        42.2504
    784409.85248    641142.01645
                  22367807.7504                                   22367804.9534
                                                                        48.5004
        34.0004
 -12883717.08247  -9991900.17645
                  22349133.6804                                   22349129.5084
                                                                        47.0004
        35.7504
 -15704648.46548 -12164106.82446
                  21131885.0474                                   21131881.1844
                                                                        50.2504
        36.7504
 -16883110.94148 -13118324.33645
                  22291683.9614                                   22291680.4614
                                                                        48.2504
        35.7504
  -2271074.73047  -1728365.50044
                  23032079.5164                                   23032073.2774
                                                                        43.7504
        26.0004
 -18377791.54348 -14299148.79746
                  21590132.9454                                   21590129.4924
                                                                        49.5004
        37.5004
  -5654950.39547  -4365181.68444
                  23155065.0554                                   23155061.4144
                                                                        43.0004
        25.5004
 09 10 12  0 33  0.0000000  0  8G02G04G05G13G29G23G10G25
 -12681665.25448  -9817628.64547
                  20441155.5084                                   20441150.0474
                                                                        51.7504
        42.5004
    797666.13748    651471.55945
                  22370330.4064                                   22370327.6994
                                                                        49.2504
        34.0004
 -13060630.23847 -10129754.55946
                  22315467.7734                                   22315464.1994
                                                                        47.5004
        37.0004
 -15771149.70348 -12215925.97346
                  21119230.0474                                   21119226.4574
                                                                        51.0004
        36.2504
 -17015982.84048 -13221860.87145
                  22266398.8674                                   22266395.6214
                                                                        49.0004
        35.7504
  -2267502.14547  -1725581.67244
                  23032759.5784                                   23032752.7194
                                                                        45.0004
        26.5004
 -18544591.72748 -14429122.98046
                  21558391.9924                                   21558388.2344
                                                                        50.5004
        37.5004
  -5803461.23447  -4480904.39144
                  23126804.5944                                   23126800.3444
                                                                        43.7504
        25.0004
 09 10 12  0 33 30.0000000  0  8G02G04G05G13G29G23G10G25
 -12735345.59448  -9859457.46547
                  20430940.5944                                   20430935.0984
                                                                        52.5004
        42.5004
    811231.66048    662042.09445
                  22372912.1484                                   22372908.9104
                                                                        48.7504
        33.7504
 -13237230.46948 -10267365.12946
                  22281862.3984                                   22281858.5984
                                                                        48.2504
        37.5004
 -15836986.09048 -12267227.04346
                  21106702.2504                                   21106697.9694
                                                                        50.5004
        36.2504
 -17148311.81248 -13324974.33045
                  22241217.9144                                   22241214.6764
                                                                        49.0004
        35.7504
  -2263530.80947  -1722487.09444
                  23033515.5234                                   23033508.4144
                                                                        44.7504
        26.5004
 -18710979.69948 -14558775.93046
                  21526728.9694                                   21526726.3054
                                                                        50.0004
        37.5004
  -5951518.25047  -4596273.48044
                  23098629.8674                                   23098625.5904
                                                                        43.5004
        26.5004
 09 10 12  0 34  0.0000000  0  8G02G04G05G13G29G23G10G25
 -11213026.02748  -8673234.43747
                  20720628.5314                                   20720622.8134
                                                                        52.0004
        42.0004
   2400521.19548   1900449.51645
                  22675343.4224                                   22675340.7544
                                                                        49.0004
        34.0004
 -11838092.11348  -9177127.47346
                  22548109.5084                                   22548105.9804
                                                                        48.2504
        37.2504
 -14326738.07848 -11090410.42646
                  21394092.5864                                   21394088.4224
                                                                        51.0004
        36.2504
 -15704672.99648 -12200060.95346
                  22515933.3524                                   22515930.0554
                                                                        48.7504
        36.0004
   -683744.96147   -491485.13744
                  23334138.3984                                   23334132.0864
                                                                        44.2504
        27.7504
 -17301530.23448 -13460503.58646
                  21794938.3914                                   21794935.3914
                                                                        50.5004
        38.2504
  -4523696.45347  -3483685.06244
                  23370335.1024                                   23370331.1954
                                                                        43.0004
        24.5004
 09 10 12  0 34 30.0000000  0  8G02G04G05G13G29G23G10G25
 -11265548.48848  -8714161.03147
                  20710633.3754                                   20710628.0084
                                                                        51.0004
        42.5004
   2414696.16847   1911494.93045
                  22678040.8444                                   22678038.3284
                                                                        47.5004
        34.5004
 -12014063.37148  -9314247.92246
                  22514623.1884                                   22514619.8284
                                                                        48.5004
        38.2504
 -14391248.87948 -11140678.58646
                  21381816.8444                                   21381812.6134
                                                                        50.0004
        36.5004
 -15835912.69548 -12302325.64846
                  22490959.1954                                   22490956.1484
                                                                        48.7504
        36.5004
   -678985.41446   -487776.39544
                  23335044.0554                                   23335038.2074
                                                                        41.5004
        27.0004
 -17467090.60548 -13589511.69146
                  21763433.6414                                   21763430.2424
                                                                        50.0004
        37.5004
  -4670841.28547  -3598343.36744
                  23342334.4774                                   23342331.4694
                                                                        42.2504
        26.0004
 09 10 12  0 35  0.0000000  0  8G02G04G05G13G29G23G10G25
 -11317492.18448  -8754636.63347
                  20700749.0084                                   20700743.2814
                                                                        52.2504
        42.2504
   2429173.96147   1922776.32845
                  22680796.2194                                   22680792.8364
                                                                        47.5004
        33.5004
 -12189716.47748  -9451120.51646
                  22481197.6724                                   22481194.2114
                                                                        48.2504
        38.0004
 -14455097.16448 -11190430.49646
                  21369666.6334                                   21369662.4304
                                                                        50.0004
        36.0004
 -15966604.13348 -12404163.11346
                  22466088.8914                                   22466086.5394
                                                                        49.2504
        36.5004
   -673834.43447   -483762.66044
                  23336024.0634                                   23336018.5274
                                                                        43.0004
        27.7504
 -17632233.01248 -13718194.08246
                  21732008.2894                                   21732004.5394
                                                                        50.5004
        38.7504
  -4817525.35247  -3712642.59844
                  23314421.0784                                   23314418.2974
                                                                        44.0004
        27.2504
 09 10 12  0 35 30.0000000  0  9G02G04G05G13G29G23G16G10G25
 -11368860.03948  -8794663.50446
                  20690973.5474                                   20690968.5744
                                                                        52.5004
        41.7504
   2443949.83648   1934289.96945
                  22683607.8834                                   22683604.7344
                                                                        48.2504
        33.5004
 -12365051.46548  -9587745.18046
                  22447832.2194                                   22447828.9144
                                                                        49.0004
        37.7504
 -14518286.42248 -11239668.86745
                  21357642.1804                                   21357638.5784
                                                                        50.2504
        35.7504
 -16096748.14848 -12505574.03946
                  22441323.6484                                   22441320.9024
                                                                        49.7504
        36.7504
   -668297.43747   -479448.12544
                  23337077.9144                                   23337072.4964
                                                                        43.7504
        26.0004
   6109435.00456   4796933.88354
                  24442284.0784                                   24442279.3484
                                                                        41.2504
        24.0004
 -17796957.83648 -13846551.09046
                  21700662.2734                                   21700658.5354
                                                                        50.2504
        37.5004
  -4963749.39547  -3826583.35544
                  23286595.7114                                   23286592.6454
                                                                        43.7504
        27.0004
 09 10 12  0 36  0.0000000  0  9G02G04G05G13G29G23G16G10G25
 -11419653.71148  -8834242.97746
                  20681308.2894                                   20681302.8674
                                                                        52.2504
        41.7504
   2459020.53148   1946033.34845
                  22686475.6954                                   22686472.7734
                                                                        48.5004
        32.5004
 -12540067.37148  -9724121.21546
                  22414527.9614                                   22414524.7034
                                                                        49.0004
        38.0004
 -14580818.28548 -11288395.00846
                  21345742.6484                                   21345738.4614
                                                                        50.0004
        36.2504
 -16226343.66848 -12606557.59046
                  22416662.5314                                   22416659.7304
                                                                        49.2504
        36.5004
   -662377.83647   -474835.48844
                  23338204.4924                                   23338199.0944
                                                                        43.7504
        27.5004
   5958110.04746   4679018.34044
                  24413488.0474                                   24413483.7344
                                                                        40.7504
        24.0004
 -17961263.91448 -13974581.79346
                  21669395.5394                                   21669391.7894
                                                                        50.2504
        37.7504
  -5109512.07047  -3940164.61744
                  23258858.5474                                   23258855.4884
                                                                        44.0004
        28.0004
 09 10 12  0 36 30.0000000  0  9G02G04G05G13G29G23G16G10G25
 -11469878.07048  -8873378.83647
                  20671751.1804                                   20671745.2154
                                                                        52.5004
        42.0004
   2474380.28948   1958001.96545
                  22689398.8914                                   22689395.2544
                                                                        48.0004
        33.0004
 -12714766.67648  -9860250.54746
                  22381283.9774                                   22381280.4774
                                                                        50.0004
        38.0004
 -14642697.70748 -11336612.73446
                  21333967.7344                                   21333963.7894
                                                                        50.7504
        36.5004
 -16355393.48448 -12707115.85946
                  22392104.8674                                   22392101.9454
                                                                        49.5004
        36.5004
   -656082.05547   -469929.68044
                  23339402.4534                                   23339396.1804
                                                                        43.7504
        25.5004
   5807244.63746   4561460.92643
                  24384778.9774                                   24384774.7424
                                                                        39.7504
        22.5004
 -18125154.16448 -14102288.48446
                  21638208.1024                                   21638204.5124
                                                                        50.2504
        37.5004
  -5254814.89847  -4053387.57844
                  23231208.5314                                   23231204.7344
                                                                        43.5004
        28.0004
 09 10 12  0 37  0.0000000  0  9G02G04G05G13G29G23G16G10G25
 -11519531.51248  -8912069.82046
                  20662302.1724                                   20662296.4804
                                                                        52.5004
        41.7504
   2490029.40648   1970196.09045
                  22692376.5704                                   22692373.0984
                                                                        48.0004
        33.0004
 -12889145.17248  -9996129.90246
                  22348100.8054                                   22348096.6954
                                                                        49.0004
        37.5004
 -14703923.48848 -11384321.13346
                  21322316.5864                                   21322312.7154
                                                                        50.5004
        36.5004
 -16483893.73048 -12807245.89546
                  22367652.1484                                   22367649.4964
                                                                        49.0004
        36.5004
   -649411.13747   -464731.56244
                  23340671.2894                                   23340665.7934
                                                                        44.0004
        26.5004
   5656842.73446   4444264.65643
                  24356158.1334                                   24356153.8404
                                                                        40.2504
        22.5004
 -18288623.78548 -14229667.42646
                  21607101.2274                                   21607097.2154
                                                                        49.7504
        38.0004
  -5399653.57447  -4166248.84444
                  23203646.3134                                   23203642.6914
                                                                        45.5004
        28.2504
 09 10 12  0 37 30.0000000  0  9G02G04G05G13G29G23G16G10G25
 -11568612.62148  -8950314.84847
                  20652962.4064                                   20652956.6094
                                                                        52.5004
        42.0004
   2505967.43047   1982615.31345
                  22695409.5084                                   22695406.3554
                                                                        47.7504
        33.2504
 -13063198.42248 -10131755.79746
                  22314979.1484                                   22314975.6954
                                                                        49.5004
        38.2504
 -14764494.14848 -11431519.04346
                  21310790.6024                                   21310786.4304
                                                                        50.5004
        36.2504
 -16611839.73448 -12906944.05946
                  22343304.7584                                   22343301.9734
                                                                        48.7504
        36.7504
   -642364.55947   -459240.69144
                  23342012.6484                                   23342006.5234
                                                                        44.0004
        25.0004
   5506909.74646   4327433.77743
                  24327626.6644                                   24327622.3754
                                                                        38.7504
        19.2504
 -18451668.34448 -14356715.14846
                  21576074.6954                                   21576071.1214
                                                                        50.5004
        38.2504
  -5544023.74647  -4278745.04744
                  23176174.1024                                   23176170.0314
                                                                        45.5004
        27.5004
 09 10 12  0 38  0.0000000  0  9G02G04G05G13G29G23G16G10G25
 -11617121.56248  -8988114.02047
                  20643731.1724                                   20643725.8094
                                                                        52.2504
        42.0004
   2522193.42247   1995258.90645
                  22698497.4694                                   22698494.3094
                                                                        46.5004
        33.5004
 -13236924.07048 -10267126.41846
                  22281920.5394                                   22281916.9064
                                                                        50.0004
        38.0004
 -14824410.40648 -11478207.04345
                  21299388.8834                                   21299385.2114
                                                                        50.5004
        35.7504
 -16739230.40248 -13006209.48446
                  22319063.2504                                   22319060.0984
                                                                        49.0004
        37.0004
   -634945.12547   -453459.30144
                  23343424.7344                                   23343418.3134
                                                                        44.5004
        26.5004
   5357447.68046   4210969.86343
                  24299184.7664                                   24299180.5984
                                                                        39.7504
        19.0004
 -18614286.27748 -14483430.42646
                  21545129.4304                                   21545126.5554
                                                                        49.5004
        39.0004
  -5687922.61347  -4390874.02044
                  23148790.3594                                   23148786.6954
                                                                        45.2504
        28.0004
 09 10 12  0 38 30.0000000  0  9G02G04G05G13G29G23G16G10G25
 -11665052.41848  -9025462.75047
                  20634610.4614                                   20634604.9494
                                                                        52.2504
        42.2504
   2538711.40247   2008130.03945
                  22701640.6174                                   22701637.6334
                                                                        46.0004
        33.5004
 -13410313.64148 -10402235.17246
                  22248925.2504                                   22248922.2074
                                                                        50.0004
        38.5004
 -14883666.20748 -11524380.39546
                  21288112.7664                                   21288108.7344
                                                                        50.5004
        36.0004
 -16866056.67648 -13105035.15246
                  22294928.9064                                   22294925.7734
                                                                        49.0004
        36.5004
   -627148.12547   -447383.68744
                  23344908.4384                                   23344902.1914
                                                                        43.7504
        25.7504
   5208466.69146   4094880.76243
                  24270834.9534                                   24270829.7894
                                                                        40.0004
        18.2504
 -18776468.30948 -14609806.01246
                  21514267.6094                                   21514264.1564
                                                                        50.0004
        38.2504
  -5831341.46147  -4502628.94144
                  23121498.5164                                   23121494.8914
                                                                        44.7504
        27.5004
 09 10 12  0 39  0.0000000  0  9G02G04G05G13G29G23G16G10G25
 -11712402.91448  -9062359.24247
                  20625599.9384                                   20625594.3444
                                                                        52.5004
        42.0004
   2555522.72347   2021229.74245
                  22704839.0944                                   22704836.7074
                                                                        46.5004
        32.5004
 -13583361.94148 -10537077.99646
                  22215995.8524                                   22215992.0394
                                                                        50.5004
        38.0004
 -14942259.79748 -11570037.74646
                  21276962.8914                                   21276958.9734
                                                                        51.0004
        36.0004
 -16992314.50448 -13203417.90246
                  22270902.9534                                   22270900.0164
                                                                        49.0004
        36.5004
   -618973.65647   -441013.98044
                  23346463.4844                                   23346457.9384
                                                                        43.0004
        24.7504
   5059971.49746   3979170.22643
                  24242576.9144                                   24242572.3054
                                                                        40.5004
        19.2504
 -18938209.68448 -14735838.23046
                  21483489.0634                                   21483485.4884
                                                                        50.0004
        38.2504
  -5974274.82447  -4614005.56244
                  23094299.0084                                   23094295.4144
                                                                        44.5004
        27.0004
 09 10 12  0 39 30.0000000  0  9G02G04G05G13G29G23G16G10G25
 -11759177.12548  -9098806.68447
                  20616699.1564                                   20616693.5084
                                                                        52.7504
        42.0004
   2572621.86747   2034553.72745
                  22708093.6954                                   22708090.3794
                                                                        46.5004
        32.0004
 -13756070.41448 -10671656.01246
                  22183130.3914                                   22183126.9454
                                                                        50.0004
        38.0004
 -15000195.55948 -11615182.48045
                  21265938.2424                                   21265934.4534
                                                                        50.7504
        35.7504
 -17118005.19948 -13301358.68446
                  22246984.8594                                   22246981.3874
                                                                        49.2504
        36.7504
   -610427.26247   -434354.45744
                  23348090.7974                                   23348084.7504
                                                                        44.0004
        26.7504
   4911961.23846   3863837.57843
                  24214411.3444                                   24214407.2544
                                                                        40.5004
        19.5004
 -19099511.94548 -14861528.31246
                  21452793.9534                                   21452790.7424
                                                                        50.5004
        38.5004
  -6116724.22347  -4725005.07844
                  23067191.5944                                   23067187.9264
                                                                        44.2504
        26.2504
 09 10 12  0 40  0.0000000  0  9G02G04G05G13G29G23G16G10G25
 -11805370.67248  -9134801.65646
                  20607908.5634                                   20607903.4804
                                                                        52.0004
        41.7504
   2590011.93447   2048104.39845
                  22711402.8594                                   22711399.7344
                                                                        46.5004
        32.5004
 -13928432.10248 -10805963.82446
                  22150330.6334                                   22150327.4534
                                                                        49.5004
        38.5004
 -15057469.19148 -11659811.28546
                  21255039.6094                                   21255035.4964
                                                                        50.5004
        36.2504
 -17243122.02748 -13398852.27746
                  22223175.6954                                   22223172.5904
                                                                        49.0004
        36.5004
   -601506.14847   -427402.94144
                  23349788.0394                                   23349782.3634
                                                                        44.0004
        27.5004
   4764443.61346   3748888.78943
                  24186339.8754                                   24186335.6294
                                                                        40.7504
        19.2504
 -19260367.55948 -14986870.34446
                  21422183.8984                                   21422180.7544
                                                                        50.5004
        38.5004
  -6258682.13347  -4835621.60244
                  23040178.2034                                   23040174.7704
                                                                        44.5004
        28.2504
 09 10 12  0 40 30.0000000  0  9G02G04G05G13G29G23G16G10G25
 -11850985.84848  -9170345.98847
                  20599228.7734                                   20599222.8404
                                                                        52.2504
        42.0004
   2607689.17647   2061878.85945
                  22714766.3524                                   22714763.6134
                                                                        46.5004
        33.0004
 -14100446.20348 -10940000.80946
                  22117597.6414                                   22117594.1804
                                                                        49.5004
        38.7504
 -15114083.18448 -11703926.08246
                  21244265.8754                                   21244262.0434
                                                                        50.7504
        36.2504
 -17367664.79748 -13495898.57846
                  22199475.9774                                   22199472.7154
                                                                        49.0004
        36.0004
   -592215.05147   -420163.14144
                  23351556.3594                                   23351550.1724
                                                                        45.2504
        28.0004
   4617419.21146   3634324.31343
                  24158362.6414                                   24158357.6844
                                                                        41.5004
        20.2504
 -19420776.19948 -15111864.05546
                  21391659.8674                                   21391656.4534
                                                                        50.2504
        38.2504
  -6400148.25047  -4945854.92644
                  23013258.4694                                   23013254.7114
                                                                        44.5004
        27.0004
 09 10 12  0 41  0.0000000  0 10G02G04G05G13G29G23G16G07G10G25
 -11896021.66848  -9205438.85247
                  20590658.4694                                   20590652.8404
                                                                        52.2504
        42.0004
   2625653.92647   2075877.33245
                  22718185.1414                                   22718182.7274
                                                                        45.5004
        33.0004
 -14272109.57048 -11073764.46146
                  22084931.1254                                   22084927.5274
                                                                        50.0004
        38.7504
 -15170036.99248 -11747526.44545
                  21233618.0554                                   21233614.1994
                                                                        50.5004
        35.7504
 -17491630.84048 -13592495.49646
                  22175886.1954                                   22175882.5634
                                                                        48.7504
        36.5004
   -582554.22747   -412635.23844
                  23353394.6174                                   23353388.4924
                                                                        44.5004
        26.5004
   4470892.04347   3520147.30143
                  24130479.7504                                   24130474.6214
                                                                        43.5004
        22.0004
   6071018.80956   4774196.45353
                  24339973.8204                                   24339970.2074
                                                                        39.7504
        21.2504
 -19580734.67248 -15236507.02046
                  21361220.6334                                   21361217.1954
                                                                        51.0004
        38.7504
  -6541117.94147  -5055701.43444
                  22986432.4064                                   22986429.1094
                                                                        44.7504
        27.7504
 09 10 12  0 41 30.0000000  0 10G02G04G05G13G29G23G16G07G10G25
 -11940483.85948  -9240084.75446
                  20582197.7274                                   20582192.3164
                                                                        52.0004
        41.2504
   2643898.90247   2090094.17645
                  22721657.0084                                   22721654.0704
                                                                        44.2504
        32.7504
 -14443424.38748 -11207256.53146
                  22052331.0704                                   22052327.5394
                                                                        49.7504
        38.2504
 -15225336.35948 -11790616.85546
                  21223095.1484                                   21223091.2114
                                                                        50.5004
        36.0004
 -17615022.48048 -13688644.82446
                  22152405.6024                                   22152402.2704
                                                                        49.5004
        36.7504
   -572531.13347   -404825.00444
                  23355301.8524                                   23355295.3524
                                                                        44.2504
        25.0004
   4324860.32847   3406356.34043
                  24102690.8134                                   24102686.0634
                                                                        42.7504
        21.0004
   5889257.58647   4632564.38743
                  24305386.1724                                   24305382.1724
                                                                        42.2504
        23.5004
 -19740245.70748 -15360801.34446
                  21330866.3674                                   21330862.7934
                                                                        50.2504
        38.0004
  -6681594.36347  -5165163.55144
                  22959700.4614                                   22959697.2664
                                                                        44.7504
        28.7504
 09 10 12  0 42  0.0000000  0 10G02G04G05G13G29G23G16G07G10G25
 -11984380.92648  -9274290.21547
                  20573844.5004                                   20573838.9694
                                                                        52.2504
        42.2504
   2662414.05547   2104521.55945
                  22725180.4304                                   22725177.2734
                                                                        45.7504
        31.7504
 -14614396.99248 -11340481.94946
                  22019796.4534                                   22019792.9104
                                                                        49.7504
        39.0004
 -15279990.66848 -11833204.62146
                  21212695.0084                                   21212691.0944
                                                                        50.0004
        36.0004
 -17737846.19948 -13784351.59846
                  22129033.0394                                   22129029.5474
                                                                        48.2504
        37.2504
   -562156.31247   -396740.73843
                  23357275.5164                                   23357269.7384
                                                                        42.7504
        23.0004
   4179318.48447   3292947.08643
                  24074994.7114                                   24074990.2814
                                                                        42.0004
        21.5004
   5707751.54347   4491131.15244
                  24270846.6954                                   24270842.6414
                                                                        43.5004
        25.2504
 -19899315.04748 -15484751.46946
                  21300596.8054                                   21300593.2664
                                                                        49.5004
        39.0004
  -6821583.43747  -5274245.94145
                  22933062.1724                                   22933059.1884
                                                                        45.5004
        30.2504
 09 10 12  0 42 30.0000000  0 10G02G04G05G13G29G23G16G07G10G25
 -12027710.57448  -9308053.54347
                  20565598.8834                                   20565593.6684
                                                                        51.0004
        42.7504
   2681200.95347   2119160.68845
                  22728755.5474                                   22728752.0084
                                                                        44.7504
        31.5004
 -14785021.47348 -11473436.09046
                  21987327.4454                                   21987323.7114
                                                                        50.0004
        39.0004
 -15333996.61348 -11875287.18046
                  21202417.8134                                   21202413.8954
                                                                        50.0004
        36.2504
 -17860097.45348 -13879612.32446
                  22105768.9774                                   22105765.7544
                                                                        49.0004
        37.0004
   -551428.99247   -388381.80143
                  23359316.9144                                   23359311.4454
                                                                        43.5004
        22.7504
   4034271.49246   3179923.46943
                  24047392.7584                                   24047388.8014
                                                                        40.5004
        22.0004
   5526507.40547   4349901.99344
                  24236356.5944                                   24236352.9774
                                                                        43.7504
        25.5004
 -20057937.33648 -15608353.22746
                  21270411.7974                                   21270408.6884
                                                                        50.5004
        39.2504
  -6961079.52047  -5382944.19544
                  22906516.3134                                   22906513.1414
                                                                        45.7504
        28.5004
 09 10 12  0 43  0.0000000  0 10G02G04G05G13G29G23G16G07G10G25
 -12070468.29348  -9341371.25047
                  20557462.2194                                   20557457.0824
                                                                        52.5004
        42.0004
   2700262.81647   2134014.06345
                  22732382.8284                                   22732379.1604
                                                                        46.0004
        31.2504
 -14955291.12548 -11606113.71946
                  21954926.2274                                   21954922.8754
                                                                        49.2504
        38.0004
 -15387351.37548 -11916862.32845
                  21192264.8204                                   21192260.9144
                                                                        49.5004
        35.7504
 -17981769.60948 -13974421.81646
                  22082615.6804                                   22082612.5394
                                                                        49.0004
        36.7504
   -540345.98047   -379745.69544
                  23361426.2424                                   23361419.9534
                                                                        43.2504
        24.5004
   3889727.48446   3067291.80943
                  24019887.4924                                   24019883.4104
                                                                        40.5004
        22.0004
   5345533.72747   4208883.60244
                  24201918.2504                                   24201914.6604
                                                                        42.5004
        25.7504
 -20216105.39848 -15731601.07446
                  21240313.3284                                   21240310.2384
                                                                        50.5004
        39.0004
  -7100074.75447  -5491252.18744
                  22880066.9924                                   22880063.3364
                                                                        44.5004
        28.5004
 09 10 12  0 43 30.0000000  0 10G02G04G05G13G29G23G16G07G10G25
 -10537230.96948  -8146640.88346
                  20849227.6094                                   20849222.2194
                                                                        51.0004
        41.7504
   4295019.54347   3376681.61745
                  23035855.0004                                   23035852.2274
                                                                        45.5004
        32.2504
 -13549775.82448 -10510906.98046
                  22222386.8284                                   22222383.3014
                                                                        48.5004
        38.5004
 -13864631.03948 -10730326.98046
                  21482028.7504                                   21482024.5514
                                                                        49.2504
        36.0004
 -16527434.16048 -12841173.41046
                  22359366.7344                                   22359363.6174
                                                                        49.0004
        37.2504
   1046511.57847    856766.67644
                  23663395.0164                                   23663389.4024
                                                                        43.5004
        27.0004
   5321115.49246   4182659.07443
                  24292270.9144                                   24292266.8364
                                                                        39.2504
        21.2504
   6740261.70746   5295684.63744
                  24467325.7114                                   24467322.6214
                                                                        40.7504
        24.5004
 -18798389.38348 -14626887.31246
                  21510095.4384                                   21510092.2114
                                                                        50.5004
        38.7504
  -5663140.44147  -4371563.09044
                  23153506.3444                                   23153503.1604
                                                                        43.5004
        27.5004
 09 10 12  0 44  0.0000000  0 10G02G04G05G13G29G23G16G07G10G25
 -10578839.14848  -8179062.86746
                  20841310.0314                                   20841304.3954
                                                                        52.0004
        41.5004
   4314633.40647   3391965.12145
                  23039587.1484                                   23039584.4654
                                                                        45.7504
        31.5004
 -13719321.54748 -10643020.50846
                  22190123.2664                                   22190119.7464
                                                                        49.2504
        38.7504
 -13916676.70348 -10770882.04745
                  21472125.1484                                   21472120.7544
                                                                        49.2504
        35.0004
 -16647934.40248 -12935069.67646
                  22336435.8754                                   22336433.0514
                                                                        49.5004
        37.2504
   1058305.20747    865956.50844
                  23665640.0004                                   23665633.5004
                                                                        43.5004
        27.0004
   5177592.14846   4070822.73443
                  24264958.9694                                   24264955.6844
                                                                        38.7504
        20.5004
   6559845.28946   5155100.47743
                  24432993.7584                                   24432990.6134
                                                                        39.7504
        21.5004
 -18955634.49248 -14749415.97346
                  21480172.9534                                   21480170.0354
                                                                        51.0004
        39.5004
  -5801120.84947  -4479080.23444
                  23127248.6484                                   23127246.0474
                                                                        43.0004
        27.7504
 09 10 12  0 44 30.0000000  0 10G02G04G05G13G29G23G16G07G10G25
 -10619872.00448  -8211036.51246
                  20833501.7664                                   20833496.3014
                                                                        53.0004
        41.5004
   4334522.28947   3407462.91045
                  23043372.2344                                   23043369.6644
                                                                        45.7504
        31.2504
 -13888500.59848 -10774848.28146
                  22157929.8054                                   22157926.0394
                                                                        49.7504
        38.7504
 -13968068.43048 -10810927.55545
                  21462344.9694                                   21462341.1094
                                                                        49.0004
        35.2504
 -16767845.34048 -13028506.75446
                  22313618.1644                                   22313615.1684
                                                                        49.7504
        38.0004
   1070452.85247    875422.23044
                  23667951.5314                                   23667945.6914
                                                                        44.0004
        27.0004
   5034584.37946   3959388.17643
                  24237745.7664                                   24237742.2074
                                                                        38.5004
        21.2504
   6379714.27746   5014738.67643
                  24398715.8674                                   24398712.5944
                                                                        41.0004
        21.5004
 -19112414.10948 -14871581.89846
                  21450338.7274                                   21450335.3014
                                                                        51.0004
        39.0004
  -5938588.29347  -4586197.65244
                  23101090.0864                                   23101086.6764
                                                                        43.2504
        27.0004
 09 10 12  0 45  0.0000000  0 10G02G04G05G13G29G23G16G07G10G25
 -10660331.12548  -8242563.12946
                  20825802.7114                                   20825797.3594
                                                                        51.2504
        41.5004
   4354683.49247   3423172.91845
                  23047209.0944                                   23047205.6844
                                                                        46.7504
        31.2504
 -14057311.37148 -10906389.11346
                  22125805.8834                                   22125802.4344
                                                                        50.0004
        39.0004
 -14018807.92648 -10850464.82845
                  21452689.9224                                   21452685.5164
                                                                        49.0004
        35.5004
 -16887165.29348 -13121483.33246
                  22290911.5704                                   22290908.9264
                                                                        49.5004
        37.0004
   1082950.98447    885161.07044
                  23670329.5084                                   23670323.7544
                                                                        43.2504
        25.5004
   4892094.06246   3848356.81843
                  24210631.5944                                   24210627.1374
                                                                        39.0004
        22.5004
   6199871.10247   4874601.16443
                  24364493.6484                                   24364489.6454
                                                                        42.0004
        22.0004
 -19268726.61748 -14993383.82046
                  21420593.6094                                   21420590.1604
                                                                        50.0004
        38.5004
  -6075541.66847  -4692914.53944
                  23075028.9534                                   23075024.9384
                                                                        43.7504
        28.2504
 09 10 12  0 45 30.0000000  0 10G02G04G05G13G29G23G16G07G10G25
 -10700217.63348  -8273643.50847
                  20818212.2194                                   20818206.8284
                                                                        52.0004
        42.0004
   4375114.31647   3439093.02745
                  23051096.2894                                   23051093.8054
                                                                        47.5004
        31.5004
 -14225752.14148 -11037641.61746
                  22093752.5164                                   22093748.6564
                                                                        49.5004
        38.7504
 -14068895.58248 -10889494.18045
                  21443158.5704                                   21443154.5164
                                                                        49.0004
        35.5004
 -17005892.96148 -13213998.39546
                  22268318.7034                                   22268316.1524
                                                                        49.5004
        37.2504
   1095796.67646    895170.68044
                  23672773.7344                                   23672768.2304
                                                                        41.2504
        26.0004
   4750123.29747   3737730.23843
                  24183615.2344                                   24183610.9614
                                                                        42.0004
        22.7504
   6020318.50847   4734690.03943
                  24330325.7664                                   24330321.7894
                                                                        42.7504
        22.0004
 -19424569.94948 -15114820.18046
                  21390937.3834                                   21390934.3094
                                                                        50.5004
        39.2504
  -6211979.36747  -4799229.62944
                  23049065.5554                                   23049061.4614
                                                                        43.7504
        28.0004
 09 10 12  0 46  0.0000000  0 10G02G04G05G13G29G23G16G07G10G25
 -10739532.03948  -8304278.11747
                  20810731.1174                                   20810725.6294
                                                                        51.5004
        42.0004
   4395813.78147   3455222.45745
                  23055035.2194                                   23055032.3204
                                                                        46.7504
        31.2504
 -14393820.85248 -11168604.26646
                  22061770.2274                                   22061766.1914
                                                                        50.0004
        39.5004
 -14118334.28148 -10928017.82845
                  21433750.4694                                   21433746.4144
                                                                        49.5004
        35.5004
 -17124026.91048 -13306050.81646
                  22245838.6954                                   22245835.1954
                                                                        49.0004
        36.5004
   1108987.85546    905449.45743
                  23675284.0944                                   23675278.2154
                                                                        40.7504
        22.7504
   4608674.33247   3627510.25043
                  24156698.4064                                   24156693.8444
                                                                        42.0004
        22.5004
   5841059.96547   4595008.06344
                  24296214.1254                                   24296210.0124
                                                                        43.5004
        26.0004
 -19579942.34848 -15235889.55146
                  21361371.3984                                   21361367.4884
                                                                        50.0004
        39.5004
  -6347898.78547  -4905140.85944
                  23023201.3524                                   23023197.0124
                                                                        44.2504
        28.2504
 09 10 12  0 46 30.0000000  0 10G02G04G05G13G29G23G16G07G10G25
 -10778277.22348  -8334469.15246
                  20803358.0864                                   20803352.7384
                                                                        51.5004
        41.0004
   4416777.81647   3471558.05145
                  23059024.6484                                   23059021.5744
                                                                        46.5004
        31.0004
 -14561517.05548 -11299276.61746
                  22029859.0554                                   22029855.0314
                                                                        50.0004
        38.5004
 -14167125.13748 -10966036.69945
                  21424465.9614                                   21424461.9384
                                                                        48.0004
        35.5004
 -17241567.59048 -13397640.93446
                  22223471.4224                                   22223468.7704
                                                                        49.5004
        37.0004
   1122520.32046    915994.23443
                  23677859.2814                                   23677853.5784
                                                                        41.2504
        22.5004
   4467747.99647   3517697.51243
                  24129881.7734                                   24129876.2114
                                                                        43.0004
        21.5004
   5662097.07047   4455556.48444
                  24262158.5084                                   24262154.3954
                                                                        43.0004
        25.2504
 -19734843.71548 -15356591.90246
                  21331894.4064                                   21331890.8444
                                                                        50.2504
        39.7504
  -6483299.65247  -5010648.05944
                  22997435.3674                                   22997431.0204
                                                                        45.0004
        28.2504
 09 10 12  0 47  0.0000000  0 10G02G04G05G13G29G23G16G07G10G25
 -10816457.96148  -8364220.38346
                  20796092.8524                                   20796087.0314
                                                                        51.7504
        41.0004
   4438000.25047   3488095.00045
                  23063063.3364                                   23063060.2424
                                                                        46.5004
        31.2504
 -14728842.74648 -11429660.27046
                  21998017.9304                                   21998014.2114
                                                                        50.2504
        39.7504
 -14215274.52348 -11003555.68745
                  21415303.9144                                   21415299.2734
                                                                        49.2504
        35.2504
 -17358517.58648 -13488770.80146
                  22201216.7664                                   22201213.7154
                                                                        49.2504
        37.5004
   1136387.20746    926799.58643
                  23680498.0084                                   23680491.5824
                                                                        41.7504
        22.5004
   4327342.09047   3408290.28143
                  24103162.9774                                   24103157.1764
                                                                        42.5004
        21.2504
   5483428.30946   4316334.11344
                  24228158.3674                                   24228155.1524
                                                                        40.7504
        25.0004
 -19889275.84448 -15476928.62546
                  21302507.1564                                   21302503.7934
                                                                        51.2504
        39.2504
  -6618184.31647  -5115753.00444
                  22971767.6414                                   22971763.3134
                                                                        44.5004
        28.5004
 09 10 12  0 47 30.0000000  0 10G02G04G05G13G29G23G16G07G10G25
 -10854074.78148  -8393532.21946
                  20788934.4304                                   20788928.5594
                                                                        51.0004
        41.5004
   4459479.81347   3504832.30545
                  23067151.1954                                   23067148.3874
                                                                        46.0004
        32.5004
 -14895795.34048 -11559753.19146
                  21966247.6954                                   21966243.8794
                                                                        50.5004
        39.0004
 -14262781.87148 -11040574.37946
                  21406263.3054                                   21406259.2704
                                                                        49.5004
        36.0004
 -17474874.51248 -13579438.50046
                  22179074.6644                                   22179071.4224
                                                                        49.2504
        37.2504
   1150587.14847    937864.49644
                  23683200.4534                                   23683193.5824
                                                                        44.5004
        25.7504
   4187460.03546   3299291.22743
                  24076544.2424                                   24076538.6334
                                                                        41.2504
        20.5004
   5305057.59446   4177343.99243
                  24194215.0704                                   24194212.3134
                                                                        39.5004
        23.2504
 -20043236.59848 -15596898.02346
                  21273209.3284                                   21273205.6604
                                                                        50.0004
        39.5004
  -6752549.75447  -5220453.35944
                  22946198.8364                                   22946194.5164
                                                                        44.5004
        29.0004
 09 10 12  0 48  0.0000000  0 10G02G04G05G13G29G23G16G07G10G25
 -10891127.72748  -8422404.63746
                  20781883.7664                                   20781877.8094
                                                                        50.5004
        41.5004
   4481215.67647   3521769.30945
                  23071287.1884                                   23071283.9304
                                                                        45.2504
        31.5004
 -15062372.41048 -11689553.51646
                  21934549.1564                                   21934545.4144
                                                                        49.5004
        39.0004
 -14309649.61348 -11077094.70345
                  21397344.6484                                   21397340.2234
                                                                        49.5004
        35.5004
 -17590636.31248 -13669642.48046
                  22157046.1724                                   22157042.7934
                                                                        49.5004
        37.2504
   1165118.11347    949187.34844
                  23685965.9144                                   23685959.1684
                                                                        44.0004
        26.0004
   4048104.48046   3190702.44543
                  24050025.7114                                   24050020.2584
                                                                        40.5004
        20.2504
   5126989.17246   4038589.47344
                  24160330.0864                                   24160327.4384
                                                                        41.0004
        24.7504
 -20196723.05948 -15716497.87546
                  21244001.5394                                   21243998.1454
                                                                        49.5004
        39.5004
  -6886393.14547  -5324746.89844
                  22920728.6484                                   22920724.7154
                                                                        43.7504
        28.7504
 09 10 12  0 48 30.0000000  0 10G02G04G05G13G29G23G16G07G10G25
 -10927619.77048  -8450839.99246
                  20774938.8674                                   20774933.4804
                                                                        51.7504
        41.7504
   4503203.53147   3538902.68445
                  23075470.9384                                   23075468.3484
                                                                        45.7504
        31.2504
 -15228573.39848 -11819060.76246
                  21902921.9304                                   21902918.6054
                                                                        50.0004
        40.0004
 -14355879.66448 -11113118.10946
                  21388547.1724                                   21388543.0394
                                                                        49.5004
        36.0004
 -17705803.37548 -13759383.03546
                  22135130.1024                                   22135126.8874
                                                                        49.2504
        36.7504
   1179976.07047    960765.00044
                  23688792.8204                                   23688786.9804
                                                                        43.0004
        25.7504
   3909276.19146   3082524.57443
                  24023607.1484                                   24023602.1764
                                                                        40.2504
        19.5004
   4949223.96547   3900071.15244
                  24126502.6804                                   24126499.4844
                                                                        42.7504
        25.5004
 -20349734.89848 -15835727.87946
                  21214884.4694                                   21214881.0004
                                                                        51.0004
        39.0004
  -7019714.46547  -5428633.62544
                  22895358.1024                                   22895354.8634
                                                                        43.7504
        29.0004
 09 10 12  0 49  0.0000000  0 10G02G04G05G13G29G23G16G07G10G25
 -10963551.05548  -8478838.39146
                  20768101.8444                                   20768096.2624
                                                                        50.5004
        41.0004
   4525442.53547   3556231.73445
                  23079703.2584                                   23079700.5554
                                                                        45.0004
        30.5004
 -15394395.64548 -11948272.87546
                  21871367.1094                                   21871363.9654
                                                                        50.2504
        40.5004
 -14401472.16848 -11148644.72745
                  21379871.1414                                   21379867.2384
                                                                        49.5004
        35.5004
 -17820373.92648 -13848658.80546
                  22113328.2504                                   22113324.6804
                                                                        49.0004
        37.2504
   1195158.68046    972595.57044
                  23691681.3674                                   23691676.3914
                                                                        41.5004
        25.7504
   3770977.68846   2974759.50443
                  23997289.3364                                   23997284.9534
                                                                        39.5004
        20.2504
   4771766.20347   3761792.37944
                  24092734.3834                                   24092729.9574
                                                                        43.0004
        25.2504
 -20502269.81248 -15954586.25846
                  21185857.8204                                   21185854.7974
                                                                        49.2504
        39.0004
  -7152511.07047  -5532111.48444
                  22870088.0164                                   22870084.3484
                                                                        43.5004
        27.5004
 09 10 12  0 49 30.0000000  0 10G02G04G05G13G29G23G16G07G10G25
 -10998926.91848  -8506403.98446
                  20761369.8284                                   20761364.1994
                                                                        51.2504
        40.5004
   4547925.91447   3573751.21945
                  23083982.0314                                   23083978.8714
                                                                        45.7504
        30.2504
 -15559841.96148 -12077192.09046
                  21839883.6024                                   21839880.0664
                                                                        50.5004
        39.7504
 -14446433.55948 -11183679.57445
                  21371315.7424                                   21371311.8404
                                                                        49.7504
        35.0004
 -17934351.08248 -13937472.15246
                  22091639.2344                                   22091635.7154
                                                                        49.2504
        37.5004
   1210659.31646    984673.94944
                  23694631.6174                                   23694625.7274
                                                                        41.2504
        24.5004
   3633206.56346   2867405.39143
                  23971072.2894                                   23971068.8164
                                                                        38.2504
        22.5004
   4594614.16447   3623751.86744
                  24059022.7504                                   24059018.8324
                                                                        42.5004
        24.0004
 -20654330.81248 -16073075.34446
                  21156921.8834                                   21156918.5164
                                                                        50.2504
        39.7504
  -7284785.51247  -5635182.46944
                  22844917.5234                                   22844913.2894
                                                                        43.5004
        27.7504
 09 10 12  0 50  0.0000000  0 10G02G04G05G13G29G23G16G07G10G25
 -11033745.80548  -8533535.58246
                  20754744.0164                                   20754738.8164
                                                                        50.2504
        41.2504
   4570654.34847   3591461.65645
                  23088306.8914                                   23088303.9694
                                                                        46.0004
        30.2504
 -15724907.14848 -12205814.30946
                  21808472.7034                                   21808469.3484
                                                                        50.7504
        39.7504
 -14490763.21148 -11218222.16045
                  21362880.0704                                   21362875.8674
                                                                        49.7504
        35.0004
 -18047730.17648 -14025819.47346
                  22070063.8204                                   22070060.1024
                                                                        49.5004
        36.5004
   1226478.21546    997000.28543
                  23697641.0944                                   23697635.9534
                                                                        40.5004
        22.0004
   3495968.34446   2760466.55143
                  23944957.2894                                   23944953.4224
                                                                        40.0004
        22.7504
   4417773.40647   3485953.84843
                  24025370.8134                                   24025366.2384
                                                                        43.2504
        22.0004
 -20805912.60948 -16191191.03146
                  21128076.8204                                   21128073.6054
                                                                        49.7504
        39.2504
  -7416533.22747  -5737842.99644
                  22819845.7814                                   22819842.9414
                                                                        43.2504
        29.2504
 09 10 12  0 50 30.0000000  0 10G02G04G05G13G29G23G16G07G10G25
 -11068010.35248  -8560235.22746
                  20748223.7194                                   20748218.5124
                                                                        50.0004
        41.2504
   4593625.00147   3609360.85145
                  23092677.7274                                   23092674.5664
                                                                        44.2504
        30.0004
 -15889591.45748 -12334139.73446
                  21777134.6884                                   21777130.7074
                                                                        50.7504
        40.0004
 -14534462.70748 -11252273.71945
                  21354564.0864                                   21354559.6174
                                                                        49.2504
        34.7504
 -18160512.68448 -14113701.94146
                  22048602.2344                                   22048598.6764
                                                                        49.2504
        37.7504
   1242611.07047   1009571.32043
                  23700711.8054                                   23700705.9774
                                                                        43.0004
        22.7504
   3359262.65646   2653942.63343
                  23918942.7274                                   23918939.4654
                                                                        38.5004
        22.7504
   4241246.43647   3348400.38243
                  23991778.9534                                   23991774.9844
                                                                        43.5004
        22.5004
 -20957015.37948 -16308933.45346
                  21099322.8134                                   21099319.7734
                                                                        50.0004
        39.7504
  -7547753.41247  -5840092.47244
                  22794876.2114                                   22794872.8134
                                                                        43.0004
        29.0004
 09 10 12  0 51  0.0000000  0 10G02G04G05G13G29G23G16G07G10G25
 -11101720.72748  -8586503.02046
                  20741809.0634                                   20741803.5004
                                                                        50.5004
        41.7504
   4616835.95347   3627447.28945
                  23097094.8204                                   23097091.6914
                                                                        45.0004
        30.0004
 -16053891.13348 -12462165.46546
                  21745869.4774                                   21745865.7814
                                                                        50.5004
        40.0004
 -14577534.12548 -11285835.85945
                  21346367.7664                                   21346363.6604
                                                                        48.7504
        35.5004
 -18272694.73848 -14201116.55946
                  22027254.7034                                   22027251.1484
                                                                        50.0004
        37.5004
   1259056.28647   1022385.81943
                  23703841.3364                                   23703834.4924
                                                                        44.2504
        22.5004
   3223093.78146   2547837.07043
                  23893031.0164                                   23893027.1764
                                                                        39.5004
        23.5004
   4065035.83647   3211093.44944
                  23958246.6094                                   23958243.5084
                                                                        42.5004
        24.5004
 -21107635.66848 -16426299.93446
                  21070660.7974                                   21070657.7154
                                                                        50.0004
        40.0004
  -7678443.94947  -5941929.21544
                  22770006.5784                                   22770002.8914
                                                                        44.2504
        28.5004
 09 10 12  0 51 30.0000000  0 10G02G04G05G13G29G23G16G07G10G25
 -11134879.09448  -8612340.66046
                  20735499.1024                                   20735493.3054
                                                                        50.5004
        41.0004
   4640284.57047   3645718.93845
                  23101557.1334                                   23101553.9454
                                                                        46.0004
        30.5004
 -16217806.11348 -12589891.43046
                  21714677.4064                                   21714673.7464
                                                                        49.5004
        39.0004
 -14619978.89148 -11318909.70745
                  21338290.9224                                   21338286.6994
                                                                        49.2504
        35.0004
 -18384277.52348 -14288064.18046
                  22006020.9384                                   22006018.0664
                                                                        49.5004
        37.2504
   1275810.74647   1035441.28543
                  23707029.7034                                   23707022.3634
                                                                        45.0004
        22.5004
   3087461.89846   2442149.91044
                  23867221.0234                                   23867217.3134
                                                                        40.5004
        24.0004
   3889144.62146   3074035.39544
                  23924776.1954                                   23924772.7774
                                                                        41.0004
        25.0004
 -21257773.64148 -16543290.57446
                  21042090.4144                                   21042087.4344
                                                                        50.0004
        39.5004
  -7808603.48447  -6043352.22744
                  22745237.5634                                   22745234.2814
                                                                        43.7504
        28.5004
 09 10 12  0 52  0.0000000  0 10G02G04G05G13G29G23G16G07G10G25
 -11167485.40648  -8637748.14846
                  20729294.3204                                   20729288.6134
                                                                        50.0004
        41.0004
   4663969.79747   3664174.93045
                  23106064.2974                                   23106061.4104
                                                                        45.5004
        30.2504
 -16381333.03148 -12717315.00446
                  21683559.0474                                   21683555.6764
                                                                        50.0004
        40.0004
 -14661797.79747 -11351495.86745
                  21330332.8284                                   21330328.8634
                                                                        47.5004
        35.0004
 -18495258.59848 -14374542.93746
                  21984901.8914                                   21984899.1604
                                                                        49.5004
        37.7504
   1292872.23047   1048736.00843
                  23710276.4774                                   23710269.8674
                                                                        43.7504
        22.2504
   2952369.78146   2336883.32444
                  23841514.4614                                   23841509.6804
                                                                        41.0004
        24.5004
   3713576.67647   2937229.27744
                  23891367.0164                                   23891363.4024
                                                                        42.0004
        27.2504
 -21407425.98448 -16659902.80146
                  21013612.6414                                   21013609.2234
                                                                        49.5004
        40.0004
  -7938229.50447  -6144359.48844
                  22720570.6174                                   22720566.9454
                                                                        43.5004
        28.5004
 09 10 12  0 52 30.0000000  0 10G02G04G05G13G29G23G16G07G10G25
 -11199542.39148  -8662727.60546
                  20723193.9454                                   20723188.4574
                                                                        51.5004
        41.0004
   4687888.28147   3682812.68045
                  23110615.6174                                   23110612.7114
                                                                        46.2504
        30.5004
 -16544471.16448 -12844435.64546
                  21652514.9614                                   21652511.6174
                                                                        50.0004
        40.0004
 -14702992.85248 -11383595.93745
                  21322493.7424                                   21322489.8204
                                                                        48.5004
        35.0004
 -18605637.37948 -14460552.38746
                  21963897.3134                                   21963894.4384
                                                                        49.2504
        37.5004
   1310237.47746   1062267.32443
                  23713580.6804                                   23713574.8834
                                                                        41.0004
        22.2504
   2817819.14147   2232038.65643
                  23815910.0004                                   23815906.1454
                                                                        42.7504
        22.7504
   3538333.69947   2800676.35944
                  23858019.2974                                   23858015.8794
                                                                        43.5004
        27.0004
 -21556592.32848 -16776136.30546
                  20985227.0164                                   20985223.6804
                                                                        50.7504
        40.0004
  -8067321.34847  -6244950.52044
                  22696005.4454                                   22696002.3634
                                                                        44.5004
        29.7504
 09 10 12  0 53  0.0000000  0 10G02G04G05G13G29G23G16G07G10G25
  -9655630.35948  -7459679.25446
                  21016990.7894                                   21016984.9494
                                                                        51.0004
        41.0004
   6287457.11747   4929229.91044
                  23415003.1644                                   23415000.5664
                                                                        45.2504
        29.2504
 -15131794.19548 -11743648.39146
                  21921338.5944                                   21921335.1054
                                                                        50.0004
        39.2504
 -13168145.78547 -10187611.19945
                  21614565.7504                                   21614561.4614
                                                                        47.0004
        35.0004
 -17139989.97748 -13318489.47746
                  22242801.1414                                   22242797.5864
                                                                        50.0004
        37.5004
   2903322.78546   2303632.43043
                  24016734.4384                                   24016728.9654
                                                                        40.2504
        22.7504
   4259235.43446   3355220.21543
                  24090201.9534                                   24090198.1524
                                                                        41.5004
        22.0004
   4938844.19947   3891983.27344
                  24124527.7424                                   24124523.8484
                                                                        43.7504
        27.2504
 -20129846.86348 -15664386.59046
                  21256727.6024                                   21256724.2344
                                                                        49.5004
        39.5004
  -6620453.28547  -5117520.86744
                  22971335.4614                                   22971331.2814
                                                                        44.5004
        28.5004
 09 10 12  0 53 30.0000000  0 10G02G04G05G13G29G23G16G07G10G25
  -9686593.93448  -7483806.69946
                  21011098.3594                                   21011092.9844
                                                                        51.2504
        41.2504
   6311834.17247   4948225.00044
                  23419642.1334                                   23419639.2734
                                                                        46.5004
        29.2504
 -15294151.95348 -11870160.93746
                  21890442.9694                                   21890439.4184
                                                                        50.2504
        40.0004
 -13208101.58648 -10218745.59445
                  21606962.2584                                   21606958.1994
                                                                        48.0004
        35.0004
 -17249163.96948 -13403560.12546
                  22222026.0784                                   22222022.7114
                                                                        50.2504
        37.7504
   2921285.02047   2317628.94143
                  24020152.6484                                   24020147.0944
                                                                        42.0004
        23.0004
   4125770.63747   3251221.68043
                  24064804.3754                                   24064799.6294
                                                                        42.5004
        21.7504
   4764258.18846   3755942.30544
                  24091305.1804                                   24091300.7344
                                                                        41.2504
        27.5004
 -20278038.54748 -15779860.64546
                  21228527.9454                                   21228524.5434
                                                                        49.7504
        40.0004
  -6748473.67247  -5217277.02044
                  22946974.2894                                   22946970.1684
                                                                        44.7504
        29.5004
 09 10 12  0 54  0.0000000  0 10G02G04G05G13G29G23G16G07G10G25
  -9717012.16048  -7507509.20346
                  21005309.8984                                   21005304.2154
                                                                        50.0004
        40.7504
   6336438.00447   4967396.78944
                  23424324.3754                                   23424321.4304
                                                                        46.0004
        29.0004
 -15456115.89548 -11996366.60946
                  21859622.2034                                   21859618.9224
                                                                        50.5004
        40.2504
 -13247439.00447 -10249398.12545
                  21599476.8834                                   21599472.5314
                                                                        46.5004
        35.0004
 -17357732.97348 -13488159.34846
                  22201366.1334                                   22201363.4264
                                                                        50.0004
        37.5004
   2939542.81347   2331855.77344
                  24023627.6484                                   24023621.4264
                                                                        42.7504
        25.2504
   3992852.40247   3147648.97743
                  24039511.1804                                   24039506.4964
                                                                        42.2504
        21.5004
   4590005.70747   3620161.14844
                  24058145.4844                                   24058141.7274
                                                                        43.7504
        26.2504
 -20425739.38748 -15894952.22346
                  21200421.6564                                   21200417.8594
                                                                        49.5004
        39.5004
  -6875954.82447  -5316612.98044
                  22922714.9064                                   22922711.3674
                                                                        45.0004
        28.5004
 09 10 12  0 54 30.0000000  0 10G02G04G05G13G29G23G16G07G10G25
  -9746888.45748  -7530789.43046
                  20999624.8054                                   20999619.3554
                                                                        51.5004
        40.5004
   6361264.43047   4986742.03944
                  23429048.9694                                   23429045.5634
                                                                        45.2504
        29.2504
 -15617686.37548 -12122265.69546
                  21828876.4224                                   21828872.6414
                                                                        49.7504
        40.2504
 -13286163.07847 -10279572.74245
                  21592107.4304                                   21592103.4574
                                                                        46.2504
        34.0004
 -17465698.40248 -13572288.25446
                  22180820.9774                                   22180817.6294
                                                                        49.7504
        38.0004
   2958091.03147   2346308.94143
                  24027157.1334                                   24027151.3244
                                                                        43.0004
        23.7504
   3860480.29747   3044501.86743
                  24014321.5864                                   24014316.5354
                                                                        42.0004
        20.2504
   4416087.33247   3484640.36343
                  24025049.7584                                   24025045.4184
                                                                        42.2504
        22.2504
 -20572950.10948 -16009661.86746
                  21172408.0164                                   21172404.7304
                                                                        50.0004
        39.7504
  -7002897.71947  -5415529.50844
                  22898558.5784                                   22898554.7424
                                                                        44.0004
        28.5004
 09 10 12  0 55  0.0000000  0 10G02G04G05G13G29G23G16G07G10G25
  -9776223.58648  -7553647.98046
                  20994042.5554                                   20994036.7704
                                                                        50.5004
        41.0004
   6386311.78947   5006259.45344
                  23433815.0314                                   23433811.7704
                                                                        45.2504
        29.0004
 -15778861.66848 -12247856.85946
                  21798205.7734                                   21798202.0984
                                                                        50.5004
        40.0004
 -13324274.12948 -10309269.66845
                  21584855.0784                                   21584851.2234
                                                                        48.5004
        34.5004
 -17573059.16848 -13655945.98846
                  22160390.8204                                   22160387.6764
                                                                        50.0004
        38.0004
   2976927.58247   2360986.80143
                  24030741.8284                                   24030735.6134
                                                                        43.2504
        22.7504
   3728656.45346   2941781.98043
                  23989236.9774                                   23989231.2464
                                                                        41.2504
        20.7504
   4242507.03146   3349382.98843
                  23992018.3754                                   23992014.5704
                                                                        40.0004
        23.0004
 -20719668.81648 -16123988.13346
                  21144488.6564                                   21144485.1764
                                                                        49.5004
        40.2504
  -7129300.19947  -5514024.93744
                  22874505.3754                                   22874500.9774
                                                                        44.2504
        29.7504
 09 10 12  0 55 30.0000000  0 10G02G04G05G13G29G23G16G07G10G25
  -9805019.71548  -7576086.52746
                  20988562.7114                                   20988557.4844
                                                                        51.0004
        40.7504
   6411576.75847   5025946.44144
                  23438623.0164                                   23438619.7814
                                                                        44.5004
        29.0004
 -15939640.22748 -12373138.86746
                  21767610.6024                                   21767606.7074
                                                                        50.0004
        40.7504
 -13361775.23448 -10338491.31645
                  21577718.9384                                   21577714.8164
                                                                        48.0004
        34.7504
 -17679814.56648 -13739132.02746
                  22140076.2584                                   22140072.8054
                                                                        50.0004
        38.0004
   2996049.07446   2375886.67243
                  24034379.9924                                   24034374.1884
                                                                        41.5004
        22.0004
   3597382.02746   2839490.21143
                  23964256.1484                                   23964251.0784
                                                                        40.7504
        20.7504
   4069266.27346   3214390.21943
                  23959051.8054                                   23959047.7974
                                                                        41.7504
        22.7504
 -20865894.49648 -16237930.21546
                  21116662.6644                                   21116659.4884
                                                                        49.5004
        40.2504
  -7255161.69947  -5612098.84044
                  22850554.1804                                   22850550.7464
                                                                        45.0004
        28.5004
 09 10 12  0 56  0.0000000  0 10G02G04G05G13G29G23G16G07G10G25
  -9833277.43048  -7598105.54346
                  20983185.1724                                   20983180.0164
                                                                        50.5004
        41.0004
   6437058.70747   5045802.47344
                  23443471.9534                                   23443468.9614
                                                                        44.5004
        28.2504
 -16100019.24248 -12498109.54346
                  21737091.6094                                   21737087.8054
                                                                        50.7504
        40.5004
 -13398666.80948 -10367237.98045
                  21570698.5944                                   21570695.0944
                                                                        48.0004
        35.0004
 -17785962.84448 -13821844.94946
                  22119876.6094                                   22119873.7814
                                                                        50.2504
        38.5004
   3015453.68846   2391007.12943
                  24038072.1724                                   24038066.6094
                                                                        40.2504
        19.5004
   3466660.18846   2737629.06643
                  23939380.2734                                   23939375.5634
                                                                        40.5004
        21.2504
   3896368.89147   3079665.03544
                  23926150.5554                                   23926147.3244
                                                                        43.2504
        27.0004
 -21011624.75048 -16351486.27346
                  21088931.0784                                   21088927.7114
                                                                        48.2504
        40.2504
  -7380479.24647  -5709748.89544
                  22826707.2584                                   22826703.4494
                                                                        44.0004
        29.5004
 09 10 12  0 56 30.0000000  0 10G02G04G05G13G29G23G16G07G10G25
  -9860999.14548  -7619706.87546
                  20977910.3204                                   20977904.7274
                                                                        50.2504
        40.7504
   6462753.83647   5065824.60244
                  23448361.6414                                   23448359.0044
                                                                        44.7504
        28.2504
 -16259998.39148 -12622768.64546
                  21706648.7034                                   21706645.0664
                                                                        51.2504
        40.0004
 -13434951.83648 -10395512.04345
                  21563794.2034                                   21563789.8954
                                                                        48.0004
        33.7504
 -17891504.46148 -13904085.14846
                  22099792.1724                                   22099789.4884
                                                                        50.0004
        38.0004
   3035137.62147   2406345.27743
                  24041818.2344                                   24041812.0514
                                                                        42.2504
        19.5004
   3336491.36747   2636198.77343
                  23914610.9454                                   23914605.2854
                                                                        43.0004
        22.5004
   3723816.80947   2945208.90644
                  23893314.9534                                   23893311.7584
                                                                        43.2504
        27.5004
 -21156859.06648 -16464655.87146
                  21061293.7734                                   21061290.4344
                                                                        49.2504
        40.0004
  -7505252.75447  -5806974.99244
                  22802963.5084                                   22802959.7774
                                                                        45.0004
        28.7504
 09 10 12  0 57  0.0000000  0 10G02G04G05G13G29G23G16G07G10G25
  -9888185.93748  -7640891.37546
                  20972736.6414                                   20972730.9494
                                                                        49.5004
        40.2504
   6488661.00447   5086011.99244
                  23453291.6644                                   23453289.3094
                                                                        45.7504
        29.5004
 -16419575.50848 -12747114.48046
                  21676281.7194                                   21676278.3444
                                                                        51.2504
        40.0004
 -13470631.34448 -10423314.25045
                  21557004.5234                                   21557000.2544
                                                                        48.5004
        34.5004
 -17996437.65248 -13985851.25846
                  22079824.4844                                   22079821.6214
                                                                        50.0004
        38.0004
   3055099.02347   2421899.60543
                  24045616.8364                                   24045610.9064
                                                                        43.0004
        22.5004
   3206877.78147   2535201.18443
                  23889945.2894                                   23889940.6914
                                                                        42.2504
        22.0004
   3551613.56646   2811024.57444
                  23860546.1334                                   23860542.4964
                                                                        41.0004
        27.7504
 -21301595.44548 -16577437.46546
                  21033751.2734                                   21033748.1604
                                                                        48.0004
        39.7504
  -7629480.03147  -5903775.48044
                  22779324.1094                                   22779320.8914
                                                                        45.0004
        28.5004
 09 10 12  0 57 30.0000000  0 10G02G04G05G13G29G23G16G07G10G25
  -9914838.61348  -7661659.69546
                  20967665.0864                                   20967659.3834
                                                                        50.7504
        41.0004
   6514778.51247   5106363.23845
                  23458261.7734                                   23458259.0514
                                                                        46.2504
        30.0004
 -16578748.60548 -12871145.51246
                  21645992.5944                                   21645988.9414
                                                                        50.7504
        40.5004
 -13505707.02748 -10450645.94545
                  21550329.9224                                   21550325.7584
                                                                        48.5004
        34.7504
 -18100761.70348 -14067142.71546
                  22059972.4304                                   22059969.2544
                                                                        49.5004
        37.7504
   3075335.05947   2437667.92244
                  24049467.9144                                   24049462.0904
                                                                        43.5004
        24.7504
   3077821.23046   2434637.64543
                  23865386.0864                                   23865381.9884
                                                                        40.7504
        22.2504
   3379762.77347   2677114.87944
                  23827844.3594                                   23827840.4064
                                                                        44.0004
        27.7504
 -21445832.14848 -16689829.70346
                  21006304.0634                                   21006300.5084
                                                                        50.2504
        39.7504
  -7753159.07847  -6000148.76644
                  22755788.5944                                   22755785.6134
                                                                        45.0004
        29.5004
 09 10 12  0 58  0.0000000  0 10G02G04G05G13G29G23G16G07G10G25
  -9940960.75448  -7682014.62146
                  20962694.1094                                   20962689.0044
                                                                        51.2504
        41.5004
   6541101.64547   5126874.73844
                  23463270.7424                                   23463268.0944
                                                                        45.0004
        29.0004
 -16737517.85948 -12994861.84046
                  21615779.6954                                   21615776.3674
                                                                        50.7504
        40.7504
 -13540182.84448 -10477510.20745
                  21543769.1884                                   21543765.0824
                                                                        50.0004
        34.5004
 -18204477.62148 -14147960.27746
                  22040235.7344                                   22040232.6454
                                                                        49.7504
        37.5004
   3095841.71547   2453647.10244
                  24053369.5314                                   24053364.2154
                                                                        42.5004
        24.5004
   2949321.82447   2334508.24643
                  23840933.5864                                   23840929.9884
                                                                        42.0004
        22.5004
   3208264.68747   2543480.02844
                  23795208.7034                                   23795205.2384
                                                                        42.5004
        26.5004
 -21589569.26648 -16801832.65646
                  20978951.8054                                   20978948.4734
                                                                        49.0004
        39.7504
  -7876290.70747  -6096095.46945
                  22732357.0704                                   22732354.0664
                                                                        45.2504
        30.0004
 09 10 12  0 58 30.0000000  0 10G02G04G05G13G29G23G16G07G10G25
  -9966553.73048  -7701957.21546
                  20957823.9614                                   20957818.3634
                                                                        49.2504
        41.0004
   6567628.75447   5147545.17644
                  23468318.5164                                   23468315.8634
                                                                        45.0004
        27.5004
 -16895881.19948 -13118261.85546
                  21585643.7734                                   21585640.4844
                                                                        51.0004
        40.5004
 -13574060.65248 -10503908.50845
                  21537322.3284                                   21537318.2774
                                                                        48.7504
        34.7504
 -18307584.16448 -14228303.02046
                  22020615.2424                                   22020612.5234
                                                                        49.7504
        37.7504
   3116615.83247   2469834.68444
                  24057322.8134                                   24057317.3674
                                                                        42.5004
        24.7504
   2821381.19947   2234814.25844
                  23816587.7664                                   23816584.1024
                                                                        42.0004
        24.7504
   3037122.35547   2410122.39544
                  23762641.5864                                   23762638.0124
                                                                        42.0004
        26.2504
 -21732805.30548 -16913445.16846
                  20951694.7734                                   20951691.6844
                                                                        48.7504
        40.0004
  -7998873.35247  -6191614.37544
                  22709031.1954                                   22709027.5274
                                                                        44.7504
        29.5004
 09 10 12  0 59  0.0000000  0 10G02G04G05G13G29G23G16G07G10G25
  -9991618.08248  -7721487.85946
                  20953054.5164                                   20953048.8244
                                                                        50.7504
        40.7504
   6594358.59847   5168373.61344
                  23473405.2664                                   23473401.9574
                                                                        44.2504
        26.5004
 -17053836.06248 -13241343.59446
                  21555586.4224                                   21555582.9654
                                                                        51.0004
        40.7504
 -13607341.50048 -10529841.64545
                  21530989.5234                                   21530985.2544
                                                                        49.0004
        34.7504
 -18410079.84448 -14308169.75446
                  22001111.2584                                   22001107.6914
                                                                        49.7504
        37.7504
   3137655.64147   2486229.33643
                  24061327.1414                                   24061320.4304
                                                                        42.2504
        22.7504
   2694001.70347   2135557.50844
                  23792348.4694                                   23792344.1954
                                                                        42.7504
        25.0004
   2866339.63346   2277044.97744
                  23730142.5944                                   23730138.6454
                                                                        39.5004
        25.5004
 -21875538.02048 -17024665.46546
                  20924533.8754                                   20924530.2384
                                                                        49.5004
        40.0004
  -8120904.62547  -6286703.64844
                  22685808.8284                                   22685805.2854
                                                                        45.5004
        29.2504
 09 10 12  0 59 30.0000000  0 10G02G04G05G13G29G23G16G07G10G25
 -10016154.00448  -7740606.73046
                  20948385.3134                                   20948379.8634
                                                                        50.0004
        40.5004
   6621290.34847   5189359.37944
                  23478529.7584                                   23478526.9384
                                                                        43.7504
        28.2504
 -17211379.89848 -13364105.01646
                  21525606.8134                                   21525602.8954
                                                                        50.7504
        40.0004
 -13640025.89548 -10555310.00845
                  21524769.7584                                   21524765.8244
                                                                        48.5004
        34.5004
 -18511962.85948 -14387559.09046
                  21981723.2504                                   21981719.9304
                                                                        49.0004
        38.0004
   3158959.84446   2502829.98843
                  24065381.1954                                   24065375.4104
                                                                        40.0004
        21.2504
   2567186.36347   2036740.36744
                  23768215.7974                                   23768212.2734
                                                                        42.0004
        26.0004
   2695920.14846   2144250.62943
                  23697713.2344                                   23697708.5634
                                                                        41.5004
        23.5004
 -22017764.53148 -17135491.28946
                  20897469.0234                                   20897466.0004
                                                                        49.2504
        40.0004
  -8242381.98847  -6381361.30144
                  22662692.3524                                   22662689.0904
                                                                        45.5004
        29.7504
 09 10 12  1  0  0.0000000  0 10G02G04G05G13G29G23G16G07G10G25
 -10040163.49248  -7759315.43446
                  20943816.5474                                   20943810.9454
                                                                        50.0004
        40.2504
   6648421.45747   5210500.48044
                  23483692.5784                                   23483690.1564
                                                                        43.5004
        27.7504
 -17368511.04748 -13486544.86346
                  21495705.3364                                   21495702.0354
                                                                        51.0004
        40.5004
 -13672115.87548 -10580315.17645
                  21518663.3364                                   21518659.1254
                                                                        48.5004
        33.7504
 -18613232.66048 -14466470.61746
                  21962452.5234                                   21962449.0204
                                                                        49.7504
        38.0004
   3180526.20746   2519634.94143
                  24069484.2734                                   24069478.6844
                                                                        39.5004
        19.0004
   2440937.04747   1938364.26644
                  23744192.0944                                   23744187.3594
                                                                        43.5004
        25.0004
   2525867.11346   2011741.78944
                  23665352.5474                                   23665348.5744
                                                                        41.0004
        24.5004
 -22159483.87148 -17245921.93446
                  20870500.6564                                   20870497.3404
                                                                        49.2504
        40.0004
  -8363303.96947  -6475586.20345
                  22639681.8134                                   22639678.1454
                                                                        46.0004
        30.5004
 09 10 12  1  0 30.0000000  0 10G02G04G05G13G29G23G16G07G10G25
 -10063648.28148  -7777615.25846
                  20939347.1954                                   20939342.1374
                                                                        50.5004
        40.7504
   6675749.29347   5231794.86344
                  23488893.4614                                   23488891.3204
                                                                        43.7504
        29.2504
 -17525228.00848 -13608661.91046
                  21465883.3674                                   21465880.1644
                                                                        51.2504
        40.0004
 -13703614.35548 -10604859.45745
                  21512669.2194                                   21512664.8204
                                                                        48.7504
        34.2504
 -18713888.79748 -14544903.92646
                  21943297.7894                                   21943294.5554
                                                                        49.5004
        38.2504
   3202350.18846   2536640.60543
                  24073637.5944                                   24073631.2384
                                                                        40.0004
        20.5004
   2315253.91447   1840429.39544
                  23720275.2734                                   23720270.9734
                                                                        42.5004
        25.2504
   2356182.24647   1879519.84844
                  23633062.7194                                   23633058.6994
                                                                        43.0004
        27.2504
 -22300694.71948 -17355956.34846
                  20843629.1724                                   20843626.0314
                                                                        50.0004
        40.2504
  -8483670.39147  -6569378.19544
                  22616776.7814                                   22616773.1484
                                                                        46.2504
        29.7504
 09 10 12  1  1  0.0000000  0  9G02G04G05G13G29G16G07G10G25
 -10086608.44148  -7795506.29746
                  20934978.0234                                   20934972.7464
                                                                        50.2504
        40.5004
   6703273.82447   5253242.52344
                  23494131.5634                                   23494128.6024
                                                                        43.5004
        29.5004
 -17681527.97348 -13730454.01646
                  21436140.4064                                   21436137.0004
                                                                        50.5004
        40.5004
 -13734521.08648 -10628942.63745
                  21506787.9774                                   21506784.2704
                                                                        49.0004
        34.5004
 -18813929.72748 -14622857.85546
                  21924260.5234                                   21924257.7734
                                                                        48.0004
        38.2504
   2190140.91447   1742938.73443
                  23696467.1564                                   23696462.3054
                                                                        42.0004
        23.5004
   2186871.09047   1747589.09444
                  23600844.5554                                   23600840.2624
                                                                        43.5004
        27.7504
 -22441394.62948 -17465592.63746
                  20816854.8674                                   20816851.5124
                                                                        50.0004
        40.5004
  -8603477.25047  -6662734.17244
                  22593978.0164                                   22593974.0434
                                                                        46.5004
        29.0004
 09 10 12  1  1 30.0000000  0  9G02G04G05G13G29G16G07G10G25
 -10109047.18448  -7812991.04746
                  20930708.3594                                   20930702.6134
                                                                        50.2504
        40.2504
   6730990.40647   5274839.84844
                  23499405.5704                                   23499402.9774
                                                                        43.5004
        27.7504
 -17837410.20348 -13851920.56246
                  21406476.8834                                   21406473.8954
                                                                        50.0004
        41.0004
 -13764840.02048 -10652567.77045
                  21501018.2894                                   21501014.4694
                                                                        49.2504
        34.7504
 -18913354.56248 -14700331.74646
                  21905340.9384                                   21905337.4844
                                                                        49.0004
        38.0004
   2065598.52346   1645892.72743
                  23672766.8134                                   23672762.3794
                                                                        41.2504
        22.7504
   2017933.66447   1615949.56644
                  23568696.5944                                   23568692.6884
                                                                        43.5004
        27.0004
 -22581582.76648 -17574830.11346
                  20790177.9534                                   20790174.5084
                                                                        49.7504
        40.5004
  -8722725.48847  -6755654.86344
                  22571286.3134                                   22571282.4304
                                                                        45.5004
        29.5004
 09 10 12  1  2  0.0000000  0  9G02G04G05G13G29G16G07G10G25
 -10130961.76248  -7830067.34046
                  20926538.1724                                   20926532.5004
                                                                        49.5004
        41.0004
   6758901.66047   5296588.84844
                  23504716.0164                                   23504714.2894
                                                                        42.0004
        26.2504
 -17992869.79748 -13973057.87146
                  21376893.9614                                   21376890.3524
                                                                        49.5004
        41.0004
 -13794569.59848 -10675733.68045
                  21495360.8364                                   21495357.3404
                                                                        48.5004
        34.0004
 -19012160.77748 -14777323.57846
                  21886538.8364                                   21886535.9224
                                                                        48.2504
        38.5004
   1941630.93046   1549294.57044
                  23649176.8054                                   23649171.8554
                                                                        40.5004
        24.0004
   1849377.14847   1484606.85544
                  23536620.8204                                   23536617.0904
                                                                        42.2504
        28.0004
 -22721254.42648 -17683665.13346
                  20763599.3914                                   20763595.8984
                                                                        50.2504
        40.5004
  -8841409.91047  -6848136.21544
                  22548701.1414                                   22548696.8754
                                                                        45.5004
        28.5004
 09 10 12  1  2 30.0000000  0  9G02G04G05G13G29G16G07G10G25
  -8576931.57848  -6619134.73446
                  21222260.4924                                   21222254.7774
                                                                        49.0004
        40.7504
   8362426.15647   6546088.41444
                  23809857.6334                                   23809854.9614
                                                                        43.2504
        26.5004
 -16572478.21548 -12866259.23046
                  21647185.3984                                   21647181.8164
                                                                        50.5004
        41.0004
 -12248288.12548  -9470839.04345
                  21789608.7734                                   21789604.6024
                                                                        48.0004
        33.5004
 -17534922.16048 -13626228.55146
                  22167647.9384                                   22167644.9414
                                                                        49.0004
        38.2504
   3393665.81646   2680750.34443
                  23925490.2734                                   23925484.8794
                                                                        41.2504
        22.2504
   3256632.18447   2581169.26244
                  23804412.8054                                   23804409.3834
                                                                        42.7504
        27.2504
 -21284982.07448 -16564491.81246
                  21036912.7814                                   21036909.3674
                                                                        49.0004
        40.2504
  -7384103.17647  -5712572.52044
                  22826017.2274                                   22826013.6764
                                                                        45.0004
        29.7504
 09 10 12  1  3  0.0000000  0  9G02G04G05G13G29G16G07G10G25
  -8597799.19948  -6635395.19546
                  21218289.2814                                   21218283.9494
                                                                        49.5004
        40.5004
   8390723.71547   6568138.43044
                  23815242.1094                                   23815239.4534
                                                                        43.5004
        26.7504
 -16727083.20748 -12986730.66446
                  21617765.1564                                   21617761.6294
                                                                        50.2504
        40.7504
 -12276839.88348  -9493087.14845
                  21784175.2814                                   21784171.1994
                                                                        48.5004
        33.0004
 -17632483.65248 -13702250.48446
                  22149082.3834                                   22149079.2774
                                                                        48.5004
        38.5004
   3270857.71546   2585055.72743
                  23902120.2584                                   23902115.8134
                                                                        40.7504
        22.7504
   3088850.34047   2450430.21144
                  23772484.7274                                   23772481.2584
                                                                        42.5004
        28.0004
 -21423612.93448 -16672515.87146
                  21010531.9454                                   21010528.5474
                                                                        49.5004
        40.7504
  -7501651.69147  -5804168.77044
                  22803648.7274                                   22803644.8204
                                                                        45.5004
        29.5004
 09 10 12  1  3 30.0000000  0  9G02G04G05G13G29G16G07G10G25
  -8618149.06648  -6651252.24646
                  21214416.6724                                   21214411.0944
                                                                        50.0004
        40.5004
   8419207.80947   6590333.80944
                  23820662.4774                                   23820659.8714
                                                                        43.7504
        27.2504
 -16881261.66448 -13106869.73846
                  21588426.0004                                   21588422.1604
                                                                        49.7504
        40.5004
 -12304809.08248  -9514881.33245
                  21778853.2424                                   21778849.3914
                                                                        49.0004
        33.2504
 -17729424.99248 -13777789.20746
                  22130634.8914                                   22130631.9734
                                                                        48.0004
        38.5004
   3148628.38346   2489812.07843
                  23878860.8204                                   23878855.8754
                                                                        41.7504
        22.0004
   2921456.60946   2319993.56644
                  23740630.3524                                   23740626.5744
                                                                        41.5004
        26.5004
 -21561724.08248 -16780134.95746
                  20984250.2734                                   20984246.7504
                                                                        50.5004
        41.0004
  -7618633.82447  -5895323.66044
                  22781387.6724                                   22781383.8794
                                                                        45.2504
        29.7504
 09 10 12  1  4  0.0000000  0  9G02G04G05G13G29G16G07G10G25
  -8637988.75848  -6666711.75446
                  21210641.3524                                   21210635.8834
                                                                        49.7504
        40.0004
   8447870.67247   6612668.50044
                  23826116.8834                                   23826114.5704
                                                                        42.7504
        28.0004
 -17035018.26648 -13226680.09446
                  21559166.9224                                   21559163.2464
                                                                        49.7504
        41.0004
 -12332203.65248  -9536227.76645
                  21773640.2974                                   21773636.1914
                                                                        48.7504
        33.7504
 -17825752.27048 -13852849.40646
                  22112304.5004                                   22112301.5554
                                                                        49.2504
        38.5004
   3026972.97346   2395015.65643
                  23855710.4844                                   23855705.9454
                                                                        41.5004
        22.7504
   2754447.95747   2189856.98444
                  23708849.9384                                   23708845.7234
                                                                        42.2504
        25.5004
 -21699320.64848 -16887353.03146
                  20958066.8054                                   20958063.2894
                                                                        50.7504
        40.2504
  -7735053.91847  -5986040.59044
                  22759233.5554                                   22759229.6334
                                                                        46.0004
        29.2504
 09 10 12  1  4 30.0000000  0  9G02G04G05G13G29G16G07G10G25
  -8657320.21548  -6681775.23446
                  21206962.9924                                   21206957.2194
                                                                        49.7504
        40.7504
   8476709.04347   6635139.91844
                  23831604.6644                                   23831602.0474
                                                                        43.7504
        27.7504
 -17188351.56248 -13346160.55546
                  21529988.7344                                   21529984.8984
                                                                        50.5004
        41.5004
 -12359027.04748  -9557129.09445
                  21768535.6024                                   21768531.9494
                                                                        48.0004
        33.5004
 -17921465.14848 -13927430.88346
                  22094091.1334                                   22094087.9384
                                                                        48.7504
        38.2504
   2905891.89547   2300666.75043
                  23832669.0864                                   23832665.3404
                                                                        42.5004
        23.2504
   2587825.71547   2060021.50444
                  23677142.8444                                   23677138.9344
                                                                        43.0004
        26.5004
 -21836401.98048 -16994169.66446
                  20931980.9924                                   20931977.5124
                                                                        50.7504
        40.2504
  -7850912.32047  -6076319.86745
                  22737186.3444                                   22737182.8984
                                                                        45.7504
        30.0004
 09 10 12  1  5  0.0000000  0  9G02G04G05G13G29G16G07G10G25
  -8676147.91448  -6696446.18046
                  21203380.0554                                   21203374.5434
                                                                        49.5004
        40.0004
   8505719.15247   6657745.16444
                  23837125.1644                                   23837122.4804
                                                                        42.7504
        27.2504
 -17341261.99248 -13465311.54346
                  21500890.3984                                   21500887.1484
                                                                        49.5004
        40.7504
 -12385282.84848  -9577588.15245
                  21763539.3914                                   21763535.2304
                                                                        48.7504
        33.2504
 -18016564.91448 -14001534.59446
                  22075994.4304                                   22075991.1334
                                                                        49.0004
        38.5004
   2785385.60547   2206765.76244
                  23809738.1254                                   23809733.2194
                                                                        42.5004
        24.2504
   2421591.34447   1930488.26644
                  23645509.6564                                   23645505.5434
                                                                        43.5004
        28.2504
 -21972968.40648 -17100585.06646
                  20905993.4614                                   20905989.9454
                                                                        50.0004
        40.5004
  -7966209.01247  -6166161.43044
                  22715246.5634                                   22715242.3524
                                                                        45.7504
        29.2504
 09 10 12  1  5 30.0000000  0  9G02G04G05G13G29G16G07G10G25
  -8694474.18448  -6710726.39146
                  21199892.8284                                   21199887.0514
                                                                        49.7504
        40.0004
   8534897.58646   6680481.55144
                  23842677.7274                                   23842675.5744
                                                                        41.7504
        26.2504
 -17493748.98848 -13584132.58246
                  21471873.4614                                   21471870.0124
                                                                        49.7504
        40.7504
 -12410974.99648  -9597608.00445
                  21758650.4224                                   21758646.6094
                                                                        49.0004
        32.7504
 -18111052.55948 -14075161.33246
                  22058014.0554                                   22058010.8914
                                                                        48.5004
        38.7504
   2665453.75846   2113312.36343
                  23786915.2664                                   23786910.6024
                                                                        41.5004
        22.2504
   2255746.19947   1801258.30944
                  23613950.4064                                   23613946.4534
                                                                        42.0004
        28.7504
 -22109020.03548 -17206599.32846
                  20880103.6254                                   20880100.6374
                                                                        51.0004
        40.7504
  -8080944.46947  -6255565.66445
                  22693412.9384                                   22693409.4304
                                                                        46.2504
        30.5004
 09 10 12  1  6  0.0000000  0  9G02G04G05G13G29G16G07G10G25
  -8712299.43048  -6724616.19946
                  21196500.5704                                   21196495.2504
                                                                        50.0004
        39.7504
   8564243.79746   6703348.66844
                  23848261.7814                                   23848259.3914
                                                                        41.5004
        26.5004
 -17645810.23048 -13702621.87146
                  21442937.3054                                   21442934.0004
                                                                        49.7504
        41.0004
 -12436103.48848  -9617188.65245
                  21753868.4454                                   21753864.4414
                                                                        48.0004
        33.0004
 -18204925.78148 -14148309.30546
                  22040150.2194                                   22040147.2504
                                                                        48.0004
        38.5004
   2546099.50446   2020309.04343
                  23764203.1094                                   23764198.7504
                                                                        40.2504
        22.0004
   2090294.45747   1672334.89844
                  23582465.6954                                   23582462.0984
                                                                        43.5004
        28.0004
 -22244553.83648 -17312210.04746
                  20854312.4534                                   20854308.8094
                                                                        50.5004
        41.0004
  -8195115.78147  -6344530.32444
                  22671686.0314                                   22671682.8094
                                                                        45.7504
        29.7504
 09 10 12  1  6 30.0000000  0  9G02G04G05G13G29G16G07G10G25
  -8729627.12548  -6738118.35946
                  21193203.4924                                   21193197.5944
                                                                        50.5004
        40.2504
   8593753.60247   6726343.27344
                  23853877.7734                                   23853875.2704
                                                                        43.2504
        26.0004
 -17797445.49648 -13820779.23446
                  21414081.9844                                   21414078.2114
                                                                        51.5004
        41.5004
 -12460672.27748  -9636333.15645
                  21749192.8674                                   21749189.0274
                                                                        48.2504
        33.5004
 -18298186.57848 -14220980.07046
                  22022403.0394                                   22022400.1684
                                                                        48.5004
        38.2504
   2427321.93446   1927755.12143
                  23741601.0474                                   23741595.7274
                                                                        40.7504
        22.0004
   1925237.34447   1543718.97344
                  23551056.6094                                   23551052.1414
                                                                        42.5004
        28.0004
 -22379570.03548 -17417417.46146
                  20828619.5704                                   20828615.9534
                                                                        50.0004
        40.7504
  -8308723.85547  -6433056.08245
                  22650067.5394                                   22650063.7114
                                                                        46.7504
        30.0004
 09 10 12  1  7  0.0000000  0  9G02G04G05G13G29G16G07G10G25
  -8746457.81248  -6751233.17646
                  21190000.6254                                   21189995.0234
                                                                        49.7504
        40.2504
   8623425.77347   6749464.42244
                  23859524.3134                                   23859521.2114
                                                                        44.7504
        26.2504
 -17948652.15648 -13938602.62146
                  21385308.2584                                   21385304.6454
                                                                        50.5004
        41.2504
 -12484682.75848  -9655042.61345
                  21744624.1094                                   21744620.0044
                                                                        48.5004
        33.2504
 -18390833.62947 -14293172.55946
                  22004772.9454                                   22004770.1054
                                                                        47.7504
        37.7504
   2309123.13346   1835652.13743
                  23719108.4224                                   23719103.0044
                                                                        41.7504
        22.5004
   1760578.16047   1415413.13344
                  23519722.7194                                   23519718.8014
                                                                        43.0004
        27.7504
 -22514066.79748 -17522220.14146
                  20803026.0634                                   20803022.6524
                                                                        50.0004
        40.5004
  -8421766.73447  -6521141.43445
                  22628556.3754                                   22628552.6724
                                                                        46.5004
        30.5004
 09 10 12  1  7 30.0000000  0  9G02G04G05G13G29G16G07G10G25
  -8762794.06248  -6763962.69946
                  21186891.7894                                   21186886.2774
                                                                        49.5004
        40.0004
   8653257.67647   6772710.02344
                  23865201.0084                                   23865198.1334
                                                                        44.0004
        25.0004
 -18099429.40648 -14056091.41046
                  21356616.5784                                   21356612.4614
                                                                        51.0004
        41.0004
 -12508137.82848  -9673319.28945
                  21740160.7194                                   21740156.8484
                                                                        49.0004
        34.0004
 -18482866.82048 -14364886.70746
                  21987259.7734                                   21987256.6954
                                                                        48.7504
        38.2504
   2191504.42647   1744001.16843
                  23696726.2344                                   23696721.9104
                                                                        42.2504
        23.0004
   1596319.27547   1287419.24244
                  23488465.0164                                   23488461.5944
                                                                        42.7504
        28.0004
 -22648043.64548 -17626617.66846
                  20777530.6884                                   20777527.2704
                                                                        50.5004
        40.2504
  -8534243.75047  -6608785.85945
                  22607152.3914                                   22607148.7664
                                                                        46.2504
        30.5004
 09 10 12  1  8  0.0000000  0  9G02G04G05G13G29G16G07G10G25
  -8778635.56648  -6776306.70346
                  21183877.3134                                   21183871.5394
                                                                        49.7504
        40.2504
   8683249.28147   6796080.09444
                  23870908.4774                                   23870905.7384
                                                                        42.7504
        24.2504
 -18249773.96148 -14173243.00046
                  21328006.6804                                   21328003.0474
                                                                        51.0004
        41.5004
 -12531037.84848  -9691163.45745
                  21735803.2584                                   21735799.0004
                                                                        48.2504
        33.2504
 -18574284.59848 -14436121.34046
                  21969863.3524                                   21969860.6844
                                                                        49.7504
        38.5004
   2074468.22347   1652804.13343
                  23674455.3204                                   23674450.6334
                                                                        42.2504
        22.5004
   1432464.93046   1159740.57044
                  23457284.4924                                   23457281.0394
                                                                        41.5004
        28.5004
 -22781497.64548 -17730607.78546
                  20752135.2664                                   20752132.0204
                                                                        50.2504
        40.5004
  -8646152.31647  -6695987.33645
                  22585857.4304                                   22585853.7704
                                                                        46.2504
        30.5004
 09 10 12  1  8 30.0000000  0  9G02G04G05G13G29G16G07G10G25
  -8793985.13348  -6788267.42246
                  21180956.4694                                   21180950.7734
                                                                        50.5004
        40.2504
   8713397.40247   6819572.07444
                  23876644.9924                                   23876642.9804
                                                                        42.5004
        25.2504
 -18399684.52348 -14290056.41846
                  21299479.7034                                   21299476.0514
                                                                        52.2504
        41.5004
 -12553385.52748  -9708577.23445
                  21731550.2504                                   21731546.5664
                                                                        48.2504
        33.0004
 -18665086.32048 -14506875.95746
                  21952584.5944                                   21952581.8324
                                                                        50.0004
        38.0004
   1958016.14147   1562062.28143
                  23652295.1334                                   23652290.4964
                                                                        43.0004
        23.5004
   1269017.41047   1032378.89144
                  23426181.3834                                   23426177.8404
                                                                        43.5004
        28.5004
 -22914427.98848 -17834189.87546
                  20726839.6564                                   20726836.0594
                                                                        50.2504
        41.0004
  -8757491.68047  -6782745.27045
                  22564670.2894                                   22564666.7154
                                                                        46.0004
        30.2504
 09 10 12  1  9  0.0000000  0  9G02G04G05G13G29G16G07G10G25
  -8808841.93748  -6799844.14846
                  21178129.1094                                   21178123.8674
                                                                        50.5004
        39.2504
   8743702.59047   6843186.43844
                  23882412.2734                                   23882410.0084
                                                                        43.5004
        25.7504
 -18549157.87948 -14406529.12546
                  21271035.9454                                   21271032.2664
                                                                        51.0004
        41.0004
 -12575181.47748  -9725561.09045
                  21727402.8284                                   21727399.1374
                                                                        48.5004
        33.5004
 -18755270.19548 -14577149.12546
                  21935423.5164                                   21935420.5984
                                                                        49.5004
        38.5004
   1842150.57847   1471777.44144
                  23630246.1954                                   23630241.8754
                                                                        42.5004
        24.7504
   1105981.75047    905338.15644
                  23395156.7894                                   23395153.0984
                                                                        43.0004
        29.0004
 -23046831.31248 -17937361.29746
                  20701643.8444                                   20701640.7544
                                                                        50.7504
        40.5004
  -8868259.02047  -6869057.46545
                  22543592.5704                                   22543588.3754
                                                                        46.0004
        30.0004
 09 10 12  1  9 30.0000000  0  9G02G04G05G13G29G16G07G10G25
  -8823208.32448  -6811038.74246
                  21175395.3524                                   21175389.6214
                                                                        49.7504
        39.5004
   8774161.90647   6866920.92644
                  23888208.6484                                   23888206.7464
                                                                        44.7504
        26.7504
 -18698191.78948 -14522659.43746
                  21242675.6644                                   21242671.9304
                                                                        51.5004
        41.2504
 -12596427.15648  -9742116.17645
                  21723360.0004                                   21723356.0314
                                                                        48.2504
        33.0004
 -18844834.99248 -14646939.88346
                  21918379.6254                                   21918376.8134
                                                                        50.7504
        39.0004
   1726874.07647   1381951.61044
                  23608310.2974                                   23608305.8954
                                                                        42.5004
        25.0004
    943360.26647    778620.12544
                  23364211.4924                                   23364207.4304
                                                                        42.7504
        29.0004
 -23178706.12948 -18040120.89146
                  20676548.8674                                   20676545.4774
                                                                        50.2504
        41.5004
  -8978452.95347  -6954922.87145
                  22522622.8204                                   22522618.8914
                                                                        46.7504
        31.0004
 09 10 12  1 10  0.0000000  0  9G02G04G05G13G29G16G07G10G25
  -8837083.48048  -6821850.53946
                  21172754.8054                                   21172749.3984
                                                                        49.5004
        39.5004
   8804775.80147   6890775.87544
                  23894034.2194                                   23894031.7344
                                                                        44.7504
        26.5004
 -18846783.38348 -14638445.10246
                  21214399.6414                                   21214395.9304
                                                                        51.5004
        41.0004
 -12617123.44948  -9758243.13345
                  21719421.9534                                   21719417.6214
                                                                        48.0004
        33.0004
 -18933779.96148 -14716247.61346
                  21901453.7894                                   21901450.6954
                                                                        49.5004
        39.0004
   1612187.85547   1292585.73844
                  23586486.1484                                   23586482.0084
                                                                        43.0004
        25.7504
    781157.52047    652228.37944
                  23333345.2504                                   23333340.8094
                                                                        43.2504
        28.2504
 -23310049.33248 -18142466.22346
                  20651555.2584                                   20651552.1914
                                                                        50.2504
        41.0004
  -9088071.08647  -7040339.60545
                  22501762.7424                                   22501759.5664
                                                                        46.2504
        31.5004
 09 10 12  1 10 30.0000000  0  9G02G04G05G13G29G16G07G10G25
  -8850470.68448  -6832282.11746
                  21170207.3834                                   21170201.8874
                                                                        49.2504
        39.7504
   8835541.17247   6914748.88344
                  23899888.7664                                   23899885.9454
                                                                        42.7504
        24.7504
 -18994932.07448 -14753885.65646
                  21186207.9614                                   21186204.2624
                                                                        51.7504
        41.2504
 -12637273.21548  -9773944.23845
                  21715587.1484                                   21715583.1254
                                                                        48.5004
        31.7504
 -19022104.11748 -14785071.60246
                  21884646.0944                                   21884643.5864
                                                                        49.5004
        39.2504
   1498093.08247   1203680.71544
                  23564774.7664                                   23564770.1804
                                                                        43.5004
        27.0004
    619375.25047    526164.28544
                  23302558.7814                                   23302555.1054
                                                                        42.0004
        27.2504
 -23440861.05148 -18244397.42646
                  20626662.6644                                   20626659.1844
                                                                        50.0004
        41.2504
  -9197113.08647  -7125307.38345
                  22481013.1644                                   22481009.2664
                                                                        46.2504
        30.5004
 09 10 12  1 11  0.0000000  0  9G02G04G05G13G29G16G07G10G25
  -8863373.58248  -6842336.31646
                  21167752.0234                                   21167746.0554
                                                                        49.5004
        39.7504
   8866453.55947   6938836.41844
                  23905770.8204                                   23905768.3524
                                                                        42.2504
        24.5004
 -19142638.18048 -14868981.31646
                  21158100.0944                                   21158097.0354
                                                                        51.7504
        41.7504
 -12656881.02047  -9789223.02745
                  21711855.8364                                   21711851.4844
                                                                        47.2504
        32.5004
 -19109810.43448 -14853414.17246
                  21867956.3674                                   21867953.2894
                                                                        50.0004
        38.0004
   1384589.43047   1115236.32044
                  23543175.6334                                   23543171.0514
                                                                        43.0004
        25.5004
    458014.38747    400428.57844
                  23271852.7424                                   23271849.1024
                                                                        43.0004
        28.7504
 -23571142.01248 -18345915.10246
                  20601870.8834                                   20601867.6644
                                                                        49.2504
        40.7504
  -9305580.05147  -7209827.09445
                  22460372.5394                                   22460368.7424
                                                                        45.5004
        30.2504
 09 10 12  1 11 30.0000000  0  9G02G04G05G13G29G16G07G10G25
  -8875790.81248  -6852012.07846
                  21165389.2194                                   21165383.3444
                                                                        49.5004
        39.2504
   8897514.44146   6963039.71543
                  23911681.4144                                   23911678.9654
                                                                        40.5004
        22.7504
 -19289897.22748 -14983728.63746
                  21130077.7894                                   21130074.0744
                                                                        51.7504
        41.2504
 -12675945.82448  -9804078.71945
                  21708228.1564                                   21708223.9694
                                                                        48.2504
        32.5004
 -19196895.61748 -14921272.74246
                  21851384.8984                                   21851381.6214
                                                                        50.0004
        38.5004
   1271680.52747   1027255.34844
                  23521689.6414                                   23521685.5004
                                                                        43.5004
        25.2504
    297080.59447    275025.63344
                  23241228.6724                                   23241224.2814
                                                                        43.0004
        29.2504
 -23700887.77348 -18447015.70346
                  20577181.1254                                   20577177.8244
                                                                        50.0004
        40.7504
  -9413468.10547  -7293895.71145
                  22439842.1174                                   22439838.4614
                                                                        46.5004
        30.7504
 09 10 12  1 12  0.0000000  0  9G02G04G05G13G29G16G07G10G25
  -7312304.32048  -5633710.90246
                  21462910.2974                                   21462905.2894
                                                                        49.2504
        39.5004
  10504139.98046   8214955.68443
                  24217411.8204                                   24217409.9144
                                                                        40.0004
        22.7504
 -17861283.85548 -13870523.39546
                  21401933.9774                                   21401930.2734
                                                                        52.0004
        41.2504
 -11119050.48447  -8590913.51245
                  22004495.1334                                   22004491.4024
                                                                        47.5004
        32.5004
 -17707937.69948 -13761045.79746
                  22134723.8674                                   22134720.8594
                                                                        49.7504
        38.7504
   2734789.84047   2167340.52744
                  23800110.2894                                   23800105.5314
                                                                        43.0004
        26.0004
   1712001.30546   1377561.27044
                  23510478.6254                                   23510474.8714
                                                                        41.0004
        28.0004
 -22254673.89148 -17320095.82446
                  20852386.6724                                   20852383.0394
                                                                        50.7504
        41.0004
  -7945353.41847  -6149910.23045
                  22719215.0554                                   22719211.5434
                                                                        45.7504
        31.5004
 09 10 12  1 12 30.0000000  0  9G02G04G05G13G29G16G07G10G25
  -7323755.56648  -5642633.94546
                  21460731.6024                                   21460725.5824
                                                                        49.2504
        39.2504
  10535490.86346   8239384.88344
                  24223378.8594                                   24223375.5354
                                                                        41.5004
        24.0004
 -18007643.84848 -13984570.13347
                  21374082.7194                                   21374078.9774
                                                                        51.5004
        42.0004
 -11137036.80547  -8604928.81645
                  22001073.0084                                   22001068.5474
                                                                        47.5004
        32.2504
 -17793779.05548 -13827935.14846
                  22118388.9924                                   22118385.8094
                                                                        50.0004
        38.7504
   2623074.10947   2080289.33244
                  23778851.6024                                   23778846.7074
                                                                        44.0004
        24.7504
   1551929.39147   1252829.90644
                  23480018.0634                                   23480013.9144
                                                                        42.5004
        29.0004
 -22383345.77748 -17420359.66446
                  20827901.2974                                   20827897.6334
                                                                        50.7504
        41.0004
  -8052080.96547  -6233074.56645
                  22698905.5554                                   22698901.8444
                                                                        45.0004
        31.0004
 09 10 12  1 13  0.0000000  0  9G02G04G05G13G29G16G07G10G25
  -7334726.89848  -5651183.04746
                  21458643.7274                                   21458638.5124
                                                                        49.7504
        39.0004
  10566983.84847   8263924.89844
                  24229371.1724                                   24229368.8874
                                                                        42.0004
        24.5004
 -18153552.21148 -14098264.94946
                  21346316.9694                                   21346313.7194
                                                                        50.7504
        41.5004
 -11154487.27347  -8618526.58645
                  21997751.4774                                   21997747.8554
                                                                        47.5004
        31.7504
 -17878999.05948 -13894340.34046
                  22102172.0704                                   22102169.0984
                                                                        49.2504
        38.5004
   2511956.44547   1993704.11744
                  23757706.3364                                   23757701.2304
                                                                        42.7504
        25.2504
   1392292.66047   1128437.67244
                  23449640.0394                                   23449636.4344
                                                                        43.5004
        29.5004
 -22511479.04748 -17520203.74646
                  20803518.0084                                   20803514.5514
                                                                        50.5004
        40.5004
  -8158226.79347  -6315785.59845
                  22678706.1644                                   22678702.5984
                                                                        45.7504
        30.7504
 09 10 12  1 13 30.0000000  0  9G02G04G05G13G29G16G07G10G25
  -7345221.96148  -5659361.01246
                  21456646.8754                                   21456641.2504
                                                                        49.7504
        39.0004
  10598614.53146   8288572.17244
                  24235390.6484                                   24235387.6254
                                                                        41.7504
        24.5004
 -18299009.48048 -14211608.26646
                  21318637.4064                                   21318634.0004
                                                                        50.7504
        41.5004
 -11171405.89848  -8631709.92245
                  21994532.6094                                   21994528.2734
                                                                        48.2504
        31.7504
 -17963598.75048 -13960262.18046
                  22086073.1174                                   22086069.8524
                                                                        49.7504
        38.5004
   2401436.42247   1907584.63344
                  23736674.8284                                   23736670.5394
                                                                        43.0004
        25.5004
   1233091.37147   1004384.73844
                  23419345.1564                                   23419341.2934
                                                                        43.0004
        29.2504
 -22639074.61348 -17619628.85246
                  20779237.4454                                   20779234.0594
                                                                        50.7504
        41.0004
  -8263792.08647  -6398044.27345
                  22658618.2584                                   22658614.2624
                                                                        46.2504
        31.0004
 09 10 12  1 14  0.0000000  0  9G02G04G05G13G29G16G07G10G25
  -7355238.99248  -5667166.48846
                  21454740.6094                                   21454735.1024
                                                                        50.2504
        39.7504
  10630384.68846   8313328.13744
                  24241436.2344                                   24241433.4064
                                                                        41.7504
        24.0004
 -18444009.92248 -14324595.60547
                  21291044.8834                                   21291041.2154
                                                                        51.5004
        42.0004
 -11187791.48048  -8644477.89845
                  21991414.3134                                   21991410.4344
                                                                        48.5004
        32.2504
 -18047574.54348 -14025697.85546
                  22070093.0634                                   22070089.5204
                                                                        50.0004
        38.7504
   2291518.28147   1821934.13344
                  23715757.5164                                   23715753.7704
                                                                        43.5004
        24.7504
   1074331.93847    880676.09444
                  23389134.0164                                   23389130.4694
                                                                        43.5004
        28.7504
 -22766127.63748 -17718631.20746
                  20755060.0314                                   20755057.1484
                                                                        50.7504
        41.0004
  -8368772.53547  -6479847.19545
                  22638641.3054                                   22638637.1024
                                                                        45.7504
        30.0004
 09 10 12  1 14 30.0000000  0  9G02G04G05G13G29G16G07G10G25
  -7364780.63348  -5674601.55146
                  21452924.8754                                   21452919.5354
                                                                        49.5004
        38.7504
  10662291.88346   8338190.83243
                  24247507.9844                                   24247505.5474
                                                                        41.0004
        23.0004
 -18588554.46548 -14437227.68747
                  21263538.8444                                   21263535.7194
                                                                        51.2504
        42.0004
 -11203647.92248  -8656833.55545
                  21988396.9924                                   21988392.5634
                                                                        48.0004
        32.2504
 -18130928.41848 -14090648.88746
                  22054231.1024                                   22054227.9264
                                                                        49.5004
        39.0004
   2182200.95747   1736751.82044
                  23694955.2584                                   23694951.6564
                                                                        43.0004
        24.7504
    916016.62146    757313.53544
                  23359008.4064                                   23359004.1254
                                                                        41.5004
        29.0004
 -22892638.58248 -17817211.16046
                  20730985.7814                                   20730982.9454
                                                                        50.2504
        41.0004
  -8473168.24647  -6561194.50044
                  22618775.0864                                   22618771.2274
                                                                        45.0004
        29.5004
 09 10 12  1 15  0.0000000  0  9G02G04G05G13G29G16G07G10G25
  -7373849.08648  -5681667.87546
                  21451199.4774                                   21451193.9654
                                                                        49.7504
        39.0004
  10694332.56647   8363157.57843
                  24253604.8674                                   24253602.5164
                                                                        42.0004
        23.2504
 -18732640.32448 -14549502.36346
                  21236120.3054                                   21236116.8554
                                                                        51.5004
        41.5004
 -11218976.91848  -8668778.22345
                  21985479.5704                                   21985476.1254
                                                                        48.0004
        32.5004
 -18213658.41448 -14155113.81646
                  22038488.4774                                   22038485.3444
                                                                        49.5004
        38.5004
   2073488.07447   1652040.49644
                  23674268.9224                                   23674263.7034
                                                                        42.2504
        25.0004
    758147.09846    634298.31644
                  23328966.0554                                   23328962.2274
                                                                        41.5004
        29.0004
 -23018605.47748 -17915367.19146
                  20707015.2344                                   20707011.8794
                                                                        50.2504
        40.7504
  -8576978.48047  -6642085.57444
                  22599020.5944                                   22599016.6844
                                                                        45.2504
        29.7504
 09 10 12  1 15 30.0000000  0  9G02G04G05G13G29G16G07G10G25
  -7382447.28548  -5688367.78146
                  21449562.9774                                   21449557.2664
                                                                        49.2504
        39.0004
  10726504.27747   8388226.39843
                  24259727.0634                                   24259724.4304
                                                                        43.0004
        22.7504
 -18876267.50048 -14661419.62946
                  21208789.0314                                   21208785.5354
                                                                        51.0004
        41.5004
 -11233782.25448  -8680314.85945
                  21982662.7664                                   21982658.5664
                                                                        48.0004
        32.5004
 -18295766.57448 -14219094.18446
                  22022863.6954                                   22022860.4454
                                                                        49.0004
        38.7504
   1965377.73447   1567798.69544
                  23653695.9614                                   23653690.9734
                                                                        43.5004
        26.0004
    600724.87946    511631.66844
                  23299010.5234                                   23299005.8094
                                                                        41.7504
        28.5004
 -23144028.87148 -18013099.66846
                  20683147.7194                                   20683144.4694
                                                                        50.7504
        41.7504
  -8680203.77347  -6722520.86345
                  22579377.6484                                   22579373.5204
                                                                        45.5004
        30.7504
