     2.11           OBSERVATION DATA    G (GPS)             RINEX VERSION / TYPE
teqc  2019Feb25                         20221121 12:28:30UTCPGM / RUN BY / DATE
OSX ker:10.11.6|Core i5|gcc 4.3 -m64|OSX ker:10.10+|=+      COMMENT
BIT 2 OF LLI FLAGS DATA COLLECTED UNDER A/S CONDITION       COMMENT
04712920                                                    MARKER NAME
2920                                                        MARKER NUMBER
-Unknown-           -Unknown-                               OBSERVER / AGENCY
0220400471          TRIMBLE R7          2.30                REC # / TYPE / VERS
-Unknown-           TRM39105.00     NONE                    ANT # / TYPE
  1449458.9120 -1709242.1496  5952441.0231                  APPROX POSITION XYZ
        0.0000        0.0000        0.0000                  ANTENNA: DELTA H/E/N
     1     1                                                WAVELENGTH FACT L1/2
    20    L1    L2    L5    L6    L7    L8    C1    P1    C2# / TYPES OF OBSERV
          P2    C5    C6    C7    C8    S1    S2    S5    S6# / TYPES OF OBSERV
          S7    S8                                          # / TYPES OF OBSERV
    30.0000                                                 INTERVAL
    15                                                      LEAP SECONDS
Forced Modulo Decimation to 30 seconds                      COMMENT
 SNR is mapped to RINEX snr flag value [0-9]                COMMENT
  L1 & L2: min(max(int(snr_dBHz/6), 0), 9)                  COMMENT
teqc edited: Beidou # 1 - 37 excluded                       COMMENT
  2009    10    19     0     0    0.0000000     GPS         TIME OF FIRST OBS
                                                            END OF HEADER
 09 10 19  0  0  0.0000000  0  8G02G04G05G10G25G13G23G29
  -9812311.87548  -7591436.96547
                  20671061.1024                                   20671055.2974
                                                                        52.5004
        42.0004
  -1751866.28147  -1347054.96545
                  22520491.8444                                   22520488.5234
                                                                        47.7504
        34.7504
 -17259305.55148 -13436740.45746
                  22721032.5474                                   22721028.5664
                                                                        48.5004
        37.2504
 -19472609.05948 -15088214.15246
                  21909576.5944                                   21909572.9804
                                                                        49.2504
        37.7504
  -9565666.32846  -7410592.28544
                  23509469.7814                                   23509465.8954
                                                                        41.2504
        25.5004
 -11465613.11348  -8872163.35546
                  21374440.0784                                   21374435.6484
                                                                        50.7504
        36.0004
  -3455591.63347  -2666480.97744
                  23148090.1484                                   23148084.1914
                                                                        46.0004
        27.5004
 -16917996.89147 -13105593.80945
                  22616147.9534                                   22616143.9574
                                                                        47.2504
        35.7504
 09 10 19  0  0 30.0000000  0  8G02G04G05G10G25G13G23G29
  -9877874.30148  -7642524.56647
                  20658584.9924                                   20658578.9774
                                                                        52.2504
        42.5004
  -1746925.46948  -1343205.11745
                  22521431.5084                                   22521429.0514
                                                                        48.0004
        34.0004
 -17444553.07048 -13581089.14146
                  22685781.1954                                   22685777.2704
                                                                        48.5004
        37.5004
 -19647362.39848 -15224385.59446
                  21876321.8674                                   21876318.4414
                                                                        50.0004
        37.2504
  -9723913.04747  -7533901.43744
                  23479356.2974                                   23479351.7274
                                                                        42.5004
        25.2504
 -11543519.41048  -8932869.55545
                  21359615.4924                                   21359611.2504
                                                                        50.5004
        35.5004
  -3462081.19947  -2671537.77344
                  23146855.4224                                   23146849.2894
                                                                        45.2504
        28.5004
 -17060956.27048 -13216990.77346
                  22588943.5704                                   22588939.8444
                                                                        48.2504
        36.2504
 09 10 19  0  1  0.0000000  0  8G02G04G05G10G25G13G23G29
  -9942845.94948  -7693151.87947
                  20646221.3524                                   20646215.3834
                                                                        52.5004
        42.2504
  -1741657.25847  -1339100.11745
                  22522434.3914                                   22522431.2154
                                                                        47.5004
        34.0004
 -17629494.29348 -13725199.20346
                  22650587.9774                                   22650584.2424
                                                                        48.5004
        37.5004
 -19821704.61348 -15360236.64146
                  21843145.7194                                   21843142.2934
                                                                        48.5004
        37.7504
  -9881717.57847  -7656866.05544
                  23449327.5084                                   23449323.3054
                                                                        42.7504
        25.5004
 -11620749.98048  -8993049.17646
                  21344918.8134                                   21344914.6254
                                                                        50.5004
        36.2504
  -3468143.98047  -2676262.00444
                  23145701.6804                                   23145695.9224
                                                                        44.5004
        29.5004
 -17203379.08647 -13327969.54346
                  22561840.9924                                   22561837.8484
                                                                        46.0004
        36.5004
 09 10 19  0  1 30.0000000  0  8G02G04G05G10G25G13G23G29
 -10007228.21948  -7743319.87547
                  20633969.8754                                   20633964.0274
                                                                        52.0004
        42.0004
  -1736064.70347  -1334742.37945
                  22523499.2504                                   22523495.5944
                                                                        47.7504
        34.0004
 -17814128.63748 -13869070.06246
                  22615453.2034                                   22615449.5704
                                                                        48.5004
        37.7504
 -19995635.37148 -15495767.10546
                  21810047.7504                                   21810044.1914
                                                                        49.2504
        38.2504
 -10039078.28147  -7779484.75444
                  23419382.5784                                   23419378.6644
                                                                        42.5004
        26.0004
 -11697306.59848  -9052703.71146
                  21330350.3284                                   21330346.4064
                                                                        50.7504
        36.7504
  -3473783.60947  -2680656.52744
                  23144628.0864                                   23144622.8674
                                                                        44.2504
        28.0004
 -17345265.25447 -13438530.14845
                  22534841.2894                                   22534837.9104
                                                                        47.7504
        35.5004
 09 10 19  0  2  0.0000000  0  8G02G04G05G10G25G13G23G29
 -10071023.27348  -7793030.23047
                  20621829.9844                                   20621824.4064
                                                                        52.0004
        42.5004
  -1730152.40648  -1330135.41445
                  22524623.9304                                   22524620.6644
                                                                        48.0004
        34.0004
 -17998455.32048 -14012701.22346
                  22580377.0004                                   22580373.8054
                                                                        48.5004
        37.0004
 -20169153.95348 -15630976.36346
                  21777028.4224                                   21777024.9264
                                                                        49.7504
        37.5004
 -10195995.62947  -7901757.97344
                  23389521.9224                                   23389518.4304
                                                                        42.0004
        26.0004
 -11773192.31248  -9111835.55146
                  21315910.0394                                   21315906.2384
                                                                        50.7504
        36.2504
  -3479005.14547  -2684725.29744
                  23143634.8204                                   23143628.5634
                                                                        43.0004
        27.0004
 -17486613.99247 -13548671.98046
                  22507943.6564                                   22507940.1374
                                                                        47.7504
        36.7504
 09 10 19  0  2 30.0000000  0  8G02G04G05G10G25G13G23G29
 -10134231.68048  -7842283.52047
                  20609801.5944                                   20609796.0824
                                                                        51.5004
        42.2504
  -1723921.73847  -1325280.47345
                  22525809.4304                                   22525806.4144
                                                                        47.2504
        33.7504
 -18182473.08248 -14156091.66846
                  22545359.4304                                   22545355.8094
                                                                        48.2504
        37.2504
 -20342258.90248 -15765863.29746
                  21744087.6414                                   21744083.8404
                                                                        49.5004
        38.0004
 -10352466.02346  -8023682.88344
                  23359745.9304                                   23359743.0474
                                                                        41.0004
        26.0004
 -11848406.56648  -9170444.16446
                  21301597.2194                                   21301592.8054
                                                                        50.0004
        36.2504
  -3483809.55947  -2688469.02344
                  23142720.0704                                   23142714.3594
                                                                        43.5004
        27.2504
 -17627424.10248 -13658394.24646
                  22481148.3914                                   22481145.2664
                                                                        48.0004
        37.2504
 09 10 19  0  3  0.0000000  0  8G02G04G05G10G25G13G23G29
 -10196853.94948  -7891080.01247
                  20597885.0704                                   20597879.3204
                                                                        51.0004
        42.2504
  -1717375.04747  -1320179.11345
                  22527055.3204                                   22527051.8054
                                                                        47.2504
        33.2504
 -18366179.77047 -14299239.70346
                  22510401.1254                                   22510397.3404
                                                                        47.2504
        37.2504
 -20514947.77048 -15900426.04346
                  21711225.9614                                   21711222.3094
                                                                        49.7504
        37.7504
 -10508488.21946  -8145258.53944
                  23330056.1954                                   23330052.9734
                                                                        39.5004
        25.5004
 -11922950.78948  -9228530.68446
                  21287412.0704                                   21287407.7384
                                                                        49.5004
        36.0004
  -3488200.19947  -2691890.31644
                  23141885.3054                                   23141878.8914
                                                                        44.2504
        25.7504
 -17767692.91048 -13767694.68446
                  22454456.1804                                   22454452.8014
                                                                        48.0004
        36.7504
 09 10 19  0  3 30.0000000  0  8G02G04G05G10G25G13G23G29
 -10258887.35948  -7939417.54747
                  20586080.3204                                   20586074.5664
                                                                        50.7504
        42.0004
  -1710511.18447  -1314830.65645
                  22528361.4224                                   22528358.5944
                                                                        47.2504
        34.2504
 -18549570.42648 -14442141.46546
                  22475503.4144                                   22475499.0084
                                                                        48.2504
        37.2504
 -20687215.48048 -16034660.59046
                  21678444.6094                                   21678440.9844
                                                                        49.0004
        38.2504
 -10664056.14546  -8266480.25044
                  23300452.5164                                   23300449.3954
                                                                        40.0004
        26.7504
 -11996822.37548  -9286093.07046
                  21273355.0234                                   21273350.7894
                                                                        50.0004
        36.0004
  -3492176.39547  -2694988.64544
                  23141128.3914                                   23141122.2234
                                                                        44.5004
        27.5004
 -17907416.12148 -13876569.89846
                  22427867.7034                                   22427864.1414
                                                                        48.0004
        36.5004
 09 10 19  0  4  0.0000000  0  8G02G04G05G10G25G13G23G29
 -10320338.09448  -7987301.33647
                  20574386.8284                                   20574380.8754
                                                                        51.0004
        42.2504
  -1703337.56647  -1309240.87545
                  22529726.3984                                   22529723.6564
                                                                        47.5004
        34.0004
 -18732647.96947 -14584799.29746
                  22440664.4064                                   22440660.5864
                                                                        47.5004
        37.2504
 -20859065.50048 -16168569.72346
                  21645742.3524                                   21645738.8914
                                                                        48.7504
        37.5004
 -10819172.96547  -8387350.56644
                  23270935.3054                                   23270931.2974
                                                                        42.0004
        28.2504
 -12070027.06248  -9343135.82046
                  21259425.0004                                   21259420.6334
                                                                        50.5004
        36.5004
  -3495745.65647  -2697769.87144
                  23140449.5234                                   23140443.0274
                                                                        44.5004
        27.5004
 -18046597.13348 -13985022.58246
                  22401382.5004                                   22401378.3794
                                                                        48.0004
        36.0004
 09 10 19  0  4 30.0000000  0  8G02G04G05G10G25G13G23G29
 -10381205.36748  -8034730.41447
                  20562804.2734                                   20562798.2274
                                                                        51.2504
        42.2504
  -1695854.94948  -1303410.19545
                  22531150.7274                                   22531147.4384
                                                                        48.0004
        34.0004
 -18915409.62948 -14727210.98046
                  22405886.0704                                   22405882.5634
                                                                        48.2504
        38.0004
 -21030494.75048 -16302150.88746
                  21613120.4454                                   21613116.8834
                                                                        49.0004
        38.5004
 -10973835.02747  -8507866.51244
                  23241504.3054                                   23241500.4734
                                                                        42.5004
        27.0004
 -12142564.13748  -9399658.14846
                  21245621.4304                                   21245617.2584
                                                                        51.0004
        36.2504
  -3498909.58247  -2700235.25844
                  23139846.8594                                   23139841.3914
                                                                        43.7504
        29.0004
 -18185233.20748 -14093050.70346
                  22375000.6804                                   22374997.0124
                                                                        48.0004
        36.5004
 09 10 19  0  5  0.0000000  0  8G02G04G05G10G25G13G23G29
 -10441490.73048  -8081705.96947
                  20551332.2424                                   20551326.1214
                                                                        51.0004
        42.5004
  -1688066.84448  -1297341.54345
                  22532632.5474                                   22532629.4104
                                                                        48.0004
        33.2504
 -19097853.64548 -14869375.09446
                  22371168.5944                                   22371164.8404
                                                                        48.0004
        38.2504
 -21201501.97348 -16435403.22346
                  21580578.6564                                   21580575.1024
                                                                        49.0004
        37.5004
 -11128041.11747  -8628026.94544
                  23212159.7424                                   23212154.8634
                                                                        44.5004
        25.0004
 -12214436.19548  -9455662.37946
                  21231944.7194                                   21231940.1884
                                                                        50.7504
        36.2504
  -3501672.05547  -2702387.85244
                  23139321.5554                                   23139315.4344
                                                                        42.2504
        27.2504
 -18323322.69148 -14200652.85246
                  22348723.3754                                   22348719.6214
                                                                        48.5004
        36.7504
 09 10 19  0  5 30.0000000  0  8G02G04G05G10G25G13G23G29
 -10501192.62548  -8128226.97747
                  20539971.3204                                   20539965.3404
                                                                        52.0004
        42.7504
  -1679972.71547  -1291034.51245
                  22534172.6804                                   22534169.3164
                                                                        47.5004
        33.5004
 -19279976.58248 -15011289.05946
                  22336511.8754                                   22336508.2974
                                                                        48.7504
        38.5004
 -21372083.45748 -16568323.85946
                  21548118.0084                                   21548114.8484
                                                                        49.5004
        38.0004
 -11281786.51647  -8747828.41844
                  23182901.8754                                   23182897.9184
                                                                        43.5004
        27.0004
 -12285640.79748  -9511146.40646
                  21218394.7274                                   21218390.5664
                                                                        50.2504
        36.2504
  -3504033.32447  -2704227.84444
                  23138871.8674                                   23138865.9964
                                                                        42.5004
        27.0004
 -18460862.64848 -14307826.74646
                  22322550.0704                                   22322546.4344
                                                                        48.7504
        37.2504
 09 10 19  0  6  0.0000000  0  8G02G04G05G10G25G13G23G29
 -10560315.18748  -8174296.70346
                  20528721.1254                                   20528714.9694
                                                                        50.7504
        41.7504
  -1671578.02347  -1284493.21545
                  22535770.2194                                   22535767.1644
                                                                        47.0004
        33.7504
 -19461779.96147 -15152953.97346
                  22301915.2344                                   22301911.5234
                                                                        47.5004
        37.5004
 -21542240.39848 -16700913.68746
                  21515738.4534                                   21515735.1764
                                                                        50.0004
        38.7504
 -11435072.88347  -8867272.25444
                  23153733.1174                                   23153728.9804
                                                                        43.5004
        25.0004
 -12356183.14148  -9566114.55546
                  21204971.1414                                   21204967.0204
                                                                        51.0004
        36.0004
  -3505999.10247  -2705759.64144
                  23138497.5164                                   23138492.0474
                                                                        43.7504
        27.5004
 -18597854.50048 -14414573.61346
                  22296481.5944                                   22296478.0554
                                                                        49.0004
        36.0004
 09 10 19  0  6 30.0000000  0  9G02G04G05G10G25G13G23G29G16
 -10618857.96548  -8219914.41847
                  20517580.3524                                   20517574.6374
                                                                        51.2504
        42.0004
  -1662884.92647  -1277719.32445
                  22537424.7274                                   22537421.2624
                                                                        46.2504
        33.0004
 -19643261.33648 -15294367.98046
                  22267380.6094                                   22267376.6684
                                                                        48.5004
        37.5004
 -21711970.43748 -16833170.82446
                  21483440.0394                                   21483436.6844
                                                                        49.5004
        38.5004
 -11587897.82047  -8986356.73444
                  23124651.1884                                   23124647.3284
                                                                        42.7504
        26.0004
 -12426063.31648  -9620566.63346
                  21191673.4064                                   21191669.3834
                                                                        50.5004
        36.2504
  -3507571.49247  -2706984.92244
                  23138198.9534                                   23138193.1254
                                                                        43.2504
        27.5004
 -18734295.57448 -14520891.30946
                  22270517.6094                                   22270513.5904
                                                                        48.5004
        37.0004
   -203737.40256   -120852.87953
                  24281375.9844                                   24281371.9344
                                                                        39.2504
        21.0004
 09 10 19  0  7  0.0000000  0  9G02G04G05G10G25G13G23G29G16
 -10676823.34048  -8265082.18446
                  20506549.8754                                   20506544.2664
                                                                        51.0004
        41.7504
  -1653895.88747  -1270714.84845
                  22539135.1954                                   22539132.0234
                                                                        47.0004
        32.5004
 -19824420.32448 -15435530.84446
                  22232906.9844                                   22232903.0904
                                                                        49.0004
        37.2504
 -21881272.77048 -16965094.67646
                  21451222.9064                                   21451219.2584
                                                                        50.0004
        38.7504
 -11740259.35247  -9105079.94944
                  23095657.3594                                   23095653.9144
                                                                        42.7504
        26.2504
 -12495283.01648  -9674503.90646
                  21178500.9454                                   21178497.0784
                                                                        50.0004
        36.0004
  -3508754.92647  -2707907.09444
                  23137974.0084                                   23137968.0594
                                                                        44.2504
        27.0004
 -18870186.95748 -14626780.69546
                  22244658.4844                                   22244654.9144
                                                                        48.7504
        36.7504
   -361588.01246   -243853.33643
                  24251338.3444                                   24251334.5084
                                                                        41.0004
        21.0004
 09 10 19  0  7 30.0000000  0  9G02G04G05G10G25G13G23G29G16
 -10734219.15248  -8309806.39147
                  20495628.2194                                   20495622.2304
                                                                        51.2504
        42.5004
  -1644620.60547  -1263487.41445
                  22540900.2344                                   22540897.2624
                                                                        47.0004
        32.7504
 -20005260.66048 -15576445.33646
                  22198494.3984                                   22198490.5514
                                                                        49.0004
        37.5004
 -22050151.71948 -17096688.63746
                  21419086.2584                                   21419082.5944
                                                                        49.7504
        38.2504
 -11892162.44147  -9223445.89144
                  23066751.0474                                   23066748.1094
                                                                        42.5004
        27.2504
 -12563850.33648  -9727932.99645
                  21165453.3134                                   21165448.7664
                                                                        50.0004
        35.7504
  -3509557.86347  -2708532.80144
                  23137821.0474                                   23137814.7504
                                                                        44.5004
        26.7504
 -19005531.76248 -14732244.14846
                  22218902.7664                                   22218899.0234
                                                                        49.2504
        36.2504
   -518979.86746   -366496.36343
                  24221387.2814                                   24221383.3674
                                                                        41.2504
        22.5004
 09 10 19  0  8  0.0000000  0  9G02G04G05G10G25G13G23G29G16
 -10791043.10948  -8354084.93047
                  20484814.9774                                   20484809.1094
                                                                        51.7504
        42.2504
  -1635058.23047  -1256036.16045
                  22542719.6724                                   22542716.3984
                                                                        46.5004
        32.5004
 -20185778.60948 -15717108.62946
                  22164142.9614                                   22164139.0944
                                                                        49.5004
        38.0004
 -22218603.35948 -17227949.64846
                  21387030.6644                                   21387026.9774
                                                                        49.5004
        38.7504
 -12043602.71147  -9341451.24644
                  23037933.5784                                   23037929.9964
                                                                        43.7504
        27.0004
 -12631764.07848  -9780852.83646
                  21152529.4774                                   21152525.0084
                                                                        50.5004
        36.2504
  -3509980.73847  -2708862.35544
                  23137740.3834                                   23137734.7774
                                                                        43.2504
        25.2504
 -19140326.85248 -14837279.31246
                  22193252.3674                                   22193248.8634
                                                                        49.2504
        36.5004
   -675908.85547   -488778.71143
                  24191525.1414                                   24191520.5164
                                                                        42.0004
        22.5004
 09 10 19  0  8 30.0000000  0  9G02G04G05G10G25G13G23G29G16
 -10847292.73848  -8397915.91847
                  20474111.1414                                   20474105.0944
                                                                        51.7504
        42.2504
  -1625207.61347  -1248360.34845
                  22544594.3054                                   22544591.4574
                                                                        47.2504
        32.7504
 -20365969.27348 -15857516.89546
                  22129854.0084                                   22129849.9694
                                                                        49.7504
        38.2504
 -22386623.13748 -17358874.21946
                  21355057.6804                                   21355054.1374
                                                                        50.0004
        38.5004
 -12194574.65647  -9459091.80544
                  23009204.5944                                   23009201.0554
                                                                        44.0004
        27.7504
 -12699021.34448  -9833261.16846
                  21139730.9844                                   21139726.8984
                                                                        50.5004
        36.0004
  -3510022.91447  -2708895.23844
                  23137732.3594                                   23137726.0204
                                                                        43.7504
        27.0004
 -19274567.19148 -14941882.15646
                  22167706.8594                                   22167703.6214
                                                                        48.0004
        36.7504
   -832369.19147   -610695.90643
                  24161752.1094                                   24161747.5634
                                                                        42.2504
        22.7504
 09 10 19  0  9  0.0000000  0  9G02G04G05G10G25G13G23G29G16
  -9327546.63348  -7213697.98447
                  20763309.0314                                   20763303.1134
                                                                        52.2504
        42.0004
    -39651.72347    -12862.32045
                  22846315.8134                                   22846312.5554
                                                                        46.5004
        33.0004
 -18970404.51648 -14770063.83246
                  22395420.7814                                   22395417.1374
                                                                        49.7504
        37.5004
 -20978782.83248 -16261855.79346
                  21622960.9774                                   21622957.1844
                                                                        50.0004
        38.7504
 -10769650.83247  -8348761.39844
                  23280358.7584                                   23280354.8874
                                                                        45.7504
        29.2504
 -11190201.05948  -8657557.08245
                  21426849.9924                                   21426845.6334
                                                                        50.7504
        35.7504
  -1934267.36747  -1481033.72344
                  23437588.9844                                   23437582.9384
                                                                        45.2504
        27.2504
 -17832826.91848 -13818448.20346
                  22442061.4534                                   22442057.6214
                                                                        48.5004
        36.5004
    587066.43446    495357.78543
                  24431861.3914                                   24431857.2504
                                                                        41.2504
        21.2504
 09 10 19  0  9 30.0000000  0  9G02G04G05G10G25G13G23G29G16
  -9382646.09848  -7256632.66846
                  20752823.8364                                   20752818.2934
                                                                        52.0004
        41.5004
    -29227.59847     -4739.64145
                  22848299.2894                                   22848296.4384
                                                                        46.2504
        32.5004
 -19149930.81648 -14909954.53146
                  22361258.1954                                   22361254.1724
                                                                        49.7504
        38.2504
 -21145928.64548 -16392099.35246
                  21591154.1174                                   21591150.8284
                                                                        50.2504
        38.7504
 -10919675.62947  -8465663.98044
                  23251809.9924                                   23251806.2234
                                                                        45.0004
        28.5004
 -11256144.53148  -8708941.59445
                  21414301.1564                                   21414297.1994
                                                                        50.5004
        35.7504
  -1933552.48847  -1480476.77744
                  23437724.9694                                   23437718.9884
                                                                        43.7504
        26.5004
 -17965949.29748 -13922179.91846
                  22416729.0474                                   22416725.3364
                                                                        48.2504
        36.5004
    431553.98046    374179.18843
                  24402267.8914                                   24402264.4184
                                                                        40.0004
        19.0004
 09 10 19  0 10  0.0000000  0  9G02G04G05G10G25G13G23G29G16
  -9437168.40248  -7299117.50446
                  20742448.5394                                   20742442.9454
                                                                        52.7504
        41.7504
    -18516.96147      3606.14545
                  22850337.6254                                   22850334.4024
                                                                        47.0004
        31.7504
 -19329119.13748 -15049581.77046
                  22327159.7344                                   22327155.8284
                                                                        50.5004
        38.2504
 -21312631.77348 -16521997.92646
                  21559431.7424                                   21559428.0824
                                                                        50.0004
        39.0004
 -11069220.25847  -8582192.25444
                  23223352.7734                                   23223348.9104
                                                                        45.0004
        27.5004
 -11321429.68748  -8759813.12545
                  21401878.1094                                   21401874.1214
                                                                        50.5004
        35.7504
  -1932459.93047  -1479625.48444
                  23437932.8054                                   23437927.0944
                                                                        45.0004
        27.0004
 -18098507.54748 -14025472.05946
                  22391504.1334                                   22391500.5004
                                                                        49.0004
        36.2504
    276521.91846    253374.97343
                  24372766.4384                                   24372762.7814
                                                                        40.0004
        20.2504
 09 10 19  0 10 30.0000000  0  9G02G04G05G10G25G13G23G29G16
  -9491106.39148  -7341147.14146
                  20732184.6094                                   20732178.7274
                                                                        52.5004
        41.5004
     -7513.37547     12180.23845
                  22852431.3444                                   22852428.3134
                                                                        47.0004
        32.2504
 -19507958.72348 -15188937.35546
                  22293128.0004                                   22293124.3754
                                                                        49.7504
        38.5004
 -21478881.50048 -16651543.23046
                  21527795.5084                                   21527792.1604
                                                                        50.2504
        40.2504
 -11218275.06647  -8698339.05944
                  23194988.4454                                   23194984.3164
                                                                        44.5004
        25.7504
 -11386049.31248  -8810166.03145
                  21389581.4694                                   21389576.9414
                                                                        50.5004
        35.7504
  -1930983.72747  -1478475.14844
                  23438213.7974                                   23438207.8324
                                                                        44.7504
        26.7504
 -18230491.12548 -14128316.39546
                  22366388.4924                                   22366384.8674
                                                                        49.2504
        36.5004
    121981.50046    132953.92243
                  24343358.3284                                   24343354.4804
                                                                        40.7504
        20.0004
 09 10 19  0 11  0.0000000  0  9G02G04G05G10G25G13G23G29G16
  -9544466.58248  -7382726.54746
                  20722030.3834                                   20722024.3244
                                                                        52.0004
        41.7504
      3775.19947     20976.50845
                  22854579.9064                                   22854576.4494
                                                                        46.5004
        32.7504
 -19686453.80148 -15328024.53946
                  22259161.3594                                   22259157.2934
                                                                        50.5004
        38.7504
 -21644681.71548 -16780738.23846
                  21496244.6564                                   21496240.9774
                                                                        50.7504
        38.7504
 -11366842.94147  -8814106.21944
                  23166717.1884                                   23166712.7234
                                                                        44.7504
        26.5004
 -11450010.50048  -8860005.93446
                  21377409.9774                                   21377405.7234
                                                                        51.0004
        36.0004
  -1929132.41047  -1477032.51644
                  23438565.7584                                   23438559.2464
                                                                        45.5004
        26.5004
 -18361904.27048 -14230716.21946
                  22341381.2584                                   22341377.6484
                                                                        49.0004
        37.0004
    -32070.96146     12913.01643
                  24314043.5004                                   24314038.5984
                                                                        41.5004
        19.5004
 09 10 19  0 11 30.0000000  0  9G02G04G05G10G25G13G23G29G16
  -9597251.17248  -7423857.54746
                  20711985.8674                                   20711980.4344
                                                                        52.0004
        41.7504
     15345.54747     29992.22345
                  22856781.7424                                   22856778.5474
                                                                        45.7504
        32.2504
 -19864604.35248 -15466843.37946
                  22225260.5864                                   22225256.9104
                                                                        50.5004
        38.5004
 -21810032.73048 -16909583.33646
                  21464779.4694                                   21464776.2974
                                                                        50.7504
        39.2504
 -11514922.91447  -8929493.12144
                  23138537.8364                                   23138533.6884
                                                                        45.0004
        27.0004
 -11513315.10948  -8909334.21545
                  21365363.5314                                   21365359.3914
                                                                        50.5004
        35.7504
  -1926910.14147  -1475300.84844
                  23438989.0084                                   23438982.4964
                                                                        44.7504
        26.2504
 -18492747.53148 -14332671.97346
                  22316482.6804                                   22316478.6914
                                                                        49.0004
        36.5004
   -185634.66447   -106747.05543
                  24284821.8054                                   24284816.2304
                                                                        42.0004
        19.0004
 09 10 19  0 12  0.0000000  0 10G02G04G05G10G25G13G23G29G16G07
  -9649461.09448  -7464540.80146
                  20702050.8984                                   20702045.6134
                                                                        52.7504
        41.7504
     27195.07047     39225.51645
                  22859036.3364                                   22859033.5824
                                                                        45.5004
        31.0004
 -20042408.05548 -15605391.93046
                  22191425.7274                                   22191422.2424
                                                                        50.0004
        39.0004
 -21974932.88348 -17038077.32846
                  21433400.3054                                   21433397.1024
                                                                        50.7504
        39.2504
 -11662514.09847  -9044499.34444
                  23110452.0314                                   23110448.0004
                                                                        44.2504
        27.2504
 -11575964.99248  -8958152.34446
                  21353441.3834                                   21353437.5124
                                                                        50.2504
        36.0004
  -1924319.29747  -1473282.05544
                  23439481.6484                                   23439475.7664
                                                                        43.5004
        24.5004
 -18623019.19548 -14434182.34046
                  22291692.7664                                   22291688.9064
                                                                        49.0004
        37.2504
   -338707.77346   -226024.80143
                  24255692.2274                                   24255687.3284
                                                                        41.7504
        19.7504
   1332681.35956   1083539.02053
                  24471573.9924                                   24471570.0784
                                                                        39.2504
        19.7504
 09 10 19  0 12 30.0000000  0 10G02G04G05G10G25G13G23G29G16G07
  -9701100.48448  -7504779.39147
                  20692224.4534                                   20692218.8364
                                                                        52.2504
        42.5004
     39318.63347     48672.42645
                  22861343.7504                                   22861340.6294
                                                                        45.7504
        31.7504
 -20219866.21948 -15743671.43446
                  22157657.2194                                   22157653.7504
                                                                        51.0004
        39.5004
 -22139382.37148 -17166219.87946
                  21402106.5474                                   21402103.1054
                                                                        51.2504
        38.7504
 -11809617.21947  -9159125.18744
                  23082459.0864                                   23082456.1414
                                                                        44.5004
        27.7504
 -11637964.11748  -9006463.25045
                  21341643.7114                                   21341639.7074
                                                                        50.2504
        35.7504
  -1921366.18747  -1470980.93744
                  23440043.5474                                   23440037.6024
                                                                        43.5004
        25.5004
 -18752720.82448 -14535248.52746
                  22267011.1724                                   22267007.6454
                                                                        49.5004
        36.5004
   -491290.85947   -344920.80543
                  24226656.7664                                   24226652.3674
                                                                        42.0004
        20.0004
   1144400.71146    936826.73043
                  24435745.6414                                   24435742.2734
                                                                        40.5004
        21.5004
 09 10 19  0 13  0.0000000  0 10G02G04G05G10G25G13G23G29G16G07
  -9752172.86748  -7544575.98047
                  20682505.6254                                   20682499.5234
                                                                        52.2504
        42.0004
     51711.09047     58328.91445
                  22863701.7504                                   22863698.3524
                                                                        45.5004
        30.7504
 -20396978.67648 -15881680.74246
                  22123953.3054                                   22123950.0904
                                                                        50.0004
        38.5004
 -22303383.05148 -17294012.58646
                  21370898.3984                                   21370894.5664
                                                                        50.7504
        39.2504
 -11956233.17247  -9273371.39144
                  23054559.7504                                   23054556.3914
                                                                        44.7504
        28.5004
 -11699316.96948  -9054270.67645
                  21329968.6724                                   21329963.9224
                                                                        50.2504
        35.7504
  -1918056.05947  -1468401.54344
                  23440673.6954                                   23440667.6564
                                                                        43.7504
        25.0004
 -18881854.23448 -14635871.96146
                  22242437.7194                                   22242434.0824
                                                                        48.7504
        37.5004
   -643384.71147   -463435.50443
                  24197714.3204                                   24197709.8954
                                                                        42.5004
        21.5004
    956374.69946    790312.97343
                  24399964.9614                                   24399962.0164
                                                                        41.5004
        22.7504
 09 10 19  0 13 30.0000000  0 10G02G04G05G10G25G13G23G29G16G07
  -9802681.08248  -7583933.09447
                  20672894.3204                                   20672888.5984
                                                                        52.5004
        42.0004
     64369.15247     68192.41445
                  22866110.4774                                   22866107.4024
                                                                        46.2504
        32.0004
 -20573746.50048 -16019421.64546
                  22090315.4304                                   22090311.7034
                                                                        50.0004
        39.0004
 -22466933.52348 -17421454.06246
                  21339775.6884                                   21339772.0394
                                                                        51.2504
        39.0004
 -12102361.01647  -9387237.15244
                  23026752.3984                                   23026749.0554
                                                                        44.5004
        27.5004
 -11760025.55148  -9101576.01645
                  21318416.4454                                   21318411.8484
                                                                        49.7504
        35.7504
  -1914393.21547  -1465547.31644
                  23441370.8444                                   23441364.3014
                                                                        43.7504
        25.2504
 -19010418.96948 -14736052.27746
                  22217972.8054                                   22217969.5744
                                                                        49.5004
        37.2504
   -794988.46946   -581568.29743
                  24168865.0164                                   24168860.8524
                                                                        41.7504
        22.7504
    768604.96147    643999.17643
                  24364233.9844                                   24364230.0164
                                                                        42.2504
        22.7504
 09 10 19  0 14  0.0000000  0 10G02G04G05G10G25G13G23G29G16G07
  -9852626.57048  -7622851.51247
                  20663390.0084                                   20663383.9654
                                                                        52.5004
        42.0004
     77288.61747     78259.30545
                  22868569.4384                                   22868566.3244
                                                                        46.7504
        31.5004
 -20750169.24248 -16156893.86346
                  22056743.3054                                   22056739.4494
                                                                        49.5004
        39.0004
 -22630034.98448 -17548545.96546
                  21308738.2974                                   21308734.5434
                                                                        51.0004
        39.0004
 -12248000.33247  -9500722.35944
                  22999037.9454                                   22999033.9964
                                                                        45.2504
        28.7504
 -11820092.55948  -9148381.41045
                  21306985.6884                                   21306981.3834
                                                                        49.7504
        35.7504
  -1910381.39847  -1462421.21144
                  23442134.4774                                   23442127.7934
                                                                        43.7504
        25.0004
 -19138415.14848 -14835789.57446
                  22193615.8524                                   22193612.5704
                                                                        49.0004
        37.2504
   -946101.00446   -699318.33243
                  24140109.2274                                   24140105.3954
                                                                        41.0004
        22.7504
    581092.38347    497885.48044
                  24328551.8134                                   24328547.6604
                                                                        42.5004
        26.0004
 09 10 19  0 14 30.0000000  0 10G02G04G05G10G25G13G23G29G16G07
  -9902004.57048  -7661327.80547
                  20653993.3984                                   20653988.0784
                                                                        52.0004
        42.0004
     90474.55947     88534.09045
                  22871078.5944                                   22871075.6644
                                                                        46.2504
        32.2504
 -20926238.03948 -16294090.27346
                  22023238.1644                                   22023234.5204
                                                                        49.7504
        38.7504
 -22792678.84448 -17675281.35546
                  21277788.2274                                   21277784.6024
                                                                        51.2504
        39.0004
 -12393142.69147  -9613820.26244
                  22971418.3914                                   22971414.3754
                                                                        45.0004
        28.0004
 -11879513.27048  -9194683.21545
                  21295677.9614                                   21295673.6024
                                                                        49.7504
        35.5004
  -1906017.11747  -1459020.43744
                  23442964.8284                                   23442958.5314
                                                                        44.5004
        26.7504
 -19265835.22348 -14935077.91046
                  22169368.7894                                   22169365.5164
                                                                        49.7504
        37.7504
  -1096714.25446   -816679.33243
                  24111448.5084                                   24111444.2974
                                                                        40.7504
        22.7504
    393846.93847    351979.87144
                  24292919.9774                                   24292916.2034
                                                                        43.0004
        26.5004
 09 10 19  0 15  0.0000000  0 10G02G04G05G10G25G13G23G29G16G07
  -9950811.87148  -7699359.35946
                  20644705.5704                                   20644699.8364
                                                                        52.2504
        41.7504
    103928.80147     99018.08245
                  22873638.6414                                   22873635.6844
                                                                        46.5004
        32.0004
 -21101947.20348 -16431006.45746
                  21989802.2664                                   21989797.8484
                                                                        49.2504
        38.7504
 -22954858.73048 -17801655.25046
                  21246926.4844                                   21246922.5784
                                                                        51.5004
        39.2504
 -12537782.27047  -9726526.33644
                  22943894.2974                                   22943890.5234
                                                                        44.0004
        28.0004
 -11938284.60948  -9240479.00846
                  21284494.1884                                   21284489.7584
                                                                        48.7504
        36.0004
  -1901298.71947  -1455343.76244
                  23443862.0864                                   23443856.4064
                                                                        42.5004
        26.7504
 -19392672.89548 -15033912.43446
                  22145232.3364                                   22145228.8444
                                                                        50.0004
        37.5004
  -1246820.83646   -933645.54743
                  24082884.5314                                   24082880.0554
                                                                        41.0004
        22.7504
    206875.09847    206287.44544
                  24257340.7504                                   24257336.8404
                                                                        42.7504
        24.7504
 09 10 19  0 15 30.0000000  0 10G02G04G05G10G25G13G23G29G16G07
  -9999048.88348  -7736946.59846
                  20635526.3444                                   20635520.5084
                                                                        52.0004
        41.7504
    117649.32847    109709.42645
                  22876248.9774                                   22876246.6524
                                                                        44.5004
        30.0004
 -21277294.43748 -16567640.56246
                  21956434.3284                                   21956430.7504
                                                                        49.2504
        38.5004
 -23116572.89848 -17927666.26646
                  21216153.0314                                   21216149.2154
                                                                        51.5004
        39.5004
 -12681916.49647  -9838838.78144
                  22916466.7664                                   22916462.9144
                                                                        44.7504
        28.5004
 -11996407.44948  -9285769.51645
                  21273434.0474                                   21273429.5234
                                                                        49.0004
        35.7504
  -1896228.70347  -1451393.18444
                  23444826.6094                                   23444821.2774
                                                                        42.5004
        25.7504
 -19518927.37148 -15132292.52746
                  22121207.0234                                   22121203.2664
                                                                        50.5004
        37.5004
  -1396419.24246  -1050215.70344
                  24054416.9694                                   24054412.9224
                                                                        39.7504
        24.0004
     20180.94146     60811.44143
                  24221813.0944                                   24221809.7894
                                                                        40.0004
        22.5004
 09 10 19  0 16  0.0000000  0 10G02G04G05G10G25G13G23G29G16G07
 -10046716.73848  -7774090.35546
                  20626455.4534                                   20626449.4734
                                                                        52.0004
        41.7504
    131633.70747    120606.14545
                  22878910.5234                                   22878907.9064
                                                                        45.2504
        31.0004
 -21452278.16848 -16703991.56646
                  21923136.0084                                   21923132.0554
                                                                        49.2504
        39.5004
 -23277819.22748 -18053312.69946
                  21185468.6334                                   21185464.9654
                                                                        51.5004
        39.2504
 -12825543.52347  -9950755.96144
                  22889135.2584                                   22889131.2464
                                                                        45.0004
        28.0004
 -12053883.43448  -9330555.97745
                  21262496.5394                                   21262492.1454
                                                                        48.5004
        35.2504
  -1890809.47347  -1447170.44943
                  23445858.9064                                   23445851.8014
                                                                        43.0004
        22.7504
 -19644596.96148 -15230216.86746
                  22097292.5944                                   22097288.9884
                                                                        50.0004
        37.5004
  -1545507.43746  -1166388.32843
                  24026045.4774                                   24026042.2464
                                                                        39.2504
        21.5004
   -166232.95746    -84446.12943
                  24186339.4844                                   24186336.4414
                                                                        40.0004
        20.7504
 09 10 19  0 16 30.0000000  0 10G02G04G05G10G25G13G23G29G16G07
 -10093816.46948  -7810791.33246
                  20617492.7584                                   20617486.8134
                                                                        52.7504
        41.7504
    145880.47747    131707.57845
                  22881621.8524                                   22881618.7934
                                                                        46.2504
        30.7504
 -21626896.62948 -16840057.89546
                  21889907.4224                                   21889903.4574
                                                                        49.7504
        39.7504
 -23438596.53948 -18178593.74646
                  21154873.8594                                   21154869.9654
                                                                        51.2504
        39.2504
 -12968661.44947 -10062276.40244
                  22861900.6804                                   22861897.0554
                                                                        44.2504
        27.5004
 -12110713.71948  -9374839.35245
                  21251682.0234                                   21251677.6524
                                                                        48.0004
        35.5004
  -1885044.16847  -1442678.01643
                  23446955.7814                                   23446948.9494
                                                                        43.0004
        22.7504
 -19769680.62548 -15327684.68446
                  22073490.2194                                   22073486.6644
                                                                        49.5004
        37.0004
  -1694082.81246  -1282161.31243
                  23997772.6094                                   23997768.7774
                                                                        37.7504
        21.5004
   -352363.63347   -229483.05543
                  24150921.3594                                   24150916.8404
                                                                        42.0004
        22.5004
 09 10 19  0 17  0.0000000  0 10G02G04G05G10G25G13G23G29G16G07
 -10140349.20348  -7847050.48046
                  20608637.8914                                   20608632.2544
                                                                        52.2504
        41.7504
    160387.21547    143011.55945
                  22884382.3284                                   22884378.8364
                                                                        46.5004
        30.0004
 -21801147.70348 -16975837.97746
                  21856748.4144                                   21856744.9304
                                                                        49.5004
        39.5004
 -23598902.75848 -18303507.66046
                  21124368.4454                                   21124364.9494
                                                                        51.0004
        39.5004
 -13111268.48447 -10173398.80944
                  22834763.5944                                   22834760.0634
                                                                        42.7504
        27.0004
 -12166899.43748  -9418620.41045
                  21240990.0944                                   21240985.6764
                                                                        48.2504
        35.2504
  -1878934.96946  -1437917.53943
                  23448117.8834                                   23448111.5514
                                                                        40.5004
        22.5004
 -19894176.75448 -15424694.71146
                  22049799.2194                                   22049795.8984
                                                                        49.0004
        37.2504
  -1842143.44546  -1397533.19143
                  23969597.8444                                   23969593.6604
                                                                        38.5004
        20.7504
   -538208.03547   -374296.85243
                  24115555.4224                                   24115552.0354
                                                                        42.0004
        22.2504
 09 10 19  0 17 30.0000000  0 10G02G04G05G10G25G13G23G29G16G07
 -10186312.42648  -7882865.98046
                  20599891.1484                                   20599885.3834
                                                                        53.0004
        41.7504
    175155.08647    154519.04345
                  22887192.4384                                   22887189.5274
                                                                        45.7504
        30.2504
 -21975025.78948 -17111327.46146
                  21823661.0164                                   21823656.6374
                                                                        49.7504
        39.2504
 -23758732.25048 -18428050.12946
                  21093954.0554                                   21093950.1764
                                                                        51.2504
        39.0004
 -13253358.93747 -10284118.63344
                  22807724.8444                                   22807721.2734
                                                                        44.5004
        27.7504
 -12222438.68448  -9461897.71545
                  21230421.3524                                   21230417.0664
                                                                        49.0004
        34.7504
  -1872480.76647  -1432888.32844
                  23449346.2114                                   23449340.5004
                                                                        42.7504
        24.0004
 -20018079.55948 -15521242.39846
                  22026221.3204                                   22026217.7504
                                                                        49.5004
        37.2504
  -1989682.81246  -1512498.89143
                  23941523.0784                                   23941518.0634
                                                                        39.5004
        21.7504
   -723760.20747   -518882.87943
                  24080246.6024                                   24080242.2274
                                                                        42.0004
        22.7504
 09 10 19  0 18  0.0000000  0 10G02G04G05G10G25G13G23G29G16G07
  -8656293.45348  -6690643.39546
                  20891044.1804                                   20891038.1604
                                                                        52.5004
        41.5004
   1765594.41447   1393822.43445
                  23189843.1884                                   23189840.2814
                                                                        46.2504
        30.5004
 -20573111.67648 -16018926.96546
                  22090436.3834                                   22090432.6374
                                                                        50.0004
        39.5004
 -22342666.29748 -17324622.15646
                  21363422.3524                                   21363418.9694
                                                                        51.7504
        39.5004
 -11819513.99247  -9166836.89144
                  23080576.0084                                   23080572.1724
                                                                        44.0004
        27.5004
 -10701918.90648  -8277077.18745
                  21519766.8364                                   21519762.3834
                                                                        49.2504
        34.7504
   -290272.60547   -199998.86344
                  23750430.8674                                   23750424.7854
                                                                        44.0004
        25.5004
 -18565972.96948 -14389730.74646
                  22302548.0084                                   22302544.5984
                                                                        48.7504
        37.0004
   -561282.94146   -399460.05543
                  24213337.6884                                   24213333.3874
                                                                        41.5004
        21.5004
    666402.34447    564360.77043
                  24344785.6484                                   24344781.6764
                                                                        42.5004
        22.7504
 09 10 19  0 18 30.0000000  0 10G02G04G05G10G25G13G23G29G16G07
  -8701135.45748  -6725585.11746
                  20882510.7424                                   20882504.6954
                                                                        52.0004
        41.0004
   1780864.16847   1405721.03945
                  23192748.9454                                   23192745.9344
                                                                        46.5004
        30.5004
 -20746253.16848 -16153842.24246
                  22057488.2734                                   22057484.4574
                                                                        50.0004
        39.5004
 -22501552.86748 -17448429.97346
                  21333187.2584                                   21333183.4804
                                                                        52.0004
        39.5004
 -11960580.70047  -9276759.06144
                  23053731.8204                                   23053728.4454
                                                                        44.0004
        27.5004
 -10756183.84048  -8319361.57845
                  21509440.5634                                   21509436.1094
                                                                        48.7504
        35.2504
   -283151.91447   -194450.24644
                  23751785.5474                                   23751779.8204
                                                                        43.0004
        24.2504
 -18688702.32848 -14485363.98046
                  22279193.4304                                   22279190.2424
                                                                        49.2504
        37.2504
   -707789.74646   -513621.25843
                  24185459.1174                                   24185452.9924
                                                                        41.0004
        21.0004
    481430.10947    420226.66444
                  24309586.3754                                   24309582.4494
                                                                        42.0004
        25.7504
 09 10 19  0 19  0.0000000  0 10G02G04G05G10G25G13G23G29G16G07
  -8745416.45348  -6760089.71146
                  20874084.5084                                   20874078.4734
                                                                        53.2504
        41.2504
   1796383.86747   1417814.32445
                  23195701.9534                                   23195699.1254
                                                                        47.5004
        30.2504
 -20919021.68448 -16288466.87946
                  22024611.6414                                   22024607.6174
                                                                        50.0004
        39.5004
 -22659962.93748 -17571866.37546
                  21303042.9384                                   21303039.3014
                                                                        51.5004
        40.2504
 -12101130.73047  -9386278.89544
                  23026986.4614                                   23026982.8444
                                                                        42.5004
        27.2504
 -10809811.88348  -8361149.85945
                  21499235.6414                                   21499231.1254
                                                                        48.2504
        35.5004
   -275699.60947   -188643.21143
                  23753203.5474                                   23753197.7624
                                                                        42.2504
        23.0004
 -18810841.15648 -14580537.12946
                  22255951.2114                                   22255947.5554
                                                                        48.5004
        37.0004
   -853775.28146   -627376.24643
                  24157678.6484                                   24157673.3054
                                                                        40.2504
        21.5004
    296754.59046    276323.79744
                  24274443.5634                                   24274440.1054
                                                                        40.5004
        26.0004
 09 10 19  0 19 30.0000000  0 10G02G04G05G10G25G13G23G29G16G07
  -8789140.49648  -6794160.44146
                  20865764.1254                                   20865757.7894
                                                                        52.7504
        41.0004
   1812147.93447   1430097.93845
                  23198701.9844                                   23198698.7154
                                                                        46.2504
        30.5004
 -21091417.77348 -16422801.33646
                  21991805.3674                                   21991801.5864
                                                                        50.5004
        39.7504
 -22817897.48048 -17694932.13746
                  21272988.8364                                   21272985.3834
                                                                        51.5004
        39.0004
 -12241165.22347  -9495396.98044
                  23000339.5554                                   23000336.2624
                                                                        43.2504
        28.2504
 -10862807.05148  -8402444.85245
                  21489151.1884                                   21489146.3014
                                                                        49.5004
        35.7504
   -267921.62147   -182582.39844
                  23754683.7194                                   23754677.5234
                                                                        43.2504
        24.5004
 -18932390.60948 -14675251.32046
                  22232821.3524                                   22232817.8204
                                                                        48.5004
        37.7504
   -999239.60946   -740725.08643
                  24129997.2424                                   24129992.3284
                                                                        40.5004
        20.7504
    112374.95746    132651.41444
                  24239356.8284                                   24239353.0824
                                                                        40.5004
        25.7504
 09 10 19  0 20  0.0000000  0 10G02G04G05G10G25G13G23G29G16G07
  -8832308.31648  -6827797.89846
                  20857549.5474                                   20857543.8324
                                                                        52.0004
        41.5004
   1828155.35547   1442571.25045
                  23201747.9454                                   23201745.2504
                                                                        45.0004
        30.0004
 -21263439.73448 -16556844.41846
                  21959070.8674                                   21959066.8674
                                                                        50.0004
        39.5004
 -22975354.34448 -17817625.73846
                  21243026.0784                                   21243022.4414
                                                                        51.0004
        39.7504
 -12380680.48447  -9604109.95744
                  22973789.7584                                   22973786.2304
                                                                        44.0004
        29.0004
 -10915170.48848  -8443247.55945
                  21479186.6024                                   21479182.2464
                                                                        49.7504
        34.7504
   -259819.66047   -176269.14844
                  23756225.4224                                   23756219.9184
                                                                        43.0004
        24.7504
 -19053348.62548 -14769504.41846
                  22209804.0314                                   22209800.5354
                                                                        50.0004
        38.2504
  -1144180.59846   -853666.10543
                  24102416.3134                                   24102411.2704
                                                                        41.2504
        22.5004
    -71705.19146    -10787.71143
                  24204327.7664                                   24204324.4774
                                                                        40.7504
        23.0004
 09 10 19  0 20 30.0000000  0 10G02G04G05G10G25G13G23G29G16G07
  -8874920.33648  -6861002.42646
                  20849441.0234                                   20849435.1094
                                                                        52.0004
        41.0004
   1844404.60947   1455233.05144
                  23204840.0864                                   23204836.8014
                                                                        45.0004
        28.7504
 -21435085.15648 -16690594.03946
                  21926407.9844                                   21926404.1374
                                                                        50.5004
        40.0004
 -23132332.36748 -17939946.29346
                  21213154.2194                                   21213150.3834
                                                                        51.0004
        40.0004
 -12519674.90247  -9712417.02344
                  22947340.2584                                   22947336.3674
                                                                        43.2504
        28.7504
 -10966903.18748  -8483558.91045
                  21469342.4844                                   21469338.0124
                                                                        50.2504
        35.0004
   -251395.78547   -169705.07444
                  23757828.7274                                   23757822.6994
                                                                        43.0004
        26.5004
 -19173713.82448 -14863295.25846
                  22186899.2504                                   22186895.3954
                                                                        49.7504
        37.7504
  -1288595.67246   -966197.32043
                  24074934.4454                                   24074930.0664
                                                                        40.0004
        21.5004
   -255481.09046   -153989.67243
                  24169356.5164                                   24169352.8524
                                                                        41.0004
        22.7504
 09 10 19  0 21  0.0000000  0 10G02G04G05G10G25G13G23G29G16G07
  -8916977.75048  -6893774.72346
                  20841438.0634                                   20841432.2774
                                                                        52.0004
        41.0004
   1860892.85547   1468080.90244
                  23207978.0784                                   23207974.5664
                                                                        46.0004
        28.5004
 -21606351.82448 -16824048.62546
                  21893816.3594                                   21893812.7074
                                                                        50.2504
        40.0004
 -23288829.05948 -18061891.77746
                  21183373.3984                                   21183370.3554
                                                                        50.5004
        40.5004
 -12658147.87147  -9820318.04744
                  22920989.7734                                   22920986.0434
                                                                        44.5004
        28.5004
 -11018007.07848  -8523380.52745
                  21459617.8054                                   21459613.9104
                                                                        49.5004
        35.0004
   -242653.02347   -162892.48843
                  23759491.5554                                   23759485.6724
                                                                        42.7504
        22.5004
 -19293484.72748 -14956623.09446
                  22164107.1484                                   22164103.3404
                                                                        50.0004
        38.0004
  -1432482.52746  -1078316.92643
                  24047553.8834                                   24047549.5594
                                                                        40.0004
        22.0004
   -438951.30546   -296953.36744
                  24134443.0004                                   24134438.9654
                                                                        41.2504
        24.0004
 09 10 19  0 21 30.0000000  0 10G02G04G05G10G25G13G23G29G16G07
  -8958482.15248  -6926115.98446
                  20833540.4064                                   20833534.7384
                                                                        51.5004
        41.2504
   1877617.94547   1481113.39544
                  23211161.0474                                   23211157.5204
                                                                        45.7504
        29.7504
 -21777239.00448 -16957207.47746
                  21861297.9304                                   21861294.0664
                                                                        50.0004
        39.5004
 -23444843.73448 -18183461.67246
                  21153685.1724                                   21153681.7344
                                                                        50.5004
        40.0004
 -12796097.95747  -9927811.87944
                  22894738.9454                                   22894734.7704
                                                                        44.0004
        28.7504
 -11068483.54748  -8562713.10545
                  21450012.6884                                   21450008.8594
                                                                        49.5004
        34.7504
   -233595.04346   -155834.27043
                  23761215.1884                                   23761209.5634
                                                                        41.2504
        21.5004
 -19412661.75448 -15049488.21546
                  22141428.5554                                   22141424.4344
                                                                        49.7504
        37.5004
  -1575840.73446  -1190024.59443
                  24020273.8754                                   24020269.1954
                                                                        39.5004
        22.5004
   -622112.79746   -439676.48444
                  24099588.7974                                   24099584.3714
                                                                        41.5004
        25.5004
 09 10 19  0 22  0.0000000  0 10G02G04G05G10G25G13G23G29G16G07
  -8999433.41448  -6958026.00846
                  20825747.2114                                   20825741.8284
                                                                        52.0004
        41.0004
   1894578.18047   1494329.02744
                  23214388.1414                                   23214384.7504
                                                                        45.0004
        28.5004
 -21947743.96148 -17090068.47746
                  21828852.0784                                   21828848.1484
                                                                        50.2504
        40.2504
 -23600373.70748 -18304653.94946
                  21124088.7974                                   21124084.7304
                                                                        50.5004
        39.7504
 -12933521.05547 -10034894.65644
                  22868588.5084                                   22868584.1564
                                                                        43.5004
        28.7504
 -11118332.72348  -8601556.40246
                  21440526.7894                                   21440522.7584
                                                                        49.0004
        36.0004
   -224222.74246   -148531.12143
                  23762999.0944                                   23762992.2854
                                                                        41.5004
        21.5004
 -19531241.83648 -15141888.26246
                  22118863.5634                                   22118859.7274
                                                                        49.7504
        38.0004
  -1718666.12146  -1301317.10243
                  23993095.0784                                   23993090.8054
                                                                        39.2504
        22.2504
   -804961.91846   -582156.27344
                  24064793.9774                                   24064789.5704
                                                                        40.5004
        25.0004
 09 10 19  0 22 30.0000000  0 10G02G04G05G10G25G13G23G29G16G07
  -9039830.54748  -6989504.25846
                  20818060.1334                                   20818054.4224
                                                                        52.5004
        41.5004
   1911773.27047   1507727.12545
                  23217660.7424                                   23217658.0664
                                                                        45.0004
        30.2504
 -22117862.11748 -17222628.10246
                  21796479.6254                                   21796475.6804
                                                                        49.2504
        40.7504
 -23755414.57848 -18425465.17246
                  21094585.4224                                   21094581.9024
                                                                        51.5004
        40.0004
 -13070413.73047 -10141564.10244
                  22842538.6254                                   22842533.7774
                                                                        43.0004
        28.5004
 -11167554.07848  -8639910.35945
                  21431159.9534                                   21431155.9614
                                                                        48.7504
        35.0004
   -214536.82847   -140983.62143
                  23764842.6954                                   23764835.9774
                                                                        44.0004
        23.0004
 -19649222.68448 -15233821.58246
                  22096412.8524                                   22096409.2774
                                                                        49.7504
        38.0004
  -1860955.12946  -1412191.61743
                  23966018.6724                                   23966014.2894
                                                                        38.5004
        22.5004
   -987493.03947   -724388.28144
                  24030058.9924                                   24030054.6884
                                                                        42.0004
        24.2504
 09 10 19  0 23  0.0000000  0 10G02G04G05G10G25G13G23G29G16G07
  -9079675.33648  -7020552.03146
                  20810477.9844                                   20810471.9384
                                                                        52.7504
        41.5004
   1929202.95347   1521308.76645
                  23220977.2734                                   23220974.8594
                                                                        45.0004
        30.0004
 -22287592.68748 -17354885.82446
                  21764180.8594                                   21764177.0744
                                                                        50.0004
        40.0004
 -23909965.39148 -18545894.40646
                  21065175.2344                                   21065171.7154
                                                                        50.5004
        39.5004
 -13206775.61747 -10247820.13744
                  22816588.9454                                   22816585.5634
                                                                        43.5004
        28.7504
 -11216150.83648  -8677777.70745
                  21421911.9454                                   21421907.8914
                                                                        48.2504
        35.2504
   -204540.77347   -133194.44944
                  23766744.9454                                   23766738.1844
                                                                        44.2504
        25.0004
 -19766603.27748 -15325287.36746
                  22074076.3914                                   22074072.4574
                                                                        49.2504
        37.5004
  -2002706.19146  -1522646.96543
                  23939044.5704                                   23939039.8164
                                                                        40.7504
        23.5004
  -1169704.02046   -866370.81643
                  23995385.1414                                   23995381.4454
                                                                        39.0004
        22.5004
 09 10 19  0 23 30.0000000  0 10G02G04G05G10G25G13G23G29G16G07
  -9118972.06248  -7051172.68746
                  20802999.6254                                   20802994.0314
                                                                        52.5004
        41.0004
   1946860.98847   1535068.44945
                  23224337.8834                                   23224335.1524
                                                                        45.2504
        30.5004
 -22456935.93048 -17486841.69146
                  21731955.9694                                   21731952.4734
                                                                        50.2504
        40.0004
 -24064026.99248 -18665942.33246
                  21035858.5234                                   21035854.9774
                                                                        51.2504
        39.7504
 -13342607.21147 -10353663.01244
                  22790741.5944                                   22790737.6024
                                                                        44.5004
        28.5004
 -11264126.61348  -8715161.33245
                  21412782.6174                                   21412778.3284
                                                                        48.7504
        34.2504
   -194239.28547   -125167.31244
                  23768705.3204                                   23768698.6414
                                                                        44.0004
        24.2504
 -19883383.75448 -15416285.18746
                  22051853.7814                                   22051850.2074
                                                                        50.0004
        38.0004
  -2143919.52046  -1632683.33643
                  23912171.7274                                   23912167.5704
                                                                        40.7504
        22.7504
  -1351595.07046  -1008104.10544
                  23960772.5944                                   23960768.8954
                                                                        40.0004
        25.2504
 09 10 19  0 24  0.0000000  0 10G02G04G05G10G25G13G23G29G16G07
  -9157721.71548  -7081367.14846
                  20795626.0784                                   20795620.2664
                                                                        52.5004
        41.5004
   1964745.37947   1549004.45744
                  23227740.5394                                   23227737.2344
                                                                        44.5004
        29.7504
 -22625889.91848 -17618494.22746
                  21699805.3134                                   21699801.5634
                                                                        50.5004
        40.0004
 -24217597.96948 -18785607.94546
                  21006634.9614                                   21006631.2304
                                                                        50.0004
        39.7504
 -13477905.93447 -10459090.43444
                  22764994.7584                                   22764991.3404
                                                                        43.0004
        28.7504
 -11311483.02348  -8752062.36745
                  21403770.6024                                   21403766.3404
                                                                        49.0004
        34.5004
   -183634.85946   -116904.10943
                  23770722.4454                                   23770716.6524
                                                                        40.7504
        21.7504
 -19999564.31648 -15506815.49246
                  22029745.5084                                   22029741.7234
                                                                        50.7504
        38.0004
  -2284593.43046  -1742299.35543
                  23885402.4144                                   23885397.9734
                                                                        40.7504
        22.5004
  -1533162.07846  -1149584.77344
                  23926221.1094                                   23926217.5314
                                                                        40.2504
        26.2504
 09 10 19  0 24 30.0000000  0 10G02G04G05G10G25G13G23G29G16G07
  -9195927.50048  -7111137.84046
                  20788355.6174                                   20788349.9184
                                                                        52.7504
        41.5004
   1982851.77347   1563113.39144
                  23231185.6804                                   23231183.0164
                                                                        44.5004
        29.0004
 -22794455.29748 -17749843.85246
                  21667728.4144                                   21667724.4104
                                                                        49.7504
        40.5004
 -24370678.69548 -18904891.65246
                  20977504.7344                                   20977501.2464
                                                                        52.0004
        40.2504
 -13612673.12147 -10564103.75844
                  22739349.7734                                   22739345.8984
                                                                        44.2504
        28.0004
 -11358224.14848  -8788484.05545
                  21394876.0004                                   21394872.0474
                                                                        48.0004
        34.5004
   -172732.71946   -108409.00443
                  23772796.4844                                   23772791.0664
                                                                        39.5004
        21.5004
 -20115146.08248 -15596879.25046
                  22007750.8364                                   22007747.0944
                                                                        50.5004
        38.0004
  -2424728.39846  -1851495.40643
                  23858736.3754                                   23858731.5514
                                                                        41.5004
        22.5004
  -1714404.90646  -1290812.89144
                  23891732.0634                                   23891729.0394
                                                                        40.2504
        26.7504
 09 10 19  0 25  0.0000000  0 10G02G04G05G10G25G13G23G29G16G07
  -9233591.46148  -7140486.27046
                  20781188.1334                                   20781182.4924
                                                                        52.5004
        41.2504
   2001177.90247   1577393.55144
                  23234673.4534                                   23234670.1564
                                                                        45.7504
        28.2504
 -22962630.59048 -17880889.48046
                  21635725.5474                                   21635721.4494
                                                                        50.5004
        40.2504
 -24523268.08648 -19023792.50046
                  20948467.9224                                   20948464.1954
                                                                        51.5004
        40.0004
 -13746906.93447 -10668701.32444
                  22713804.9844                                   22713801.5474
                                                                        43.2504
        28.5004
 -11404351.54748  -8824427.48045
                  21386098.3524                                   21386094.4574
                                                                        48.2504
        34.0004
   -161535.77747    -99684.09044
                  23774928.3364                                   23774921.9694
                                                                        43.5004
        24.5004
 -20230127.77048 -15686475.22346
                  21985870.1724                                   21985866.8054
                                                                        50.0004
        38.2504
  -2564322.47747  -1960269.99643
                  23832172.1174                                   23832167.4574
                                                                        42.7504
        22.5004
  -1895320.93447  -1431786.40644
                  23857304.8674                                   23857301.6024
                                                                        43.0004
        26.7504
 09 10 19  0 25 30.0000000  0 10G02G04G05G10G25G13G23G29G16G07
  -9270714.02348  -7169412.80946
                  20774124.0164                                   20774117.9804
                                                                        52.5004
        40.7504
   2019722.18047   1591843.71144
                  23238202.7344                                   23238199.0784
                                                                        45.2504
        29.2504
 -23130413.34048 -18011629.34846
                  21603798.1334                                   21603793.5004
                                                                        48.7504
        40.0004
 -24675363.38348 -19142308.29346
                  20919524.9534                                   20919521.6294
                                                                        51.5004
        39.5004
 -13880605.57847 -10772882.03944
                  22688363.0474                                   22688359.5634
                                                                        43.5004
        29.2504
 -11449866.93747  -8859894.20345
                  21377437.5864                                   21377433.3634
                                                                        46.7504
        33.7504
   -150046.04747    -90731.03544
                  23777114.4844                                   23777109.0394
                                                                        42.7504
        25.2504
 -20344507.55148 -15775602.13746
                  21964104.6484                                   21964101.1884
                                                                        50.7504
        38.0004
  -2703373.50447  -2068621.46143
                  23805711.8914                                   23805706.7424
                                                                        42.5004
        22.5004
  -2075906.49647  -1572502.37144
                  23822941.0554                                   23822936.8834
                                                                        43.2504
        26.7504
 09 10 19  0 26  0.0000000  0 10G02G04G05G10G25G13G23G29G16G07
  -9307292.97348  -7197915.91046
                  20767163.1884                                   20767157.2704
                                                                        52.2504
        41.2504
   2038486.05947   1606464.92244
                  23241772.2974                                   23241769.4064
                                                                        45.0004
        28.0004
 -23297798.44548 -18142059.31246
                  21571945.0634                                   21571941.1054
                                                                        49.7504
        40.5004
 -24826960.18748 -19260435.60246
                  20890677.3914                                   20890673.6214
                                                                        51.5004
        40.0004
 -14013763.73447 -10876641.60944
                  22663024.6724                                   22663020.4144
                                                                        44.5004
        29.0004
 -11494767.22747  -8894881.42245
                  21368892.9454                                   21368888.9654
                                                                        47.0004
        34.7504
   -138262.39547    -81548.96144
                  23779357.5234                                   23779351.0984
                                                                        43.2504
        26.0004
 -20458282.20348 -15864257.68046
                  21942453.8754                                   21942450.7074
                                                                        50.5004
        37.5004
  -2841875.97747  -2176545.49643
                  23779355.7344                                   23779350.5784
                                                                        43.0004
        22.0004
  -2256154.94147  -1712955.66044
                  23788640.2974                                   23788636.6214
                                                                        43.5004
        27.5004
 09 10 19  0 26 30.0000000  0 10G02G04G05G10G25G13G23G29G16G07
  -9343332.52048  -7225998.66846
                  20760305.1724                                   20760299.3014
                                                                        52.5004
        40.7504
   2057464.35247   1621253.16044
                  23245384.2894                                   23245381.3364
                                                                        44.5004
        28.5004
 -23464786.42248 -18272179.77746
                  21540168.4064                                   21540164.7194
                                                                        50.5004
        40.0004
 -24978059.29348 -19378175.13346
                  20861923.9534                                   20861920.3444
                                                                        52.0004
        41.0004
 -14146382.84447 -10979981.21944
                  22637787.6174                                   22637784.1884
                                                                        45.2504
        29.0004
 -11539057.49647  -8929393.16445
                  21360464.7194                                   21360460.5474
                                                                        47.5004
        34.5004
   -126190.46147    -72142.25443
                  23781654.1804                                   23781647.6954
                                                                        43.2504
        22.7504
 -20571452.31248 -15952442.15646
                  21920918.2504                                   21920914.9884
                                                                        50.2504
        38.2504
  -2979830.47347  -2284042.50043
                  23753104.5164                                   23753098.1724
                                                                        42.7504
        22.5004
  -2436066.72747  -1853146.64544
                  23754404.6414                                   23754400.2464
                                                                        44.0004
        26.5004
 09 10 19  0 27  0.0000000  0 10G02G04G05G10G25G13G23G29G16G07
  -7803411.67648  -6026060.35246
                  21053342.3754                                   21053336.3914
                                                                        52.5004
        41.0004
   3652075.80947   2863807.54344
                  23548828.8594                                   23548825.7894
                                                                        46.2504
        29.0004
 -22055949.40248 -17174384.64546
                  21808261.5004                                   21808257.4924
                                                                        50.2504
        40.2504
 -23553233.43448 -18267921.14846
                  21133058.9924                                   21133055.9344
                                                                        50.5004
        40.5004
 -12703035.41047  -9855294.95744
                  22912447.6094                                   22912443.9104
                                                                        45.0004
        28.0004
 -10007317.37147  -7735829.39145
                  21651945.2734                                   21651940.7854
                                                                        47.7504
        34.2504
   1461588.05547   1165087.83243
                  24083798.3134                                   24083791.6254
                                                                        42.5004
        22.5004
 -19108592.84448 -14812551.62146
                  22199291.0634                                   22199287.9384
                                                                        50.0004
        38.5004
  -1541810.00047  -1163507.10543
                  24026749.4144                                   24026745.0744
                                                                        43.0004
        22.5004
  -1040211.36346   -765467.09044
                  24020026.9534                                   24020022.6844
                                                                        41.5004
        26.5004
 09 10 19  0 27 30.0000000  0 10G02G04G05G10G25G13G23G29G16G07
  -7838372.69948  -6053302.55546
                  21046689.2034                                   21046683.2584
                                                                        52.2504
        40.7504
   3671480.25447   2878927.98045
                  23552521.2584                                   23552518.2734
                                                                        46.0004
        30.2504
 -22222135.22348 -17303879.95346
                  21776637.2114                                   21776633.4614
                                                                        50.5004
        40.0004
 -23703329.38748 -18384878.98846
                  21104496.9774                                   21104493.4224
                                                                        52.0004
        41.2504
 -12834567.90647  -9957787.79344
                  22887418.0864                                   22887413.6604
                                                                        45.2504
        29.5004
 -10050390.43447  -7769392.79745
                  21643748.6884                                   21643744.3984
                                                                        47.7504
        34.2504
   1474231.80947   1174940.14143
                  24086204.1564                                   24086198.0044
                                                                        42.0004
        20.7504
 -19220549.05948 -14899790.23046
                  22177986.1484                                   22177983.1054
                                                                        50.2504
        37.2504
  -1678660.64147  -1270144.00443
                  24000708.0084                                   24000703.1174
                                                                        42.5004
        22.0004
  -1219437.13747   -905123.48043
                  23985921.1094                                   23985917.1094
                                                                        42.2504
        22.7504
 09 10 19  0 28  0.0000000  0 10G02G04G05G10G25G13G23G29G16G07
  -7872797.06248  -6080126.68746
                  21040138.5864                                   21040132.8914
                                                                        53.0004
        41.0004
   3691095.00447   2894212.21945
                  23556253.7194                                   23556251.5744
                                                                        45.0004
        30.0004
 -22387917.94948 -17433061.30546
                  21745089.6024                                   21745086.1764
                                                                        51.0004
        40.7504
 -23852922.07048 -18501444.69546
                  21076030.3524                                   21076026.6844
                                                                        52.5004
        41.2504
 -12965554.58247 -10059855.20345
                  22862491.7664                                   22862487.9614
                                                                        45.5004
        30.2504
 -10092857.56248  -7802484.05145
                  21635667.3134                                   21635662.8204
                                                                        48.5004
        34.2504
   1487157.19546   1185011.93443
                  24088663.3834                                   24088657.7304
                                                                        39.7504
        19.5004
 -19331897.61748 -14986555.34046
                  22156797.7194                                   22156794.2734
                                                                        50.5004
        37.7504
  -1814957.09447  -1376349.04743
                  23974771.0164                                   23974766.5944
                                                                        42.0004
        21.5004
  -1398315.50047  -1044509.14544
                  23951881.8134                                   23951877.5554
                                                                        42.2504
        24.5004
 09 10 19  0 28 30.0000000  0 10G02G04G05G10G25G13G23G29G16G07
  -7906686.08248  -6106533.70746
                  21033689.3914                                   21033683.4494
                                                                        52.0004
        41.0004
   3710917.03947   2909657.98844
                  23560025.6884                                   23560023.0164
                                                                        45.5004
        28.5004
 -22553295.31248 -17561926.75846
                  21713619.4774                                   21713615.3674
                                                                        50.2504
        40.2504
 -24002009.79348 -18617616.93046
                  21047659.8754                                   21047656.2584
                                                                        52.0004
        40.5004
 -13095994.41047 -10161496.59845
                  22837669.8284                                   22837665.9414
                                                                        46.0004
        30.0004
 -10134720.17248  -7835104.22745
                  21627701.0164                                   21627696.9184
                                                                        48.2504
        34.5004
   1500362.22346   1195301.60243
                  24091176.4064                                   24091170.2854
                                                                        39.2504
        20.0004
 -19442636.31648 -15072845.17246
                  22135724.9454                                   22135721.4024
                                                                        50.0004
        38.5004
  -1950696.82846  -1482120.22743
                  23948939.9774                                   23948936.5354
                                                                        41.0004
        21.2504
  -1576843.64847  -1183621.93044
                  23917909.2504                                   23917904.9844
                                                                        43.5004
        26.0004
 09 10 19  0 29  0.0000000  0 10G02G04G05G10G25G13G23G29G16G07
  -7940040.45348  -6132524.10946
                  21027342.5474                                   21027336.5204
                                                                        52.5004
        41.0004
   3730945.10547   2925264.30544
                  23563837.2424                                   23563833.6994
                                                                        45.5004
        26.7504
 -22718265.18748 -17690474.62946
                  21682226.4304                                   21682222.9454
                                                                        51.0004
        40.0004
 -24150590.97348 -18733394.44146
                  21019385.8054                                   21019382.3834
                                                                        52.2504
        40.5004
 -13225885.61747 -10262710.46944
                  22812952.2424                                   22812948.6054
                                                                        45.0004
        29.2504
 -10175980.62148  -7867255.25045
                  21619849.5944                                   21619845.5554
                                                                        48.2504
        34.2504
   1513843.58246   1205806.55543
                  24093741.9844                                   24093735.8164
                                                                        41.2504
        23.2504
 -19552765.49648 -15158660.09446
                  22114767.8984                                   22114764.3634
                                                                        50.2504
        38.0004
  -2085878.79346  -1587456.80143
                  23923216.5234                                   23923212.4064
                                                                        41.0004
        22.7504
  -1755018.66447  -1322459.61344
                  23884003.7114                                   23883999.1954
                                                                        44.5004
        27.0004
 09 10 19  0 29 30.0000000  0 10G02G04G05G10G25G13G23G29G16G07
  -7972864.50848  -6158101.30146
                  21021096.2034                                   21021090.5004
                                                                        53.0004
        41.0004
   3751174.66847   2941027.67644
                  23567686.2194                                   23567682.8324
                                                                        44.7504
        26.0004
 -22882828.67248 -17818705.85946
                  21650911.1094                                   21650907.2854
                                                                        51.0004
        40.5004
 -24298666.58248 -18848778.18046
                  20991207.8914                                   20991204.4064
                                                                        52.0004
        40.2504
 -13355229.09047 -10363497.59044
                  22788339.3284                                   22788335.1994
                                                                        45.0004
        28.5004
 -10216642.70748  -7898940.02345
                  21612112.0554                                   21612107.4344
                                                                        48.2504
        34.0004
   1527596.92247   1216523.49244
                  24096359.4454                                   24096353.5124
                                                                        42.2504
        26.5004
 -19662285.84848 -15244000.59846
                  22093926.7114                                   22093923.3914
                                                                        49.7504
        38.0004
  -2220503.10946  -1692358.81243
                  23897598.8754                                   23897594.6684
                                                                        40.7504
        22.7504
  -1932840.01247  -1461021.71544
                  23850164.7274                                   23850161.2274
                                                                        44.5004
        27.2504
 09 10 19  0 30  0.0000000  0 10G02G04G05G10G25G13G23G29G16G07
  -8005158.21948  -6183265.28546
                  21014951.0704                                   21014945.1174
                                                                        52.5004
        40.5004
   3771604.41847   2956946.99244
                  23571574.2034                                   23571570.8554
                                                                        45.0004
        27.0004
 -23046983.19948 -17946618.61746
                  21619673.8134                                   21619670.1294
                                                                        51.0004
        40.5004
 -24446233.74648 -18963765.84846
                  20963127.1884                                   20963123.5784
                                                                        51.7504
        40.2504
 -13484022.32447 -10463855.98044
                  22763830.7664                                   22763826.6724
                                                                        45.7504
        29.2504
 -10256707.16448  -7930159.08245
                  21604488.0084                                   21604483.8134
                                                                        48.5004
        34.0004
   1541620.18847   1227450.74644
                  24099027.6254                                   24099021.9774
                                                                        42.7504
        26.0004
 -19771195.62948 -15328865.34846
                  22073202.0944                                   22073198.4494
                                                                        49.7504
        38.5004
  -2354567.08047  -1796824.20443
                  23872087.6334                                   23872082.8404
                                                                        42.0004
        22.5004
  -2110303.57847  -1599305.02744
                  23816394.8594                                   23816391.3134
                                                                        44.7504
        28.7504
 09 10 19  0 30 30.0000000  0 10G02G04G05G10G25G13G23G29G16G07
  -8036927.34448  -6208020.44946
                  21008905.6724                                   21008899.9224
                                                                        52.2504
        40.7504
   3792228.16847   2973017.42244
                  23575498.8134                                   23575495.7704
                                                                        45.2504
        29.0004
 -23210730.78148 -18074214.26246
                  21588513.4924                                   21588509.7274
                                                                        51.2504
        40.7504
 -24593294.74648 -19078358.99646
                  20935142.3984                                   20935139.0984
                                                                        51.5004
        41.0004
 -13612267.61347 -10563787.31244
                  22739426.0394                                   22739422.4344
                                                                        45.5004
        28.7504
 -10296179.94148  -7960917.11345
                  21596976.6334                                   21596972.6214
                                                                        48.5004
        34.0004
   1555907.01247   1238583.37144
                  24101746.9534                                   24101740.3484
                                                                        43.2504
        27.5004
 -19879498.12948 -15413256.87546
                  22052592.6094                                   22052588.8874
                                                                        49.2504
        38.2504
  -2488073.14547  -1900854.91043
                  23846681.7424                                   23846677.3674
                                                                        42.0004
        22.5004
  -2287410.95747  -1737310.82844
                  23782692.8444                                   23782688.7464
                                                                        43.7504
        27.0004
 09 10 19  0 31  0.0000000  0 10G02G04G05G10G25G13G23G29G16G07
  -8068169.78148  -6232365.19946
                  21002960.4694                                   21002954.4734
                                                                        52.0004
        40.7504
   3813047.53947   2989240.33644
                  23579460.7584                                   23579457.8284
                                                                        46.2504
        28.5004
 -23374066.20348 -18201488.73046
                  21557432.2194                                   21557428.3874
                                                                        51.5004
        41.0004
 -24739844.93048 -19192554.07446
                  20907255.0394                                   20907251.4804
                                                                        52.0004
        41.0004
 -13739960.33247 -10663288.08244
                  22715126.8054                                   22715123.5554
                                                                        45.0004
        28.5004
 -10335059.51248  -7991212.86745
                  21589578.1254                                   21589573.7934
                                                                        49.0004
        34.5004
   1570457.82846   1249921.71543
                  24104515.6644                                   24104509.4574
                                                                        41.5004
        22.5004
 -19987189.51648 -15497172.25446
                  22032100.0004                                   22032096.0314
                                                                        49.5004
        38.7504
  -2621016.20747  -2004446.85944
                  23821383.8134                                   23821379.5704
                                                                        42.7504
        24.7504
  -2464156.07047  -1875034.30544
                  23749058.7194                                   23749055.1884
                                                                        42.7504
        24.0004
 09 10 19  0 31 30.0000000  0 10G02G04G05G10G25G13G23G29G16G07
  -8098887.71148  -6256301.26246
                  20997114.9614                                   20997109.0634
                                                                        52.0004
        40.7504
   3834059.77747   3005613.53544
                  23583459.2584                                   23583456.3954
                                                                        44.5004
        28.2504
 -23536988.26248 -18328441.00846
                  21526429.1024                                   21526425.1254
                                                                        51.5004
        41.0004
 -24885883.15648 -19306349.98446
                  20879465.0634                                   20879461.3484
                                                                        51.7504
        40.7504
 -13867099.62547 -10762357.60944
                  22690933.2814                                   22690929.3014
                                                                        45.0004
        29.0004
 -10373348.47348  -8021048.39545
                  21582291.7034                                   21582287.8204
                                                                        48.7504
        35.0004
   1585269.72746   1261463.50442
                  24107333.4304                                   24107327.2274
                                                                        38.2504
        17.7504
 -20094269.35548 -15580611.03546
                  22011723.1644                                   22011719.3554
                                                                        49.5004
        38.0004
  -2753394.86747  -2107599.03144
                  23796192.7034                                   23796188.4494
                                                                        42.5004
        25.2504
  -2640535.75446  -2012473.04744
                  23715494.6564                                   23715491.2854
                                                                        41.5004
        25.0004
 09 10 19  0 32  0.0000000  0 10G02G04G05G10G25G13G23G29G16G07
  -8129081.58648  -6279829.05546
                  20991369.1254                                   20991363.7544
                                                                        51.7504
        40.5004
   3855263.64147   3022136.04744
                  23587493.3134                                   23587490.8874
                                                                        42.5004
        28.0004
 -23699493.52748 -18455068.35546
                  21495505.2114                                   21495501.5084
                                                                        50.7504
        41.0004
 -25031407.19948 -19419745.48046
                  20851772.5554                                   20851768.9024
                                                                        52.0004
        41.2504
 -13993683.35247 -10860994.31245
                  22666845.0864                                   22666841.4224
                                                                        45.7504
        30.0004
 -10411047.56648  -8050424.28945
                  21575117.6024                                   21575113.7344
                                                                        48.5004
        33.5004
   1600341.07046   1273207.45742
                  24110200.6254                                   24110195.4264
                                                                        36.0004
        15.5004
 -20200735.60248 -15663571.73046
                  21991463.2664                                   21991459.3954
                                                                        50.0004
        38.2504
  -2885206.76647  -2210309.58244
                  23771109.5944                                   23771105.5004
                                                                        43.0004
        25.2504
  -2816546.25447  -2149624.06644
                  23682001.0164                                   23681997.1954
                                                                        42.7504
        25.7504
 09 10 19  0 32 30.0000000  0 10G02G04G05G10G25G13G23G29G16G07
  -8158752.27048  -6302949.15246
                  20985723.2584                                   20985717.1804
                                                                        51.5004
        40.5004
   3876657.49946   3038806.57944
                  23591564.8524                                   23591562.4024
                                                                        41.7504
        27.0004
 -23861581.65248 -18581370.87946
                  21464660.9304                                   21464657.0824
                                                                        51.2504
        41.0004
 -25176415.35548 -19532738.89146
                  20824178.4144                                   20824174.8754
                                                                        51.5004
        40.5004
 -14119709.35547 -10959196.43744
                  22642863.2584                                   22642859.3524
                                                                        45.7504
        29.0004
 -10448158.46148  -8079341.84845
                  21568055.5314                                   21568051.7114
                                                                        49.5004
        34.0004
   1615669.60946   1285151.86342
                  24113118.5164                                   24113112.0164
                                                                        39.2504
        17.7504
 -20306588.22748 -15746054.34446
                  21971320.1484                                   21971316.3754
                                                                        49.5004
        38.5004
  -3016450.08247  -2312577.06244
                  23746134.7114                                   23746130.7384
                                                                        42.0004
        24.5004
  -2992184.34047  -2286484.82444
                  23648579.3914                                   23648574.4304
                                                                        43.7504
        27.2504
 09 10 19  0 33  0.0000000  0  9G02G04G05G10G25G13G29G16G07
  -8187899.35548  -6325661.50846
                  20980177.1954                                   20980171.4384
                                                                        51.7504
        40.5004
   3898242.10947   3055625.75044
                  23595672.4304                                   23595669.8484
                                                                        43.0004
        27.2504
 -24023247.01248 -18707344.03546
                  21433897.0784                                   21433893.5004
                                                                        50.2504
        41.0004
 -25320902.78548 -19645326.48446
                  20796683.3054                                   20796680.0594
                                                                        50.7504
        41.0004
 -14245173.66447 -11056960.83244
                  22618988.0704                                   22618984.5124
                                                                        45.2504
        29.5004
 -10484680.41048  -8107800.50845
                  21561106.0784                                   21561101.4384
                                                                        49.5004
        32.7504
 -20411822.19148 -15828054.85946
                  21951295.3134                                   21951291.3834
                                                                        49.5004
        38.5004
  -3147120.00046  -2414397.74244
                  23721268.6644                                   23721265.4024
                                                                        41.0004
        25.7504
  -3167444.84847  -2423051.38744
                  23615227.5634                                   23615223.4104
                                                                        43.2504
        27.0004
 09 10 19  0 33 30.0000000  0  9G02G04G05G10G25G13G29G16G07
  -8216522.79748  -6347965.61746
                  20974729.8834                                   20974724.5314
                                                                        51.2504
        40.5004
   3920015.91447   3072592.32844
                  23599816.2274                                   23599812.8914
                                                                        43.5004
        28.0004
 -24184487.55948 -18832986.05146
                  21403214.0164                                   21403210.1994
                                                                        51.2504
        41.5004
 -25464868.65248 -19757507.73446
                  20769287.6094                                   20769283.8094
                                                                        51.5004
        40.5004
 -14370074.28547 -11154286.01245
                  22595220.2894                                   22595217.1914
                                                                        45.2504
        30.5004
 -10520614.61348  -8135801.15645
                  21554268.0394                                   21554263.6294
                                                                        48.2504
        33.5004
 -20516437.68448 -15909573.44946
                  21931387.1954                                   21931383.3524
                                                                        49.5004
        38.5004
  -3277214.98047  -2515770.39844
                  23696512.4144                                   23696508.7504
                                                                        43.0004
        25.0004
  -3342324.08247  -2559320.93044
                  23581949.5704                                   23581945.0274
                                                                        42.5004
        27.5004
 09 10 19  0 34  0.0000000  0  9G02G04G05G10G25G13G29G16G07
  -8244623.50048  -6369862.09446
                  20969382.8524                                   20969376.6294
                                                                        51.2504
        40.7504
   3941976.56647   3089704.50844
                  23603994.7814                                   23603991.3054
                                                                        43.0004
        26.7504
 -24345301.28148 -18958295.50046
                  21372612.1724                                   21372608.3364
                                                                        50.7504
        41.5004
 -25608310.29348 -19869280.25446
                  20741991.5784                                   20741987.9614
                                                                        51.0004
        40.7504
 -14494409.96547 -11251170.94145
                  22571560.3914                                   22571556.2974
                                                                        46.0004
        30.2504
 -10555963.20348  -8163345.52045
                  21547541.5704                                   21547536.6994
                                                                        49.2504
        32.7504
 -20620432.84448 -15990608.58646
                  21911598.0634                                   21911593.8134
                                                                        50.0004
        39.0004
  -3406732.71547  -2616693.29743
                  23671867.0004                                   23671862.2344
                                                                        42.7504
        22.7504
  -3516819.21947  -2695291.08244
                  23548744.1644                                   23548739.5044
                                                                        42.5004
        27.0004
 09 10 19  0 34 30.0000000  0  9G02G04G05G10G25G13G29G16G07
  -8272200.41848  -6391350.66446
                  20964135.3364                                   20964129.5354
                                                                        51.0004
        40.2504
   3964126.71147   3106964.36744
                  23608210.2734                                   23608206.7424
                                                                        43.0004
        25.5004
 -24505682.59848 -19083267.91846
                  21342092.9304                                   21342088.6804
                                                                        50.2504
        41.2504
 -25751223.28148 -19980640.77346
                  20714795.8674                                   20714792.1094
                                                                        51.2504
        41.0004
 -14618175.14847 -11347611.33245
                  22548008.5784                                   22548004.8754
                                                                        45.0004
        30.0004
 -10590723.93448  -8190431.83245
                  21540926.6564                                   21540922.5044
                                                                        48.0004
        34.0004
 -20723804.10548 -16071157.65246
                  21891926.7974                                   21891922.9804
                                                                        48.7504
        38.5004
  -3535668.18447  -2717162.52743
                  23647330.8834                                   23647326.0164
                                                                        42.5004
        22.5004
  -3690922.91046  -2830956.21544
                  23515612.6334                                   23515609.0124
                                                                        41.7504
        28.0004
 09 10 19  0 35  0.0000000  0  9G02G04G05G10G25G13G29G16G07
  -8299252.43748  -6412430.07446
                  20958987.1174                                   20958981.1174
                                                                        51.5004
        40.5004
   3986465.34847   3124371.09044
                  23612461.0784                                   23612457.5474
                                                                        43.5004
        28.0004
 -24665627.10948 -19207899.67646
                  21311656.1174                                   21311652.1334
                                                                        50.5004
        40.5004
 -25893603.55148 -20091586.21146
                  20687701.7424                                   20687698.0904
                                                                        50.5004
        41.0004
 -14741367.12547 -11443605.06644
                  22524565.3594                                   22524561.7384
                                                                        46.0004
        29.5004
 -10624897.29748  -8217060.43045
                  21534423.3444                                   21534419.1524
                                                                        49.2504
        33.7504
 -20826548.14548 -16151217.93746
                  21872374.8834                                   21872371.6414
                                                                        49.2504
        38.5004
  -3664017.72346  -2817175.18043
                  23622907.1564                                   23622901.4654
                                                                        41.5004
        22.5004
  -3864631.47346  -2966313.47344
                  23482556.7344                                   23482552.9964
                                                                        39.7504
        27.0004
 09 10 19  0 35 30.0000000  0  9G02G04G05G10G25G13G29G16G07
  -6750369.75048  -5205508.43046
                  21253729.7974                                   21253723.8834
                                                                        51.0004
        41.0004
   5584400.86347   4369515.63744
                  23916538.1254                                   23916534.6454
                                                                        43.0004
        27.5004
 -23249718.67248 -18104594.15646
                  21581094.0944                                   21581090.3594
                                                                        50.2504
        41.2504
 -24460035.29348 -18974519.93446
                  20960500.4534                                   20960496.6294
                                                                        51.7504
        40.7504
 -13288569.26647 -10311554.73845
                  22801023.8204                                   22801019.8094
                                                                        46.5004
        30.0004
  -9083073.25048  -7015639.10245
                  21827822.7814                                   21827818.5634
                                                                        49.0004
        33.0004
 -19353250.95748 -15003194.21946
                  22152734.1254                                   22152730.9384
                                                                        48.2504
        38.0004
  -2216364.84847  -1689133.98843
                  23898385.9224                                   23898380.4694
                                                                        42.7504
        22.0004
  -2462524.98046  -1873762.93444
                  23749368.8054                                   23749365.0664
                                                                        39.5004
        27.5004
 09 10 19  0 36  0.0000000  0  9G02G04G05G10G25G13G29G16G07
  -6776397.15648  -5225789.48846
                  21248776.5474                                   21248771.1374
                                                                        51.2504
        40.7504
   5607091.46546   4387196.61744
                  23920855.2734                                   23920853.2774
                                                                        41.7504
        25.7504
 -23408806.83248 -18228558.85246
                  21550820.7894                                   21550817.0204
                                                                        50.2504
        41.5004
 -24601367.43048 -19084648.76646
                  20933605.7194                                   20933602.0204
                                                                        51.5004
        40.5004
 -13410630.44547 -10406667.33645
                  22777796.6174                                   22777792.7854
                                                                        46.0004
        30.5004
  -9116097.59848  -7041372.34045
                  21821538.6094                                   21821534.2304
                                                                        48.7504
        33.0004
 -19454759.73848 -15082291.98846
                  22133417.8524                                   22133413.9184
                                                                        48.0004
        38.2504
  -2343558.23447  -1788245.68743
                  23874182.0394                                   23874176.4774
                                                                        42.0004
        22.5004
  -2635453.89546  -2008512.73044
                  23716462.3364                                   23716457.7154
                                                                        41.7504
        27.5004
 09 10 19  0 36 30.0000000  0  9G02G04G05G10G25G13G29G16G07
  -6801915.55948  -5245673.93446
                  21243920.8834                                   21243914.8364
                                                                        51.0004
        40.0004
   5629953.83246   4405011.38744
                  23925206.1564                                   23925203.5704
                                                                        41.7504
        25.0004
 -23567465.31648 -18352188.77746
                  21520628.7894                                   21520624.8984
                                                                        51.2504
        41.5004
 -24742174.56648 -19194368.55146
                  20906811.3204                                   20906807.4224
                                                                        51.5004
        40.5004
 -13532125.18447 -10501338.55945
                  22754676.8914                                   22754672.6844
                                                                        45.7504
        30.2504
  -9148551.26248  -7066660.90245
                  21815362.7194                                   21815358.6374
                                                                        48.0004
        32.7504
 -19555651.19148 -15160908.70346
                  22114218.6334                                   22114215.0514
                                                                        49.7504
        38.5004
  -2470171.98046  -1886905.74243
                  23850087.5864                                   23850083.1254
                                                                        41.7504
        21.7504
  -2807989.47346  -2142956.01644
                  23683629.7114                                   23683625.3134
                                                                        41.0004
        28.0004
 09 10 19  0 37  0.0000000  0  9G02G04G05G10G25G13G29G16G07
  -6826929.23448  -5265165.07846
                  21239160.5554                                   21239154.9414
                                                                        50.7504
        40.5004
   5652982.88747   4422956.08644
                  23929588.9774                                   23929585.3554
                                                                        42.7504
        25.5004
 -23725695.39148 -18475484.97346
                  21490518.6954                                   21490515.1994
                                                                        50.5004
        41.5004
 -24882457.65648 -19303679.99246
                  20880116.0084                                   20880112.0904
                                                                        51.2504
        41.0004
 -13653055.19147 -10595569.73044
                  22731664.5084                                   22731660.5864
                                                                        46.0004
        29.7504
  -9180439.14148  -7091508.60245
                  21809294.8444                                   21809290.6644
                                                                        48.0004
        33.5004
 -19655926.98048 -15239045.68446
                  22095136.9064                                   22095133.5434
                                                                        48.5004
        38.0004
  -2596207.57446  -1985115.30543
                  23826103.3284                                   23826099.6684
                                                                        38.5004
        21.2504
  -2980131.55547  -2277092.65644
                  23650872.0234                                   23650867.6254
                                                                        43.0004
        27.5004
 09 10 19  0 37 30.0000000  0  9G02G04G05G10G25G13G29G16G07
  -6851440.30548  -5284264.60246
                  21234496.3054                                   21234490.7464
                                                                        51.0004
        39.7504
   5676176.81347   4441029.33244
                  23934002.9224                                   23933998.5554
                                                                        45.2504
        26.7504
 -23883495.43748 -18598446.03146
                  21460490.4694                                   21460486.3874
                                                                        50.7504
        41.2504
 -25022216.04748 -19412582.61346
                  20853520.8284                                   20853517.5354
                                                                        51.5004
        40.5004
 -13773419.56247 -10689360.15244
                  22708759.7664                                   22708755.8164
                                                                        45.7504
        29.0004
  -9211763.80148  -7115917.42245
                  21803333.8594                                   21803329.9384
                                                                        48.2504
        33.0004
 -19755587.21548 -15316703.02046
                  22076172.4064                                   22076168.7734
                                                                        48.0004
        39.0004
  -2721664.06246  -2082873.56643
                  23802229.7504                                   23802226.0164
                                                                        40.5004
        21.7504
  -3151878.05546  -2410921.20344
                  23618190.1334                                   23618184.7304
                                                                        41.5004
        25.5004
 09 10 19  0 38  0.0000000  0  9G02G04G05G10G25G13G29G16G07
  -6875454.42248  -5302976.86746
                  21229926.7664                                   21229920.8054
                                                                        51.2504
        40.5004
   5699528.85947   4459225.77344
                  23938446.2664                                   23938442.2154
                                                                        44.0004
        25.5004
 -24040867.44548 -18721073.55946
                  21430543.3524                                   21430539.7234
                                                                        51.2504
        40.7504
 -25161452.57448 -19521078.61346
                  20827024.9304                                   20827021.4774
                                                                        51.5004
        41.2504
 -13893221.51647 -10782712.28544
                  22685962.5314                                   22685958.7934
                                                                        46.0004
        29.2504
  -9242531.66848  -7139892.39845
                  21797478.8984                                   21797474.8524
                                                                        48.5004
        33.0004
 -19854635.94548 -15393883.87546
                  22057323.8594                                   22057320.5634
                                                                        48.5004
        38.5004
  -2846544.52046  -2180182.97743
                  23778466.7504                                   23778462.0474
                                                                        41.0004
        22.5004
  -3323229.89547  -2544442.10544
                  23585582.8364                                   23585578.2894
                                                                        42.0004
        26.7504
 09 10 19  0 38 30.0000000  0  9G02G04G05G10G25G13G29G16G07
  -6898968.90248  -5321299.81246
                  21225452.1024                                   21225446.2074
                                                                        51.5004
        39.5004
   5723041.68047   4477547.43444
                  23942920.4844                                   23942917.4344
                                                                        42.5004
        25.5004
 -24197805.68048 -18843363.03146
                  21400678.9304                                   21400675.1994
                                                                        51.2504
        41.5004
 -25300161.06248 -19629163.13346
                  20800629.5944                                   20800625.9344
                                                                        51.2504
        41.5004
 -14012455.26247 -10875621.69945
                  22663273.2974                                   22663269.0704
                                                                        45.5004
        30.0004
  -9272740.13348  -7163431.45345
                  21791730.5004                                   21791726.2974
                                                                        49.0004
        32.5004
 -19953067.69548 -15470583.96546
                  22038592.9064                                   22038589.2664
                                                                        49.0004
        38.0004
  -2970842.41046  -2277038.47743
                  23754813.0234                                   23754808.7464
                                                                        41.2504
        22.2504
  -3494180.18746  -2677649.96144
                  23553051.5004                                   23553047.8674
                                                                        40.5004
        28.0004
 09 10 19  0 39  0.0000000  0  9G02G04G05G10G25G13G29G16G07
  -6921987.02048  -5339235.93446
                  21221071.9304                                   21221065.9414
                                                                        50.5004
        39.2504
   5746711.25846   4495991.16044
                  23947423.5084                                   23947421.8554
                                                                        41.0004
        24.2504
 -24354310.37148 -18965314.74646
                  21370897.3364                                   21370893.5084
                                                                        51.2504
        41.5004
 -25438342.55148 -19736837.04746
                  20774334.5164                                   20774330.9384
                                                                        51.7504
        41.2504
 -14131121.27347 -10968088.70745
                  22640691.5704                                   22640687.7234
                                                                        46.0004
        30.0004
  -9302392.94148  -7186537.52345
                  21786087.8054                                   21786083.2584
                                                                        49.0004
        32.5004
 -20050883.79748 -15546804.29346
                  22019979.1254                                   22019975.4344
                                                                        49.0004
        38.5004
  -3094558.44547  -2373440.58644
                  23731271.4534                                   23731266.7544
                                                                        43.0004
        24.7504
  -3664727.99246  -2810544.37144
                  23520597.6334                                   23520593.5204
                                                                        41.2504
        28.0004
 09 10 19  0 39 30.0000000  0  9G02G04G05G10G25G13G29G16G07
  -6944509.57448  -5356785.93046
                  21216785.4844                                   21216780.1884
                                                                        51.5004
        40.0004
   5770536.89147   4514556.52344
                  23951958.3444                                   23951955.3634
                                                                        43.0004
        25.5004
 -24510379.07848 -19086926.71547
                  21341198.6484                                   21341194.3634
                                                                        51.0004
        42.0004
 -25575994.89548 -19844098.68446
                  20748140.4064                                   20748136.9304
                                                                        52.0004
        40.7504
 -14249217.69947 -11060111.86344
                  22618217.9774                                   22618214.4534
                                                                        45.7504
        29.5004
  -9331491.66048  -7209211.84445
                  21780550.4924                                   21780546.4344
                                                                        48.7504
        32.7504
 -20148084.05948 -15622544.77746
                  22001482.3594                                   22001478.9304
                                                                        49.7504
        38.7504
  -3217691.08647  -2469388.10544
                  23707839.9844                                   23707835.4964
                                                                        42.5004
        26.0004
  -3834868.97746  -2943121.67244
                  23488220.0944                                   23488216.3634
                                                                        40.5004
        28.0004
 09 10 19  0 40  0.0000000  0  9G02G04G05G10G25G13G29G16G07
  -6966538.36348  -5373951.29346
                  21212593.8834                                   21212588.2664
                                                                        51.2504
        40.2504
   5794516.33247   4533241.79344
                  23956521.9144                                   23956518.9414
                                                                        45.0004
        27.5004
 -24666009.96948 -19208197.57446
                  21311583.0234                                   21311578.9844
                                                                        51.0004
        41.5004
 -25713115.74248 -19950946.13746
                  20722047.3284                                   20722043.4224
                                                                        52.7504
        41.0004
 -14366743.44547 -11151690.34444
                  22595854.2034                                   22595849.9534
                                                                        45.7504
        29.7504
  -9360038.31648  -7231455.99245
                  21775118.3284                                   21775113.7424
                                                                        48.5004
        32.5004
 -20244666.37548 -15697803.70746
                  21983103.6804                                   21983100.2624
                                                                        49.5004
        38.7504
  -3340237.66047  -2564878.91044
                  23684520.5554                                   23684515.9304
                                                                        42.2504
        25.5004
  -4004601.22746  -3075380.51644
                  23455921.2974                                   23455917.7734
                                                                        41.5004
        27.7504
 09 10 19  0 40 30.0000000  0  9G02G04G05G10G25G13G29G16G07
  -6988073.50048  -5390731.91046
                  21208495.9304                                   21208490.1564
                                                                        51.0004
        40.0004
   5818648.63847   4552046.18844
                  23961114.1484                                   23961111.2894
                                                                        45.0004
        26.5004
 -24821200.05148 -19329124.95346
                  21282051.3364                                   21282046.9844
                                                                        51.5004
        41.5004
 -25849702.99248 -20057377.72746
                  20696055.4224                                   20696051.7154
                                                                        52.0004
        41.5004
 -14483695.98847 -11242822.14544
                  22573599.0084                                   22573594.5704
                                                                        46.5004
        29.2504
  -9388033.55948  -7253270.44545
                  21769790.8134                                   21769786.4384
                                                                        48.5004
        33.2504
 -20340629.63348 -15772580.28546
                  21964842.3754                                   21964838.9654
                                                                        49.5004
        39.0004
  -3462195.65247  -2659911.06644
                  23661312.3444                                   23661308.1134
                                                                        42.0004
        26.0004
  -4173920.24646  -3207317.39144
                  23423700.8204                                   23423697.3524
                                                                        40.5004
        27.2504
 09 10 19  0 41  0.0000000  0  9G02G04G05G10G25G13G29G16G07
  -7009117.80548  -5407130.00446
                  21204491.0944                                   21204485.2584
                                                                        50.5004
        39.5004
   5842931.14147   4570967.61344
                  23965734.7974                                   23965731.4884
                                                                        43.5004
        26.5004
 -24975948.97348 -19449708.50446
                  21252603.3754                                   21252599.3794
                                                                        52.0004
        41.7504
 -25985757.09048 -20163393.93046
                  20670165.2274                                   20670161.6414
                                                                        52.2504
        41.0004
 -14600075.44147 -11333507.43045
                  22551452.4694                                   22551448.4844
                                                                        46.2504
        30.2504
  -9415480.85248  -7274657.95345
                  21764567.8914                                   21764563.5354
                                                                        48.2504
        32.2504
 -20435975.38748 -15846875.67646
                  21946698.6724                                   21946695.3094
                                                                        50.0004
        38.5004
  -3583566.07446  -2754485.39144
                  23638216.1414                                   23638211.6644
                                                                        41.7504
        25.7504
  -4342824.04746  -3338930.71144
                  23391559.9224                                   23391555.7114
                                                                        41.7504
        28.5004
 09 10 19  0 41 30.0000000  0  9G02G04G05G10G25G13G29G16G07
  -7029671.28548  -5423145.64546
                  21200579.8444                                   21200573.9734
                                                                        51.2504
        39.5004
   5867362.96946   4590005.37543
                  23970383.6094                                   23970381.2544
                                                                        41.2504
        22.7504
 -25130253.11348 -19569945.49646
                  21223240.3524                                   21223236.1564
                                                                        51.2504
        41.2504
 -26121274.38348 -20268991.79746
                  20644377.0634                                   20644373.4884
                                                                        52.5004
        41.2504
 -14715879.00847 -11423743.95345
                  22529415.5784                                   22529411.7384
                                                                        46.5004
        30.0004
  -9442380.38748  -7295618.62145
                  21759449.1644                                   21759445.1094
                                                                        48.2504
        33.2504
 -20530700.71148 -15920687.64546
                  21928672.9694                                   21928669.6094
                                                                        50.2504
        39.0004
  -3704344.68447  -2848598.54344
                  23615232.9924                                   23615228.3164
                                                                        42.7504
        25.2504
  -4511308.59447  -3470217.35944
                  23359498.8834                                   23359494.0944
                                                                        43.5004
        28.5004
 09 10 19  0 42  0.0000000  0  9G02G04G05G10G25G13G29G16G07
  -7049735.87548  -5438780.39846
                  21196762.0234                                   21196755.8874
                                                                        51.0004
        39.0004
   5891942.67646   4609158.36343
                  23975061.0314                                   23975058.2974
                                                                        39.5004
        22.7504
 -25284111.58648 -19689835.18446
                  21193962.0944                                   21193958.0704
                                                                        51.7504
        40.7504
 -26256254.40248 -20374171.03146
                  20618691.3054                                   20618687.6174
                                                                        52.0004
        41.2504
 -14831105.88347 -11513531.14145
                  22507489.0314                                   22507485.1914
                                                                        46.5004
        31.5004
  -9468734.81648  -7316154.56245
                  21754433.9064                                   21754429.6564
                                                                        48.5004
        33.0004
 -20624806.30548 -15994016.71146
                  21910765.4224                                   21910761.8674
                                                                        50.5004
        38.5004
  -3824531.43446  -2942250.50844
                  23592361.2584                                   23592357.2424
                                                                        41.7504
        26.2504
  -4679370.83247  -3601174.90644
                  23327517.0944                                   23327513.2384
                                                                        43.0004
        28.5004
 09 10 19  0 42 30.0000000  0  9G02G04G05G10G25G13G29G16G07
  -7069312.51648  -5454034.94546
                  21193036.8134                                   21193030.7934
                                                                        50.7504
        39.5004
   5916668.55146   4628425.25443
                  23979766.2734                                   23979763.2894
                                                                        40.5004
        21.7504
 -25437521.23448 -19809375.14846
                  21164769.1564                                   21164765.1334
                                                                        51.7504
        41.5004
 -26390694.80148 -20478929.74246
                  20593108.0314                                   20593104.2894
                                                                        52.0004
        41.2504
 -14945754.08647 -11602867.42245
                  22485672.5474                                   22485668.4734
                                                                        46.0004
        31.7504
  -9494545.12547  -7336266.48045
                  21749522.3594                                   21749518.2074
                                                                        47.7504
        32.2504
 -20718290.07848 -16066861.23046
                  21892975.7814                                   21892972.5594
                                                                        50.5004
        38.7504
  -3944123.24247  -3035438.86744
                  23569604.2504                                   23569599.4454
                                                                        42.7504
        25.2504
  -4847007.52347  -3731800.90244
                  23295617.1174                                   23295612.1334
                                                                        42.0004
        28.0004
 09 10 19  0 43  0.0000000  0  9G02G04G05G10G25G13G29G16G07
  -7088403.23848  -5468910.99646
                  21189403.6414                                   21189397.8954
                                                                        50.7504
        39.2504
   5941538.75446   4647804.65643
                  23984499.1094                                   23984495.4224
                                                                        41.0004
        22.5004
 -25590480.92648 -19928564.48846
                  21135661.7814                                   21135658.0004
                                                                        51.5004
        41.5004
 -26524594.52748 -20583267.19146
                  20567627.6804                                   20567624.0474
                                                                        52.5004
        41.2504
 -15059822.82447 -11691752.16845
                  22463965.5234                                   22463961.7584
                                                                        45.2504
        31.0004
  -9519813.91848  -7355956.46145
                  21744714.0164                                   21744709.7934
                                                                        48.0004
        32.0004
 -20811152.20748 -16139221.32446
                  21875305.0394                                   21875301.3204
                                                                        50.5004
        39.0004
  -4063119.58647  -3128163.28944
                  23546959.6804                                   23546955.4344
                                                                        42.7504
        25.5004
  -5014216.05947  -3862093.27344
                  23263797.7504                                   23263793.7154
                                                                        42.2504
        27.5004
 09 10 19  0 43 30.0000000  0  9G02G04G05G10G25G13G29G16G07
  -7107010.10248  -5483410.14146
                  21185863.1414                                   21185857.2464
                                                                        51.0004
        39.2504
   5966550.75046   4667294.51244
                  23989258.5314                                   23989255.6844
                                                                        41.2504
        25.5004
 -25742989.73048 -20047402.49646
                  21106640.5004                                   21106636.8284
                                                                        51.2504
        41.5004
 -26657952.50848 -20687182.47746
                  20542250.4064                                   20542246.6764
                                                                        52.5004
        41.0004
 -15173311.32847 -11780184.72745
                  22442369.2344                                   22442365.4454
                                                                        46.5004
        30.5004
  -9544543.83248  -7375226.52745
                  21740008.2974                                   21740004.1214
                                                                        48.0004
        32.7504
 -20903393.10948 -16211097.34446
                  21857752.3674                                   21857748.7464
                                                                        49.5004
        39.0004
  -4181519.83647  -3220423.20744
                  23524429.1804                                   23524424.8484
                                                                        42.0004
        26.5004
  -5180993.85947  -3992050.02044
                  23232061.8594                                   23232056.6954
                                                                        42.2504
        26.2504
 09 10 19  0 44  0.0000000  0  9G02G04G05G10G25G13G29G16G07
  -7125133.13348  -5497532.00446
                  21182414.7194                                   21182409.1094
                                                                        51.2504
        39.2504
   5991703.07847   4686893.67644
                  23994044.9924                                   23994042.3364
                                                                        42.0004
        25.5004
 -25895044.47348 -20165886.70347
                  21077705.3754                                   21077701.5744
                                                                        51.7504
        42.0004
 -26790766.74248 -20790674.07046
                  20516976.8364                                   20516973.4534
                                                                        52.0004
        41.0004
 -15286218.39147 -11868164.24645
                  22420883.6414                                   22420880.1804
                                                                        46.0004
        31.0004
  -9568736.13748  -7394077.66445
                  21735404.3444                                   21735399.9344
                                                                        48.5004
        33.0004
 -20995010.60248 -16282487.58246
                  21840317.7504                                   21840314.6024
                                                                        49.7504
        38.7504
  -4299321.36747  -3312216.60244
                  23502012.3834                                   23502008.2424
                                                                        43.0004
        26.5004
  -5347337.92646  -4121668.72744
                  23200406.8524                                   23200402.8874
                                                                        41.2504
        28.0004
 09 10 19  0 44 30.0000000  0  9G02G04G05G10G25G13G29G16G07
  -5567352.99648  -4283677.25446
                  21478850.3984                                   21478844.7624
                                                                        51.2504
        39.5004
   7592414.15547   5934200.96644
                  24298651.0314                                   24298647.6724
                                                                        42.5004
        28.5004
 -24471218.40648 -19056411.86346
                  21348650.7424                                   21348646.8444
                                                                        52.0004
        41.7504
 -25347611.47348 -19666137.50446
                  20791600.2344                                   20791596.5354
                                                                        52.5004
        41.0004
 -13823117.87947 -10728085.91045
                  22699302.7424                                   22699298.9264
                                                                        45.5004
        31.2504
  -8016971.32448  -6184910.28545
                  22030695.2734                                   22030690.8014
                                                                        48.0004
        32.5004
 -19510581.97748 -15125789.95746
                  22122795.1804                                   22122791.9104
                                                                        50.5004
        39.0004
  -2841098.39847  -2175938.93044
                  23779502.8984                                   23779498.9224
                                                                        42.5004
        26.0004
  -3937818.56147  -3023341.92744
                  23468629.4384                                   23468625.7814
                                                                        42.2504
        29.2504
 09 10 19  0 45  0.0000000  0  9G02G04G05G10G25G13G29G16G07
  -5584512.52048  -4297048.23846
                  21475584.9224                                   21475579.1914
                                                                        50.5004
        40.0004
   7617844.03147   5954016.39844
                  24303489.3134                                   24303486.6414
                                                                        42.2504
        26.0004
 -24622359.52748 -19174184.14147
                  21319889.2114                                   21319885.1844
                                                                        51.5004
        42.5004
 -25479333.61748 -19768778.13746
                  20766534.1954                                   20766530.5234
                                                                        52.2504
        40.7504
 -13934856.26247 -10815154.77345
                  22678039.3674                                   22678036.0124
                                                                        45.5004
        31.0004
  -8040093.01648  -6202927.16445
                  22026295.8914                                   22026291.2234
                                                                        48.0004
        32.0004
 -19600952.57048 -15196208.60546
                  22105598.4144                                   22105594.6254
                                                                        49.0004
        38.7504
  -2957697.78146  -2266795.54344
                  23757313.7424                                   23757310.6294
                                                                        41.2504
        25.0004
  -4103283.75447  -3152275.82044
                  23437142.8674                                   23437139.0944
                                                                        43.0004
        29.7504
 09 10 19  0 45 30.0000000  0  9G02G04G05G10G25G13G29G16G07
  -5601193.10248  -4310046.05146
                  21472410.9224                                   21472404.9344
                                                                        51.2504
        39.2504
   7643409.64846   5973937.58643
                  24308353.2894                                   24308351.4574
                                                                        41.5004
        22.7504
 -24773041.64548 -19291598.79347
                  21291215.5704                                   21291211.7034
                                                                        51.2504
        42.2504
 -25610508.13348 -19870992.04346
                  20741572.6884                                   20741569.0434
                                                                        52.5004
        41.0004
 -14046009.05547 -10901767.35245
                  22656888.0554                                   22656884.0434
                                                                        45.5004
        30.5004
  -8062682.91847  -6220529.67245
                  22021996.6724                                   22021992.5234
                                                                        47.2504
        32.0004
 -19690699.34448 -15266141.14846
                  22088520.2584                                   22088516.4654
                                                                        49.0004
        38.5004
  -3073694.51646  -2357182.60243
                  23735241.2504                                   23735236.6334
                                                                        41.0004
        23.2504
  -4268305.47746  -3280864.12545
                  23405740.5784                                   23405736.8324
                                                                        41.7504
        30.0004
 09 10 19  0 46  0.0000000  0  9G02G04G05G10G25G13G29G16G07
  -5617394.64148  -4322670.50446
                  21469327.5634                                   21469321.6454
                                                                        50.5004
        39.7504
   7669110.77746   5993964.43043
                  24313244.8594                                   24313241.3164
                                                                        41.2504
        20.7504
 -24923260.59848 -19408652.52047
                  21262629.6414                                   21262626.0664
                                                                        51.0004
        42.5004
 -25741131.67248 -19972776.58246
                  20716715.6484                                   20716712.1454
                                                                        52.0004
        41.0004
 -14156573.52047 -10987921.44945
                  22635847.9844                                   22635844.5824
                                                                        45.5004
        31.2504
  -8084741.43447  -6237718.12145
                  22017799.1484                                   22017794.7584
                                                                        47.7504
        31.5004
 -19779819.84848 -15335585.69546
                  22071561.0944                                   22071557.3014
                                                                        49.0004
        39.0004
  -3189085.12147  -2447097.33244
                  23713282.6484                                   23713278.6414
                                                                        42.0004
        25.0004
  -4432879.59447  -3409103.66844
                  23374423.1884                                   23374418.9694
                                                                        43.0004
        29.7504
 09 10 19  0 46 30.0000000  0  9G02G04G05G10G25G13G29G16G07
  -5633119.23048  -4334923.32846
                  21466335.2584                                   21466328.8554
                                                                        51.2504
        38.7504
   7694945.07447   6014095.05543
                  24318161.3364                                   24318157.6884
                                                                        44.2504
        22.5004
 -25073015.39548 -19525344.55946
                  21234132.2344                                   21234128.2464
                                                                        51.2504
        41.5004
 -25871203.09048 -20074130.96546
                  20691963.8284                                   20691960.3954
                                                                        52.5004
        41.5004
 -14266548.97747 -11073616.54345
                  22614920.4694                                   22614916.5434
                                                                        45.2504
        31.2504
  -8106271.20748  -6254494.57845
                  22013702.2274                                   22013697.7154
                                                                        48.0004
        32.2504
 -19868314.23848 -15404542.35546
                  22054721.0704                                   22054717.7074
                                                                        48.7504
        38.5004
  -3303869.12947  -2536539.39144
                  23691440.3834                                   23691435.4694
                                                                        42.5004
        25.2504
  -4597003.27347  -3536992.21545
                  23343191.5554                                   23343186.7504
                                                                        44.0004
        30.0004
 09 10 19  0 47  0.0000000  0  9G02G04G05G10G25G13G29G16G07
  -5648368.23448  -4346805.64146
                  21463433.6094                                   21463427.1844
                                                                        50.2504
        39.0004
   7720911.52047   6034328.63344
                  24323102.7584                                   24323099.8984
                                                                        44.5004
        26.2504
 -25222304.47348 -19641673.75046
                  21205723.4304                                   21205719.6604
                                                                        51.7504
        41.7504
 -26000720.89548 -20175054.00446
                  20667317.8674                                   20667314.2424
                                                                        52.0004
        41.2504
 -14375934.10247 -11158851.66845
                  22594105.0554                                   22594101.5084
                                                                        45.5004
        31.2504
  -8127273.70747  -6270860.16845
                  22009705.3524                                   22009701.4064
                                                                        47.2504
        31.2504
 -19956182.23048 -15473010.94146
                  22038000.3984                                   22037996.4104
                                                                        49.5004
        38.7504
  -3418045.19947  -2625507.74244
                  23669713.2114                                   23669708.6764
                                                                        43.0004
        24.0004
  -4760673.16447  -3664527.18444
                  23312045.2734                                   23312041.2074
                                                                        44.0004
        28.0004
 09 10 19  0 47 30.0000000  0  9G02G04G05G10G25G13G29G16G07
  -5663143.07848  -4358318.45746
                  21460621.5864                                   21460615.7034
                                                                        50.5004
        38.7504
   7747008.10547   6054663.61344
                  24328068.7974                                   24328066.1174
                                                                        45.5004
        28.0004
 -25371125.18448 -19757637.92246
                  21177404.2664                                   21177400.1994
                                                                        51.2504
        41.7504
 -26129683.62548 -20275544.38746
                  20642777.0554                                   20642773.1724
                                                                        52.5004
        41.7504
 -14484727.87147 -11243626.09445
                  22573402.2424                                   22573398.5234
                                                                        44.5004
        30.5004
  -8147750.86747  -6286816.34845
                  22005808.5864                                   22005804.7384
                                                                        47.2504
        32.2504
 -20043422.90248 -15540990.70746
                  22021399.4844                                   22021395.5474
                                                                        49.7504
        39.0004
  -3531611.08247  -2714000.62143
                  23648102.4694                                   23648097.6564
                                                                        43.7504
        23.2504
  -4923886.75847  -3791706.61744
                  23280986.9064                                   23280982.7154
                                                                        43.7504
        28.7504
 09 10 19  0 48  0.0000000  0  9G02G04G05G10G25G13G29G16G07
  -5677445.82048  -4369463.42246
                  21457899.8594                                   21457894.1214
                                                                        49.7504
        39.0004
   7773232.43047   6075098.04744
                  24333058.8444                                   24333056.9344
                                                                        42.5004
        26.5004
 -25519476.95748 -19873236.70347
                  21149173.5704                                   21149169.5784
                                                                        51.5004
        42.2504
 -26258091.12548 -20375602.16446
                  20618341.9384                                   20618338.1914
                                                                        53.0004
        41.5004
 -14592929.93447 -11327939.37944
                  22552811.9454                                   22552808.1804
                                                                        45.0004
        29.7504
  -8167705.77047  -6302365.57045
                  22002011.3834                                   22002007.1214
                                                                        47.0004
        31.0004
 -20130037.10948 -15608482.35546
                  22004917.0164                                   22004913.3874
                                                                        49.5004
        39.0004
  -3644567.59047  -2802018.69543
                  23626607.5164                                   23626602.1914
                                                                        43.7504
        23.7504
  -5086641.64846  -3918528.58644
                  23250015.6334                                   23250011.5744
                                                                        41.0004
        26.7504
 09 10 19  0 48 30.0000000  0  9G02G04G05G10G25G13G29G16G07
  -5691276.66048  -4380240.68746
                  21455268.0554                                   21455262.0664
                                                                        51.0004
        39.0004
   7799584.58246   6095632.06643
                  24338072.5234                                   24338071.2774
                                                                        38.5004
        21.5004
 -25667356.53148 -19988467.56647
                  21121033.0784                                   21121028.9654
                                                                        50.5004
        42.0004
 -26385940.31248 -20475224.86346
                  20594012.7194                                   20594008.8914
                                                                        52.5004
        41.2504
 -14700537.57447 -11411789.47744
                  22532334.9844                                   22532331.2584
                                                                        43.7504
        29.7504
  -8187138.22747  -6317507.72345
                  21998313.3284                                   21998309.3754
                                                                        47.7504
        31.2504
 -20216022.84848 -15675484.26246
                  21988554.4304                                   21988550.7664
                                                                        48.2504
        38.0004
  -3756910.91847  -2889558.97743
                  23605229.6024                                   23605224.3054
                                                                        43.5004
        23.0004
  -5248933.45347  -4044989.71544
                  23219132.9924                                   23219128.4144
                                                                        43.0004
        28.2504
 09 10 19  0 49  0.0000000  0  9G02G04G05G10G25G13G29G16G07
  -5704639.69148  -4390653.46146
                  21452725.1484                                   21452719.1914
                                                                        50.5004
        39.0004
   7826060.05946   6116262.21143
                  24343111.7344                                   24343109.5634
                                                                        41.0004
        21.7504
 -25814764.14548 -20103330.62147
                  21092982.3594                                   21092978.0514
                                                                        51.5004
        42.0004
 -26513232.35248 -20574413.50846
                  20569790.1024                                   20569786.1954
                                                                        53.0004
        41.0004
 -14807552.46147 -11495177.73445
                  22511970.8444                                   22511966.8714
                                                                        43.5004
        30.0004
  -8206053.80547  -6332247.14845
                  21994713.8834                                   21994709.8094
                                                                        47.2504
        32.0004
 -20301382.10248 -15741997.97746
                  21972311.1564                                   21972307.7664
                                                                        49.5004
        38.0004
  -3868642.50847  -2976622.59443
                  23583967.4224                                   23583961.6844
                                                                        44.2504
        22.7504
  -5410761.81647  -4171089.74644
                  23188337.9844                                   23188333.5434
                                                                        44.2504
        28.5004
 09 10 19  0 49 30.0000000  0  9G02G04G05G10G25G13G29G16G07
  -5717532.89848  -4400700.07446
                  21450271.5554                                   21450265.5904
                                                                        50.5004
        39.0004
   7852660.99647   6136990.30143
                  24348173.8594                                   24348171.0634
                                                                        43.2504
        22.5004
 -25961695.01248 -20217822.23447
                  21065022.1094                                   21065018.1174
                                                                        51.2504
        42.5004
 -26639962.39848 -20673164.18446
                  20545674.0474                                   20545670.4144
                                                                        51.2504
        41.7504
 -14913969.96147 -11578100.47345
                  22491720.2814                                   22491716.0234
                                                                        44.5004
        30.5004
  -8224450.76647  -6346582.45345
                  21991213.3204                                   21991208.9104
                                                                        47.7504
        32.0004
 -20386111.86748 -15808021.15246
                  21956187.4224                                   21956184.2384
                                                                        49.7504
        38.2504
  -3979758.12547  -3063206.21544
                  23562823.1644                                   23562817.8054
                                                                        43.7504
        24.5004
  -5572120.03547  -4296823.39144
                  23157632.3204                                   23157628.0784
                                                                        43.2504
        28.7504
 09 10 19  0 50  0.0000000  0  9G02G04G05G10G25G13G29G16G07
  -5729960.81648  -4410384.13346
                  21447906.7424                                   21447900.8364
                                                                        50.2504
        39.2504
   7879382.56647   6157812.40643
                  24353259.6174                                   24353255.0434
                                                                        43.7504
        22.2504
 -26108149.97748 -20331942.96146
                  21037152.6724                                   21037148.6844
                                                                        51.2504
        41.7504
 -26766132.32048 -20771478.39546
                  20521664.5784                                   20521660.7544
                                                                        51.5004
        41.5004
 -15019792.13747 -11660559.26245
                  22471582.2114                                   22471578.8634
                                                                        43.5004
        30.5004
  -8242334.00847  -6360517.46145
                  21987809.8834                                   21987805.5394
                                                                        47.0004
        32.0004
 -20470214.06648 -15873555.33646
                  21940183.7424                                   21940180.0664
                                                                        49.5004
        38.2504
  -4090259.29747  -3149311.04343
                  23541795.4844                                   23541790.3244
                                                                        42.7504
        23.2504
  -5733008.29347  -4422190.82444
                  23127016.6174                                   23127012.5594
                                                                        44.2504
        29.5004
 09 10 19  0 50 30.0000000  0  9G02G04G05G10G25G13G29G16G07
  -5741926.38748  -4419708.03546
                  21445629.9844                                   21445624.0354
                                                                        50.0004
        39.2504
   7906221.94146   6178726.25443
                  24358366.0164                                   24358363.2544
                                                                        41.5004
        23.2504
 -26254128.64848 -20445692.56246
                  21009373.8284                                   21009369.7934
                                                                        50.0004
        41.5004
 -26891741.76648 -20869355.88747
                  20497761.9774                                   20497758.1094
                                                                        52.0004
        42.0004
 -15125019.29747 -11742554.43445
                  22451559.0164                                   22451555.0704
                                                                        44.0004
        30.2504
  -8259706.74247  -6374054.64845
                  21984504.3594                                   21984500.1844
                                                                        46.5004
        31.2504
 -20553690.12547 -15938601.64146
                  21924298.6414                                   21924294.7934
                                                                        47.5004
        38.5004
  -4200145.96147  -3234937.00844
                  23520885.0634                                   23520879.4104
                                                                        43.0004
        24.7504
  -5893424.85247  -4547190.72744
                  23096490.1644                                   23096485.8834
                                                                        44.2504
        29.2504
 09 10 19  0 51  0.0000000  0  9G02G04G05G10G25G13G29G16G07
  -5753430.77048  -4428672.58246
                  21443440.4694                                   21443434.9774
                                                                        49.5004
        38.5004
   7933177.92246   6199730.88343
                  24363494.9694                                   24363492.9414
                                                                        38.5004
        23.0004
 -26399629.18448 -20559069.64147
                  20981686.3914                                   20981681.9574
                                                                        51.7504
        42.0004
 -27016789.14848 -20966795.41046
                  20473966.3834                                   20473962.2894
                                                                        52.0004
        41.2504
 -15229649.78147 -11824084.65645
                  22431648.3134                                   22431644.1484
                                                                        44.0004
        31.0004
  -8276570.51247  -6387195.19945
                  21981295.0394                                   21981291.1644
                                                                        47.0004
        30.7504
 -20636539.50048 -16003159.56646
                  21908532.6564                                   21908528.8754
                                                                        49.7504
        38.2504
  -4309416.60247  -3320082.93444
                  23500091.2424                                   23500086.0824
                                                                        43.0004
        24.7504
  -6053366.19547  -4671820.30544
                  23066054.1884                                   23066049.8404
                                                                        43.7504
        28.7504
 09 10 19  0 51 30.0000000  0  9G02G04G05G10G25G13G29G16G07
  -5764472.75848  -4437276.73446
                  21441339.3754                                   21441333.5474
                                                                        50.5004
        39.0004
   7960251.35546   6220826.97343
                  24368647.5704                                   24368645.4924
                                                                        39.5004
        23.0004
 -26544646.74248 -20672070.33646
                  20954090.2034                                   20954085.7384
                                                                        51.7504
        41.7504
 -27141270.40648 -21063793.75846
                  20450278.0554                                   20450274.4184
                                                                        51.7504
        41.7504
 -15333680.04747 -11905147.17645
                  22411851.6414                                   22411847.9064
                                                                        44.5004
        31.0004
  -8292924.68747  -6399938.66845
                  21978182.8134                                   21978178.5594
                                                                        46.7504
        31.7504
 -20718758.65648 -16067226.41446
                  21892886.7734                                   21892883.4024
                                                                        49.2504
        38.2504
  -4418066.75447  -3404745.36744
                  23479415.5704                                   23479410.8954
                                                                        43.0004
        25.5004
  -6212827.21547  -4796075.61344
                  23035710.4384                                   23035705.3094
                                                                        44.2504
        29.7504
 09 10 19  0 52  0.0000000  0  9G02G04G05G10G25G13G29G16G07
  -5775054.64848  -4445522.36746
                  21439326.0004                                   21439320.1414
                                                                        49.5004
        38.5004
   7987439.78147   6242012.68844
                  24373821.6564                                   24373819.1214
                                                                        42.5004
        25.0004
 -26689180.22748 -20784693.82047
                  20926586.4774                                   20926582.1954
                                                                        51.0004
        42.2504
 -27265185.34048 -21160350.84846
                  20426698.1644                                   20426694.5984
                                                                        53.2504
        41.0004
 -15437110.42247 -11985742.26244
                  22392169.9384                                   22392165.6484
                                                                        44.5004
        29.7504
  -8308772.90247  -6412287.96545
                  21975167.0084                                   21975162.6724
                                                                        46.7504
        31.0004
 -20800348.90248 -16130803.23446
                  21877360.8834                                   21877357.3054
                                                                        49.5004
        38.2504
  -4526097.34047  -3488925.09044
                  23458858.2344                                   23458853.3134
                                                                        43.0004
        25.0004
  -6371806.12547  -4919955.26245
                  23005456.9144                                   23005452.7934
                                                                        44.5004
        30.0004
 09 10 19  0 52 30.0000000  0  9G02G04G05G10G25G13G29G16G07
  -5785178.10948  -4453410.78946
                  21437399.3914                                   21437393.4844
                                                                        49.7504
        38.5004
   8014741.60547   6263286.80544
                  24379017.1024                                   24379013.9614
                                                                        44.2504
        26.2504
 -26833227.93448 -20896938.77347
                  20899175.0474                                   20899170.7974
                                                                        50.5004
        42.5004
 -27388532.64548 -21256465.61346
                  20403225.6954                                   20403222.1254
                                                                        52.2504
        41.7504
 -15539939.72747 -12065868.99645
                  22372602.1884                                   22372598.0354
                                                                        44.0004
        30.7504
  -8324116.75047  -6424244.26645
                  21972247.3834                                   21972243.1724
                                                                        47.0004
        30.7504
 -20881309.69948 -16193889.55946
                  21861954.4224                                   21861950.8554
                                                                        48.5004
        38.0004
  -4633506.37547  -3572620.46544
                  23438418.9924                                   23438414.0784
                                                                        43.0004
        25.5004
  -6530299.55947  -5043456.62945
                  22975296.9224                                   22975292.6684
                                                                        44.0004
        30.0004
 09 10 19  0 53  0.0000000  0  9G02G04G05G10G25G13G29G16G07
  -5794846.07048  -4460944.29346
                  21435559.5394                                   21435553.8794
                                                                        49.0004
        38.5004
   8042154.55547   6284647.57443
                  24384233.2584                                   24384230.5944
                                                                        43.2504
        22.2504
 -26976789.07048 -21008804.57847
                  20871856.0634                                   20871852.0394
                                                                        51.5004
        42.2504
 -27511311.68448 -21352137.58646
                  20379861.9064                                   20379857.7344
                                                                        52.7504
        41.7504
 -15642167.45747 -12145526.93044
                  22353148.8594                                   22353144.7304
                                                                        44.5004
        29.7504
  -8338958.68047  -6435809.39845
                  21969422.8364                                   21969418.4614
                                                                        47.2504
        31.0004
 -20961642.12948 -16256486.25446
                  21846667.7194                                   21846664.0594
                                                                        49.5004
        38.7504
  -4740293.51647  -3655831.29344
                  23418097.5314                                   23418093.1134
                                                                        43.0004
        25.0004
  -6688305.17647  -5166577.85945
                  22945228.8284                                   22945225.2274
                                                                        44.0004
        30.7504
 09 10 19  0 53 30.0000000  0  9G02G04G05G10G25G13G29G16G07
  -4228640.91448  -3240524.69146
                  21733598.4924                                   21733592.7894
                                                                        49.0004
        38.5004
   9645094.22747   7533691.50043
                  24689263.0394                                   24689258.9384
                                                                        42.5004
        20.7504
 -25544439.26648 -19892687.83647
                  21144423.4774                                   21144419.2774
                                                                        51.7504
        42.0004
 -26058099.43748 -20219764.41047
                  20656398.9694                                   20656395.2664
                                                                        53.0004
        42.0004
 -14168371.63747 -10997114.54745
                  22633602.7584                                   22633598.9144
                                                                        44.7504
        31.0004
  -6777882.83247  -5219386.64145
                  22266486.2424                                   22266481.6914
                                                                        46.7504
        31.2504
 -19465925.09448 -15090992.44146
                  22131293.0084                                   22131289.6844
                                                                        49.0004
        38.0004
  -3271036.23447  -2510955.50844
                  23697687.7584                                   23697683.8444
                                                                        43.0004
        25.7504
  -5270397.14547  -4061714.43445
                  23215048.3754                                   23215043.8914
                                                                        43.7504
        30.5004
 09 10 19  0 54  0.0000000  0  9G02G04G05G10G25G13G29G16G07
  -4237405.21548  -3247354.01646
                  21731930.5944                                   21731924.6214
                                                                        49.2504
        38.2504
   9672720.85546   7555218.77343
                  24694519.5164                                   24694516.6564
                                                                        38.5004
        19.5004
 -25687026.27348 -20003794.58246
                  21117290.0314                                   21117285.8094
                                                                        51.0004
        41.7504
 -26179742.84048 -20314551.50046
                  20633250.7194                                   20633246.9844
                                                                        52.5004
        41.7504
 -14269398.61747 -11075836.89545
                  22614378.2344                                   22614373.4414
                                                                        45.0004
        30.0004
  -6791732.20347  -5230178.38345
                  22263850.8134                                   22263845.9694
                                                                        46.7504
        31.2504
 -19545003.73848 -15152612.14846
                  22116244.8834                                   22116241.3634
                                                                        49.7504
        38.5004
  -3376581.16447  -2593198.31644
                  23677603.9144                                   23677599.0904
                                                                        42.5004
        25.2504
  -5427423.02747  -4184072.23844
                  23185167.2034                                   23185163.4024
                                                                        43.7504
        29.7504
 09 10 19  0 54 30.0000000  0  9G02G04G05G10G25G13G29G16G07
  -4245720.20748  -3253833.23846
                  21730348.7114                                   21730342.3754
                                                                        49.0004
        38.5004
   9700451.95746   7576827.37143
                  24699796.5704                                   24699793.9064
                                                                        37.5004
        21.0004
 -25829122.95348 -20114519.25047
                  21090249.8984                                   21090245.9264
                                                                        50.7504
        42.5004
 -26300815.88748 -20408894.13746
                  20610211.2274                                   20610207.3754
                                                                        52.0004
        41.0004
 -14369823.29747 -11154089.88745
                  22595267.4384                                   22595263.4344
                                                                        45.0004
        31.5004
  -6805088.01247  -5240585.48045
                  22261309.2424                                   22261304.4384
                                                                        46.5004
        31.0004
 -19623454.75048 -15213742.78546
                  22101316.2894                                   22101312.8444
                                                                        49.2504
        38.0004
  -3481502.87547  -2674955.51244
                  23657637.9304                                   23657633.3134
                                                                        43.5004
        25.7504
  -5583954.51647  -4306044.79344
                  23155379.9454                                   23155375.7464
                                                                        43.7504
        29.2504
 09 10 19  0 55  0.0000000  0  9G02G04G05G10G25G13G29G16G07
  -4253587.05548  -3259963.28946
                  21728851.5474                                   21728845.9804
                                                                        49.2504
        38.7504
   9728286.33646   7598516.46144
                  24705093.7664                                   24705090.5164
                                                                        41.5004
        24.2504
 -25970727.46948 -20224860.40647
                  21063302.8834                                   21063299.0824
                                                                        51.7504
        42.7504
 -26421317.23048 -20502791.26646
                  20587280.7584                                   20587276.6954
                                                                        52.2504
        41.5004
 -14469644.86747 -11231872.93745
                  22576272.4304                                   22576268.2504
                                                                        45.0004
        30.2504
  -6817951.83647  -5250609.22745
                  22258861.2344                                   22258856.8554
                                                                        46.5004
        30.0004
 -19701278.66448 -15274384.78146
                  22086507.0554                                   22086503.0784
                                                                        49.2504
        38.7504
  -3585800.25047  -2756226.18444
                  23637791.0944                                   23637786.2194
                                                                        43.5004
        24.5004
  -5739988.51247  -4427629.71944
                  23125687.7194                                   23125683.4964
                                                                        44.0004
        29.2504
 09 10 19  0 55 30.0000000  0  9G02G04G05G10G25G13G29G16G07
  -4261004.87948  -3265743.45346
                  21727439.9614                                   21727433.9574
                                                                        49.0004
        37.7504
   9756224.77047   7620286.64544
                  24710410.6954                                   24710407.8794
                                                                        42.2504
        25.2504
 -26111835.17648 -20334814.47347
                  21036451.6804                                   21036447.3554
                                                                        51.7504
        42.7504
 -26541243.24648 -20596240.10246
                  20564459.3834                                   20564456.0274
                                                                        52.0004
        41.2504
 -14568859.61747 -11309183.14145
                  22557392.4774                                   22557388.5594
                                                                        46.0004
        31.5004
  -6830323.40647  -5260249.41844
                  22256506.8284                                   22256502.2664
                                                                        46.7504
        29.5004
 -19778471.71948 -15334535.16446
                  22071817.3984                                   22071814.1684
                                                                        50.0004
        39.0004
  -3689468.96947  -2837006.95344
                  23618063.4384                                   23618058.7464
                                                                        42.7504
        26.2504
  -5895519.71547  -4548822.85545
                  23096091.6724                                   23096086.4844
                                                                        43.2504
        30.0004
 09 10 19  0 56  0.0000000  0  9G02G04G05G10G25G13G29G16G07
  -4267976.39148  -3271175.83246
                  21726113.1024                                   21726107.0864
                                                                        48.7504
        37.7504
   9784264.83247   7642136.04344
                  24715746.1724                                   24715743.7154
                                                                        42.2504
        24.5004
 -26252445.91848 -20444381.28147
                  21009693.8594                                   21009689.6804
                                                                        52.0004
        43.0004
 -26660593.59848 -20689240.37146
                  20541747.8594                                   20541743.6914
                                                                        51.5004
        41.5004
 -14667468.28947 -11386021.07045
                  22538628.2664                                   22538623.7894
                                                                        45.5004
        31.0004
  -6842205.53947  -5269508.23045
                  22254246.0554                                   22254241.6644
                                                                        46.5004
        31.0004
 -19855035.98848 -15394195.61346
                  22057247.8594                                   22057244.3164
                                                                        50.7504
        39.0004
  -3792510.38747  -2917298.97744
                  23598454.9064                                   23598450.6524
                                                                        44.0004
        26.5004
  -6050546.66047  -4669623.07444
                  23066590.9224                                   23066585.6644
                                                                        44.2504
        29.0004
 09 10 19  0 56 30.0000000  0  8G02G05G10G25G13G29G16G07
  -4274510.10548  -3276267.08646
                  21724869.8284                                   21724864.2664
                                                                        48.5004
        38.5004
 -26392565.28948 -20553565.20747
                  20983030.2424                                   20983026.0904
                                                                        52.0004
        42.5004
 -26779374.40248 -20781796.86346
                  20519144.4774                                   20519140.7424
                                                                        51.7504
        40.7504
 -14765477.06247 -11462391.53545
                  22519977.3594                                   22519973.5004
                                                                        44.7504
        31.0004
  -6853608.77347  -5278393.84445
                  22252075.4614                                   22252071.3244
                                                                        46.0004
        30.0004
 -19930978.20748 -15453371.35946
                  22042796.5004                                   22042792.6414
                                                                        49.2504
        38.5004
  -3894930.06247  -2997106.46944
                  23578965.4064                                   23578961.0784
                                                                        43.5004
        24.7504
  -6205073.43447  -4790033.56645
                  23037185.0004                                   23037180.5984
                                                                        44.2504
        30.5004
 09 10 19  0 57  0.0000000  0  8G02G05G10G25G13G29G16G07
  -4280603.12948  -3281014.91446
                  21723710.6724                                   21723704.9304
                                                                        49.0004
        37.5004
 -26532186.46148 -20662360.90647
                  20956461.2424                                   20956456.8364
                                                                        51.7504
        42.7504
 -26897579.84448 -20873904.95746
                  20496650.7504                                   20496646.9264
                                                                        52.0004
        41.2504
 -14862880.35247 -11538290.17645
                  22501442.1884                                   22501438.1214
                                                                        45.7504
        30.7504
  -6864528.70747  -5286902.87945
                  22249998.0084                                   22249993.7424
                                                                        46.2504
        31.0004
 -20006293.62148 -15512058.69146
                  22028464.3364                                   22028460.7304
                                                                        49.7504
        38.7504
  -3996722.32047  -3076425.07844
                  23559594.6484                                   23559590.6724
                                                                        42.5004
        26.2504
  -6359092.27047  -4910048.24245
                  23007876.1564                                   23007872.2894
                                                                        43.5004
        30.0004
 09 10 19  0 57 30.0000000  0  8G02G05G10G25G13G29G16G07
  -4286253.66448  -3285417.93446
                  21722635.4774                                   21722629.5044
                                                                        48.5004
        37.7504
 -26671304.16448 -20770764.30547
                  20929988.0164                                   20929984.0314
                                                                        51.7504
        42.2504
 -27015205.44948 -20965561.25046
                  20474267.3594                                   20474263.6024
                                                                        51.7504
        41.0004
 -14959674.33247 -11613714.05545
                  22483022.6724                                   22483018.8754
                                                                        45.7504
        30.5004
  -6874965.86747  -5295035.73045
                  22248011.5084                                   22248007.3874
                                                                        46.0004
        30.0004
 -20080979.13748 -15570255.20346
                  22014252.0554                                   22014248.8054
                                                                        49.5004
        39.0004
  -4097883.31647  -3155251.83644
                  23540343.8674                                   23540340.1684
                                                                        43.5004
        25.7504
  -6512597.50847  -5029662.68745
                  22978665.6804                                   22978660.5514
                                                                        43.5004
        31.0004
 09 10 19  0 58  0.0000000  0  8G02G05G10G25G13G29G16G07
  -4291459.14548  -3289474.16046
                  21721644.8284                                   21721638.8674
                                                                        48.0004
        37.5004
 -26809912.99248 -20878771.17247
                  20903611.4384                                   20903607.4694
                                                                        52.0004
        42.0004
 -27132245.54348 -21056761.32446
                  20451995.4924                                   20451991.5824
                                                                        52.0004
        41.2504
 -15055853.54347 -11688658.88745
                  22464720.6484                                   22464716.4344
                                                                        45.0004
        30.5004
  -6884917.32447  -5302790.07845
                  22246118.0234                                   22246113.5234
                                                                        45.5004
        30.2504
 -20155030.05948 -15627957.21946
                  22000160.8594                                   22000157.2154
                                                                        49.7504
        38.7504
  -4198407.07047  -3233582.00844
                  23521215.2584                                   23521211.4844
                                                                        42.0004
        25.2504
  -6665581.40247  -5148870.92645
                  22949553.1484                                   22949549.0124
                                                                        43.5004
        30.5004
 09 10 19  0 58 30.0000000  0  8G02G05G10G25G13G29G16G07
  -4296223.96148  -3293187.00846
                  21720738.0394                                   21720732.0554
                                                                        49.0004
        37.0004
 -26948013.48048 -20986381.91847
                  20877331.7894                                   20877328.2464
                                                                        52.0004
        42.5004
 -27248701.79748 -21147506.47746
                  20429834.5704                                   20429830.7154
                                                                        52.5004
        41.0004
 -15151420.68047 -11763126.83245
                  22446534.7344                                   22446530.4104
                                                                        45.7504
        30.7504
  -6894387.08647  -5310169.10944
                  22244315.7274                                   22244311.6214
                                                                        46.0004
        29.0004
 -20228449.14848 -15685166.87946
                  21986189.7274                                   21986186.2624
                                                                        50.0004
        38.7504
  -4298295.82447  -3311417.37544
                  23502207.4534                                   23502203.2814
                                                                        42.7504
        25.5004
  -6818044.30547  -5267673.18445
                  22920541.0554                                   22920536.0514
                                                                        44.5004
        30.2504
 09 10 19  0 59  0.0000000  0  8G02G05G10G25G13G29G16G07
  -4300551.52348  -3296559.11346
                  21719914.4774                                   21719908.3054
                                                                        48.0004
        37.2504
 -27085605.98448 -21093596.86347
                  20851149.0944                                   20851145.2274
                                                                        51.7504
        42.7504
 -27364575.35548 -21237797.56646
                  20407784.5394                                   20407780.8714
                                                                        52.5004
        41.2504
 -15246376.30547 -11837118.23445
                  22428465.2664                                   22428461.4184
                                                                        44.5004
        30.7504
  -6903380.46547  -5317176.92244
                  22242604.4614                                   22242600.2974
                                                                        45.7504
        29.2504
 -20301238.72748 -15741886.02746
                  21972337.9454                                   21972334.5664
                                                                        50.0004
        39.5004
  -4397550.57047  -3388758.71544
                  23483319.3204                                   23483315.0984
                                                                        43.0004
        26.7504
  -6969985.12547  -5386068.57045
                  22891627.2734                                   22891623.0274
                                                                        43.7504
        30.5004
 09 10 19  0 59 30.0000000  0  8G02G05G10G25G13G29G16G07
  -4304447.25048  -3299594.72746
                  21719173.2114                                   21719167.1174
                                                                        48.5004
        38.0004
 -27222692.68048 -21200417.65247
                  20825062.2734                                   20825058.3404
                                                                        52.5004
        42.5004
 -27479868.79748 -21327636.64146
                  20385845.2194                                   20385841.3714
                                                                        53.0004
        41.5004
 -15340723.77047 -11910635.73045
                  22410511.6804                                   22410507.4344
                                                                        45.5004
        30.7504
  -6911901.62547  -5323816.77344
                  22240983.3524                                   22240978.1764
                                                                        45.5004
        29.5004
 -20373402.91448 -15798117.83246
                  21958605.6024                                   21958602.0514
                                                                        50.2504
        39.0004
  -4496174.84447  -3465608.85944
                  23464551.8914                                   23464547.5394
                                                                        42.0004
        26.0004
  -7121404.92647  -5504058.02045
                  22862812.8284                                   22862809.1374
                                                                        43.5004
        30.2504
 09 10 19  1  0  0.0000000  0  8G02G05G10G25G13G29G16G07
  -4307920.09448  -3302300.85246
                  21718512.3754                                   21718506.4264
                                                                        48.5004
        38.0004
 -27359278.82448 -21306848.44147
                  20799070.7274                                   20799066.7704
                                                                        53.0004
        42.5004
 -27594587.70748 -21417028.02046
                  20364014.9534                                   20364010.8834
                                                                        53.0004
        41.2504
 -15434469.56247 -11983684.37945
                  22392672.6564                                   22392668.6454
                                                                        45.7504
        32.0004
  -6919962.68747  -5330098.10944
                  22239448.8284                                   22239444.0634
                                                                        45.5004
        29.2504
 -20444947.41848 -15853866.75846
                  21944991.3284                                   21944987.5944
                                                                        50.2504
        38.5004
  -4594173.56246  -3541971.48844
                  23445903.7114                                   23445898.7894
                                                                        41.5004
        26.0004
  -7272308.27747  -5621645.03545
                  22834097.0314                                   22834093.2234
                                                                        44.5004
        31.0004
 09 10 19  1  0 30.0000000  0  8G02G05G10G25G13G29G16G07
  -4310971.24647  -3304678.41446
                  21717931.3594                                   21717926.1054
                                                                        47.7504
        38.0004
 -27495362.50848 -21412887.66047
                  20773174.8364                                   20773170.9694
                                                                        52.2504
        42.7504
 -27708730.90248 -21505970.75446
                  20342294.3284                                   20342290.2624
                                                                        52.7504
        41.0004
 -15527612.66047 -12056263.36745
                  22374948.5784                                   22374944.0664
                                                                        45.5004
        32.2504
  -6927563.51647  -5336020.84844
                  22238002.1884                                   22237997.9884
                                                                        44.7504
        29.2504
 -20515874.22348 -15909134.37546
                  21931494.1644                                   21931491.1954
                                                                        50.0004
        39.2504
  -4691547.09446  -3617846.94144
                  23427373.9774                                   23427369.4964
                                                                        41.5004
        25.7504
  -7422691.60547  -5738826.78145
                  22805479.8284                                   22805475.5354
                                                                        44.5004
        31.0004
 09 10 19  1  1  0.0000000  0  8G02G05G10G25G13G29G16G07
  -4313603.84048  -3306729.76246
                  21717430.6884                                   21717425.0634
                                                                        48.2504
        37.7504
 -27630943.17248 -21518534.94147
                  20747374.6414                                   20747370.7774
                                                                        51.7504
        43.0004
 -27822298.63748 -21594465.12146
                  20320683.2424                                   20320678.9534
                                                                        52.2504
        41.5004
 -15620153.85547 -12128373.37945
                  22357337.6414                                   22357333.7664
                                                                        45.2504
        31.5004
  -6934706.34047  -5341586.69144
                  22236643.3364                                   22236639.2774
                                                                        44.5004
        29.5004
 -20586183.53548 -15963920.84046
                  21918114.5314                                   21918111.5234
                                                                        50.2504
        38.0004
  -4788295.13346  -3693235.03944
                  23408963.6884                                   23408958.8874
                                                                        41.2504
        26.5004
  -7572554.25047  -5855602.82045
                  22776962.1954                                   22776957.7234
                                                                        44.7504
        31.2504
 09 10 19  1  1 30.0000000  0  8G02G05G10G25G13G29G16G07
  -4315819.77348  -3308456.48446
                  21717009.0474                                   21717003.4104
                                                                        48.2504
        37.5004
 -27766019.93748 -21623789.55147
                  20721670.4774                                   20721666.6054
                                                                        52.5004
        42.5004
 -27935289.87948 -21682510.23046
                  20299181.4924                                   20299177.3324
                                                                        53.0004
        41.5004
 -15712093.13347 -12200014.36345
                  22339842.1254                                   22339837.9734
                                                                        44.5004
        31.2504
  -6941396.93747  -5346800.14144
                  22235369.9774                                   22235365.7624
                                                                        44.0004
        29.5004
 -20655875.97348 -16018226.62146
                  21904852.7734                                   21904849.5354
                                                                        50.0004
        38.7504
  -4884417.41846  -3768135.50444
                  23390671.1724                                   23390667.2584
                                                                        41.2504
        25.2504
  -7721894.48047  -5971971.83245
                  22748543.7734                                   22748539.1454
                                                                        44.5004
        30.2504
 09 10 19  1  2  0.0000000  0  8G02G05G10G25G13G29G16G07
  -4317619.51248  -3309858.90246
                  21716666.6414                                   21716660.7624
                                                                        48.0004
        37.2504
 -27900589.90648 -21728649.27047
                  20696062.5784                                   20696058.6414
                                                                        52.0004
        42.5004
 -28047703.14548 -21770105.00046
                  20277789.6334                                   20277786.1374
                                                                        52.5004
        41.7504
 -15803428.05147 -12271184.43445
                  22322462.1254                                   22322458.1724
                                                                        45.7504
        31.2504
  -6947632.48447  -5351659.00844
                  22234183.6804                                   22234179.3364
                                                                        44.5004
        29.7504
 -20724950.44148 -16072050.86746
                  21891708.3134                                   21891705.0474
                                                                        49.5004
        38.7504
  -4979911.55546  -3842546.50044
                  23372500.0704                                   23372495.9264
                                                                        41.5004
        24.2504
  -7870706.43447  -6087929.19545
                  22720225.5394                                   22720220.7304
                                                                        45.0004
        31.5004
 09 10 19  1  2 30.0000000  0  8G02G05G10G25G13G29G16G07
  -2743585.03947  -2083338.55946
                  22016195.8674                                   22016189.5314
                                                                        47.7504
        37.5004
 -26459227.08248 -20605509.42247
                  20970344.8754                                   20970340.6684
                                                                        52.0004
        42.7504
 -26584113.87548 -20629645.80946
                  20556301.5004                                   20556297.6094
                                                                        52.5004
        41.7504
 -14318735.91047 -11114281.42645
                  22604989.5314                                   22604985.5044
                                                                        45.0004
        31.2504
  -5377998.27747  -4128567.41844
                  22532874.7814                                   22532870.8834
                                                                        44.0004
        29.5004
 -19217985.88748 -14897792.76646
                  22178474.4774                                   22178470.4224
                                                                        49.0004
        38.5004
  -3499354.69546  -2688865.80144
                  23654240.8524                                   23654236.4694
                                                                        40.5004
        26.5004
  -6443563.75847  -4975869.91045
                  22991801.9064                                   22991796.8364
                                                                        45.2504
        30.0004
 09 10 19  1  3  0.0000000  0  8G02G05G10G25G13G29G16G07
  -2744558.36348  -2084096.96946
                  22016010.1954                                   22016004.4304
                                                                        48.0004
        37.5004
 -26592779.18048 -20709576.03147
                  20944930.6564                                   20944926.8364
                                                                        52.5004
        43.0004
 -26695368.49248 -20716337.72746
                  20535130.3834                                   20535126.7934
                                                                        52.2504
        41.5004
 -14408862.56647 -11184509.95345
                  22587838.7034                                   22587834.9384
                                                                        45.0004
        31.5004
  -5383336.27047  -4132726.85544
                  22531859.3134                                   22531854.6454
                                                                        44.0004
        28.7504
 -19285826.62148 -14950655.66846
                  22165564.6484                                   22165560.9534
                                                                        49.5004
        38.7504
  -3593592.51646  -2762297.83644
                  23636307.3594                                   23636303.6134
                                                                        40.2504
        26.2504
  -6591314.28547  -5091000.18745
                  22963685.8834                                   22963681.3444
                                                                        45.7504
        31.0004
 09 10 19  1  3 30.0000000  0  8G02G05G10G25G13G29G16G07
  -2745121.78148  -2084536.03546
                  22015902.9844                                   22015897.1294
                                                                        48.0004
        36.5004
 -26725820.37148 -20813244.45347
                  20919614.1884                                   20919609.9964
                                                                        52.7504
        42.7504
 -26806042.76648 -20802577.39847
                  20514069.9144                                   20514065.8984
                                                                        52.2504
        42.2504
 -14498385.06647 -11254267.74245
                  22570803.6174                                   22570799.2894
                                                                        44.5004
        31.0004
  -5388228.68447  -4136539.14544
                  22530928.5314                                   22530923.9844
                                                                        45.0004
        29.5004
 -19353051.93448 -15003039.00446
                  22152772.1804                                   22152768.5434
                                                                        50.0004
        38.7504
  -3687202.17647  -2835240.41444
                  23618494.3054                                   23618490.0234
                                                                        42.2504
        25.2504
  -6738530.71547  -5205714.29345
                  22935671.4774                                   22935666.6334
                                                                        45.2504
        30.7504
 09 10 19  1  4  0.0000000  0  8G02G05G10G25G13G29G16G07
  -2745277.99647  -2084657.76646
                  22015873.4224                                   22015867.7734
                                                                        46.7504
        36.7504
 -26858350.23048 -20916514.49647
                  20894394.4454                                   20894389.9304
                                                                        52.7504
        42.5004
 -26916136.66448 -20888364.83246
                  20493119.7504                                   20493116.1884
                                                                        51.5004
        41.7504
 -14587303.60547 -11323554.89845
                  22553882.7814                                   22553878.5944
                                                                        44.5004
        31.5004
  -5392678.40647  -4140006.44944
                  22530081.7584                                   22530077.2074
                                                                        43.5004
        29.0004
 -19419662.37948 -15054943.20746
                  22140096.1954                                   22140092.8984
                                                                        49.5004
        38.7504
  -3780183.51647  -2907693.38744
                  23600800.8054                                   23600796.2234
                                                                        42.0004
        26.5004
  -6885211.45747  -5320010.95345
                  22907759.0234                                   22907754.3094
                                                                        45.0004
        31.0004
 09 10 19  1  4 30.0000000  0  8G02G05G10G25G13G29G16G07
  -2745029.75448  -2084464.34846
                  22015920.4694                                   22015914.7344
                                                                        48.0004
        37.0004
 -26990368.62948 -21019386.01247
                  20869272.0314                                   20869267.8094
                                                                        53.0004
        42.7504
 -27025650.73048 -20973700.46546
                  20472279.9454                                   20472276.2114
                                                                        52.0004
        41.7504
 -14675619.28147 -11392372.32445
                  22537076.4614                                   22537072.6334
                                                                        45.5004
        32.0004
  -5396689.80947  -4143132.22344
                  22529318.3444                                   22529313.9534
                                                                        43.7504
        28.5004
 -19485659.81648 -15106369.73446
                  22127537.6804                                   22127534.4024
                                                                        50.0004
        38.7504
  -3872537.50447  -2979657.52044
                  23583226.6644                                   23583222.0704
                                                                        42.0004
        26.7504
  -7031355.29747  -5433889.24645
                  22879948.5554                                   22879944.4494
                                                                        45.5004
        31.7504
 09 10 19  1  5  0.0000000  0  8G02G05G10G25G13G29G16G07
  -2744380.51247  -2083958.47346
                  22016044.2974                                   22016038.1994
                                                                        47.7504
        36.2504
 -27121875.28548 -21121858.74247
                  20844247.2034                                   20844242.8284
                                                                        53.0004
        43.0004
 -27134584.85248 -21058584.20346
                  20451550.4694                                   20451546.6644
                                                                        52.2504
        41.7504
 -14763332.69147 -11460720.39845
                  22520385.2974                                   22520381.1954
                                                                        45.0004
        31.5004
  -5400265.49647  -4145918.47744
                  22528637.4534                                   22528633.6954
                                                                        43.5004
        28.7504
 -19551045.90248 -15157319.88746
                  22115094.9774                                   22115091.2154
                                                                        49.5004
        38.5004
  -3964264.23846  -3051132.89544
                  23565771.6954                                   23565766.9144
                                                                        41.2504
        27.0004
  -7176960.76247  -5547348.02745
                  22852240.7734                                   22852236.6484
                                                                        46.0004
        32.0004
 09 10 19  1  5 30.0000000  0  8G02G05G10G25G13G29G16G07
  -2743327.69148  -2083138.09446
                  22016244.9924                                   22016238.6914
                                                                        48.2504
        36.5004
 -27252864.89548 -21223928.56647
                  20819320.8674                                   20819316.6994
                                                                        53.0004
        42.5004
 -27242934.98848 -21143012.86746
                  20430931.6644                                   20430928.2974
                                                                        52.2504
        41.2504
 -14850440.07047 -11528596.31245
                  22503809.0234                                   22503805.5784
                                                                        44.7504
        31.7504
  -5403404.21147  -4148364.23844
                  22528040.4774                                   22528036.0434
                                                                        43.2504
        29.0004
 -19615817.11348 -15207790.90646
                  22102769.6094                                   22102766.0474
                                                                        50.0004
        38.5004
  -4055360.09447  -3122116.66044
                  23548436.3754                                   23548432.1094
                                                                        42.5004
        27.7504
  -7322021.51247  -5660382.34045
                  22824636.9774                                   22824632.5704
                                                                        46.5004
        32.2504
 09 10 19  1  6  0.0000000  0  8G02G05G10G25G13G29G16G07
  -2741872.64847  -2082004.34846
                  22016521.6024                                   22016515.6094
                                                                        47.7504
        36.2504
 -27383335.02048 -21325593.61347
                  20794493.1334                                   20794488.9104
                                                                        52.2504
        43.2504
 -27350699.50848 -21226985.21147
                  20410424.9454                                   20410421.4344
                                                                        52.7504
        42.0004
 -14936939.64847 -11595998.62545
                  22487349.3284                                   22487344.8164
                                                                        45.0004
        31.7504
  -5406106.81647  -4150470.16044
                  22527526.0554                                   22527521.9344
                                                                        44.5004
        28.5004
 -19679973.49248 -15257782.89546
                  22090560.8524                                   22090557.1684
                                                                        50.0004
        39.0004
  -4145823.41047  -3192607.57444
                  23531221.5314                                   23531217.0474
                                                                        43.0004
        26.2504
  -7466534.30147  -5772989.68445
                  22797137.1334                                   22797132.3484
                                                                        45.0004
        31.5004
 09 10 19  1  6 30.0000000  0  8G02G05G10G25G13G29G16G07
  -2740021.20748  -2080561.68046
                  22016873.7504                                   22016867.9654
                                                                        48.5004
        36.2504
 -27513287.96548 -21426855.63747
                  20769763.6564                                   20769759.6334
                                                                        52.5004
        42.5004
 -27457881.23448 -21310503.40246
                  20390028.9534                                   20390025.1564
                                                                        52.2504
        41.5004
 -15022835.89547 -11662930.77045
                  22471003.6414                                   22470999.6994
                                                                        45.2504
        31.2504
  -5408380.80947  -4152242.10944
                  22527093.6804                                   22527088.8484
                                                                        44.5004
        28.0004
 -19743518.66048 -15307298.60946
                  22078468.5634                                   22078464.7584
                                                                        50.0004
        38.5004
  -4235657.78547  -3262608.39544
                  23514126.8834                                   23514122.4064
                                                                        42.0004
        26.5004
  -7610500.80147  -5885171.35945
                  22769740.5944                                   22769736.6884
                                                                        45.5004
        32.0004
 09 10 19  1  7  0.0000000  0  8G02G05G10G25G13G29G16G07
  -2737774.30947  -2078810.88746
                  22017301.3054                                   22017295.4264
                                                                        47.5004
        36.7504
 -27642721.37948 -21527712.84447
                  20745133.3914                                   20745129.3524
                                                                        52.5004
        43.0004
 -27564478.34848 -21393566.09046
                  20369744.3134                                   20369740.6994
                                                                        53.0004
        41.7504
 -15108126.96147 -11729391.33245
                  22454773.1644                                   22454769.1564
                                                                        45.0004
        31.7504
  -5410226.66447  -4153680.43444
                  22526741.9534                                   22526737.6414
                                                                        44.2504
        28.0004
 -19806452.68048 -15356338.12946
                  22066492.8284                                   22066488.5164
                                                                        50.0004
        38.0004
  -4324861.65247  -3332117.93044
                  23497152.3054                                   23497147.3484
                                                                        42.5004
        26.7504
  -7753917.28147  -5996924.44945
                  22742449.4064                                   22742445.4454
                                                                        46.5004
        31.5004
 09 10 19  1  7 30.0000000  0  8G02G05G10G25G13G29G16G07
  -2735134.96947  -2076754.27746
                  22017803.4304                                   22017797.7344
                                                                        47.0004
        36.7504
 -27771635.80148 -21628165.64547
                  20720601.9844                                   20720597.6294
                                                                        52.7504
        43.0004
 -27670492.05148 -21476174.16046
                  20349570.4144                                   20349566.9964
                                                                        52.5004
        41.5004
 -15192814.41847 -11795381.54345
                  22438657.9694                                   22438653.6994
                                                                        44.7504
        31.2504
  -5411648.14547  -4154788.03144
                  22526471.7114                                   22526467.3484
                                                                        43.0004
        28.5004
 -19868778.27348 -15404903.53946
                  22054632.7814                                   22054628.5274
                                                                        49.0004
        38.5004
  -4413437.24247  -3401137.91844
                  23480297.0084                                   23480292.4804
                                                                        43.0004
        26.5004
  -7896782.80147  -6108248.21945
                  22715263.5634                                   22715258.7894
                                                                        46.5004
        32.0004
 09 10 19  1  8  0.0000000  0  8G02G05G10G25G13G29G16G07
  -2732104.18448  -2074392.66046
                  22018380.0944                                   22018374.7664
                                                                        48.2504
        36.2504
 -27900028.32048 -21728211.77347
                  20696169.8134                                   20696165.8164
                                                                        52.5004
        43.5004
 -27775920.14548 -21558325.91446
                  20329508.2814                                   20329504.7384
                                                                        51.7504
        41.2504
 -15276897.19547 -11860900.60245
                  22422657.3284                                   22422652.8834
                                                                        46.2504
        31.5004
  -5412646.97347  -4155566.34844
                  22526281.6954                                   22526277.0664
                                                                        44.2504
        28.0004
 -19930494.00848 -15452993.71546
                  22042888.6724                                   22042884.6134
                                                                        49.5004
        38.5004
  -4501382.16047  -3469666.41044
                  23463561.7734                                   23463556.7774
                                                                        43.5004
        27.2504
  -8039094.62547  -6219140.56645
                  22688182.4924                                   22688177.7734
                                                                        45.7504
        32.0004
 09 10 19  1  8 30.0000000  0  8G02G05G10G25G13G29G16G07
  -2728687.22747  -2071730.10245
                  22019030.4384                                   22019024.6094
                                                                        47.5004
        35.2504
 -28027901.19948 -21827852.98447
                  20671836.2504                                   20671832.4414
                                                                        52.5004
        42.7504
 -27880765.55148 -21640023.63746
                  20309556.9694                                   20309552.7034
                                                                        51.5004
        41.7504
 -15360378.05147 -11925950.57845
                  22406771.4064                                   22406767.3484
                                                                        45.0004
        30.7504
  -5413228.34847  -4156019.36344
                  22526170.9774                                   22526166.9064
                                                                        44.0004
        27.7504
 -19991604.17248 -15500612.02746
                  22031259.2424                                   22031255.9104
                                                                        49.5004
        38.2504
  -4588699.71147  -3537706.02744
                  23446945.1724                                   23446940.6914
                                                                        43.0004
        26.2504
  -8180852.83247  -6329601.48845
                  22661206.1644                                   22661201.8404
                                                                        45.5004
        31.2504
 09 10 19  1  9  0.0000000  0  8G02G05G10G25G13G29G16G07
  -2724883.70748  -2068766.32046
                  22019754.4144                                   22019748.3954
                                                                        48.2504
        36.2504
 -28155250.53548 -21927086.20747
                  20647602.5234                                   20647598.2734
                                                                        52.2504
        42.7504
 -27985025.50848 -21721265.16446
                  20289717.2194                                   20289712.9774
                                                                        52.0004
        41.5004
 -15443254.98847 -11990529.98445
                  22391000.8054                                   22390996.7154
                                                                        45.5004
        31.0004
  -5413392.76247  -4156147.48844
                  22526139.6094                                   22526136.0004
                                                                        44.2504
        28.5004
 -20052107.24648 -15547757.32046
                  22019746.2344                                   22019742.5864
                                                                        48.5004
        38.0004
  -4675387.34047  -3605254.82844
                  23430449.2974                                   23430444.2074
                                                                        43.0004
        26.7504
  -8322053.41847  -6439627.89845
                  22634336.7274                                   22634332.5984
                                                                        46.2504
        31.2504
 09 10 19  1  9 30.0000000  0  8G02G05G10G25G13G29G16G07
  -2720693.80948  -2065501.48845
                  22020551.6414                                   22020545.6484
                                                                        48.0004
        35.5004
 -28282073.82848 -22025909.54347
                  20623468.9924                                   20623464.7774
                                                                        53.2504
        43.2504
 -28088697.17648 -21802048.28947
                  20269989.0634                                   20269984.9144
                                                                        52.0004
        42.0004
 -15525526.12547 -12054637.31645
                  22375344.6564                                   22375341.1884
                                                                        46.0004
        31.5004
  -5413140.65247  -4155951.05144
                  22526187.6024                                   22526183.4534
                                                                        44.2504
        27.5004
 -20112001.57848 -15594428.25446
                  22008348.5084                                   22008344.8674
                                                                        49.0004
        38.0004
  -4761442.73847  -3672310.92644
                  23414073.0234                                   23414068.9654
                                                                        43.2504
        27.0004
  -8462692.23047  -6549216.59045
                  22607574.2664                                   22607569.3204
                                                                        46.7504
        32.2504
 09 10 19  1 10  0.0000000  0  8G02G05G10G25G13G29G16G07
  -2716122.24248  -2061939.25846
                  22021421.5704                                   22021415.3714
                                                                        48.0004
        36.2504
 -28408372.66048 -22124324.23047
                  20599434.8984                                   20599430.6134
                                                                        52.7504
        43.5004
 -28191783.17648 -21882375.04746
                  20250372.2344                                   20250368.2664
                                                                        52.0004
        41.5004
 -15607194.36747 -12118274.92245
                  22359803.6884                                   22359799.8984
                                                                        45.2504
        31.0004
  -5412477.42647  -4155434.24644
                  22526314.1094                                   22526309.5204
                                                                        44.7504
        27.0004
 -20171292.23048 -15640628.79746
                  21997065.9384                                   21997062.3284
                                                                        48.2504
        38.0004
  -4846869.78547  -3738877.42244
                  23397817.3594                                   23397812.2814
                                                                        43.5004
        26.0004
  -8602769.64547  -6658367.80945
                  22580918.6254                                   22580914.1644
                                                                        46.0004
        31.5004
 09 10 19  1 10 30.0000000  0  8G02G05G10G25G13G29G16G07
  -2711168.27747  -2058079.09446
                  22022364.4144                                   22022359.0204
                                                                        47.5004
        36.2504
 -28534141.73448 -22222326.07847
                  20575501.8364                                   20575497.6374
                                                                        52.2504
        43.2504
 -28294279.27748 -21962242.14846
                  20230868.0234                                   20230863.9304
                                                                        53.0004
        41.2504
 -15688256.38747 -12181440.11345
                  22344377.9064                                   22344374.1644
                                                                        46.5004
        31.0004
  -5411402.14547  -4154596.31244
                  22526518.7894                                   22526514.0204
                                                                        43.5004
        27.0004
 -20229974.96948 -15686355.63746
                  21985898.9614                                   21985895.2544
                                                                        48.2504
        38.0004
  -4931663.87947  -3804950.69944
                  23381681.0164                                   23381676.4654
                                                                        43.0004
        26.0004
  -8742280.83647  -6767077.76645
                  22554370.0944                                   22554365.9694
                                                                        46.2504
        32.5004
 09 10 19  1 11  0.0000000  0  8G02G05G10G25G13G29G16G07
  -1130414.46947   -826322.94145
                  22323171.8834                                   22323166.0164
                                                                        47.0004
        35.5004
 -27083956.83248 -21092311.84847
                  20851462.7274                                   20851458.5824
                                                                        53.0004
        43.0004
 -26820762.63748 -20814047.37946
                  20511268.7274                                   20511264.9454
                                                                        52.2504
        41.7504
 -14193290.14147 -11016531.34045
                  22628860.5084                                   22628856.3284
                                                                        46.0004
        31.2504
  -3834497.93747  -2925839.75444
                  22826593.6724                                   22826588.8444
                                                                        45.2504
        27.2504
 -18712630.36348 -14504009.23446
                  22274640.2664                                   22274636.4774
                                                                        48.7504
        38.0004
  -3440403.48047  -2642929.58244
                  23665459.1254                                   23665454.4304
                                                                        42.5004
        27.2504
  -7305799.00847  -5647741.23045
                  22827723.9774                                   22827719.0904
                                                                        46.7504
        31.5004
 09 10 19  1 11 30.0000000  0  8G02G05G10G25G13G29G16G07
  -1124702.96147   -821872.48445
                  22324258.9924                                   22324252.8674
                                                                        47.5004
        34.7504
 -27208665.85948 -21189487.69947
                  20827731.5164                                   20827727.4614
                                                                        52.7504
        43.2504
 -26922080.02748 -20892995.99247
                  20491988.8674                                   20491984.8484
                                                                        52.2504
        42.0004
 -14273142.00447 -11078753.57445
                  22613665.4924                                   22613661.7194
                                                                        46.2504
        31.7504
  -3832608.20347  -2924367.20344
                  22826953.2114                                   22826948.8244
                                                                        44.5004
        28.5004
 -18770103.96148 -14548793.88746
                  22263703.5314                                   22263699.9224
                                                                        48.5004
        37.7504
  -3523934.98447  -2708019.02044
                  23649563.4224                                   23649558.3484
                                                                        44.0004
        27.5004
  -7444172.54347  -5755564.75845
                  22801391.8524                                   22801387.0634
                                                                        46.5004
        31.5004
 09 10 19  1 12  0.0000000  0  8G02G05G10G25G13G29G16G07
  -1118616.80948   -817130.07045
                  22325417.2194                                   22325411.1484
                                                                        48.2504
        35.5004
 -27332843.78548 -21286249.69947
                  20804101.0704                                   20804097.0164
                                                                        52.2504
        43.2504
 -27022807.85548 -20971485.21146
                  20472820.8834                                   20472817.1724
                                                                        52.2504
        41.5004
 -14352389.55547 -11140504.90645
                  22598585.2894                                   22598581.2344
                                                                        45.0004
        31.5004
  -3830315.20747  -2922580.39844
                  22827389.4924                                   22827384.9694
                                                                        43.7504
        28.2504
 -18826974.33647 -14593108.45346
                  22252881.3674                                   22252877.6134
                                                                        47.5004
        38.0004
  -3606835.30147  -2772616.65244
                  23633788.0634                                   23633783.1254
                                                                        42.2504
        25.7504
  -7581974.73447  -5862943.08245
                  22775169.1954                                   22775164.6644
                                                                        46.0004
        33.0004
 09 10 19  1 12 30.0000000  0  8G02G05G10G25G13G29G16G07
  -1112155.35548   -812095.23445
                  22326646.5554                                   22326640.6644
                                                                        48.0004
        35.5004
 -27456487.30548 -21382595.26647
                  20780572.2664                                   20780568.4574
                                                                        52.5004
        43.2504
 -27122943.78948 -21049513.17246
                  20453765.7814                                   20453761.7114
                                                                        52.2504
        41.0004
 -14431031.00447 -11201783.95745
                  22583620.1334                                   22583616.2194
                                                                        45.5004
        31.5004
  -3827619.74647  -2920480.03144
                  22827901.6254                                   22827898.1334
                                                                        43.2504
        27.0004
 -18883240.92648 -14636952.54746
                  22242174.2274                                   22242170.9924
                                                                        48.0004
        39.0004
  -3689103.01247  -2836721.35244
                  23618132.5084                                   23618128.4344
                                                                        43.2504
        26.7504
  -7719201.49647  -5969873.05145
                  22749056.1804                                   22749051.1724
                                                                        46.0004
        32.0004
 09 10 19  1 13  0.0000000  0  8G02G05G10G25G13G29G16G07
  -1105326.21147   -806773.82846
                  22327945.9924                                   22327940.8954
                                                                        47.5004
        36.0004
 -27579600.69148 -21478527.77347
                  20757144.8364                                   20757140.6134
                                                                        52.5004
        42.7504
 -27222492.84448 -21127083.90246
                  20434821.8284                                   20434818.2584
                                                                        52.2504
        41.7504
 -14509071.74247 -11262594.91445
                  22568769.2814                                   22568765.5234
                                                                        45.2504
        30.7504
  -3824529.48847  -2918072.01244
                  22828489.6724                                   22828486.3914
                                                                        43.5004
        28.2504
 -18938909.56648 -14680330.72346
                  22231580.8054                                   22231577.1094
                                                                        48.0004
        38.5004
  -3770742.84847  -2900336.79344
                  23602597.0474                                   23602592.3834
                                                                        43.7504
        26.7504
  -7855856.17647  -6076357.23845
                  22723051.1954                                   22723046.8484
                                                                        46.5004
        31.7504
 09 10 19  1 13 30.0000000  0  8G02G05G10G25G13G29G16G07
  -1098130.38347   -801166.78145
                  22329315.9224                                   22329309.9884
                                                                        46.2504
        35.0004
 -27702181.59848 -21574045.36747
                  20733818.4224                                   20733814.2544
                                                                        52.2504
        43.0004
 -27321453.30148 -21204195.94546
                  20415990.2344                                   20415986.4574
                                                                        52.0004
        41.0004
 -14586510.53147 -11322936.81245
                  22554033.1484                                   22554029.2704
                                                                        46.0004
        30.7504
  -3821045.73847  -2915357.36744
                  22829152.8284                                   22829148.9774
                                                                        42.5004
        26.0004
 -18993980.41447 -14723243.09846
                  22221101.0314                                   22221097.5164
                                                                        47.0004
        38.0004
  -3851754.42647  -2963462.69144
                  23587181.1484                                   23587176.1294
                                                                        42.5004
        26.0004
  -7991934.80147  -6182392.48445
                  22697156.6024                                   22697151.6684
                                                                        46.0004
        32.0004
 09 10 19  1 14  0.0000000  0  8G02G05G10G25G13G29G16G07
  -1090570.70347   -795276.22345
                  22330754.1414                                   22330748.3284
                                                                        46.2504
        34.7504
 -27824229.71148 -21669147.79747
                  20710593.7504                                   20710589.1804
                                                                        52.2504
        43.5004
 -27419825.50848 -21280849.59847
                  20397271.1254                                   20397267.3324
                                                                        52.5004
        42.0004
 -14663348.78147 -11382810.77745
                  22539411.9454                                   22539407.3634
                                                                        46.5004
        31.5004
  -3817171.76247  -2912338.64544
                  22829890.2664                                   22829886.3674
                                                                        45.0004
        28.5004
 -19048454.80547 -14765690.68046
                  22210735.2734                                   22210731.6254
                                                                        47.2504
        38.0004
  -3932137.98447  -3026099.21544
                  23571885.2664                                   23571879.9144
                                                                        42.0004
        27.0004
  -8127436.87147  -6287978.52045
                  22671371.2274                                   22671366.6454
                                                                        46.5004
        32.0004
 09 10 19  1 14 30.0000000  0  8G02G05G10G25G13G29G16G07
  -1082648.05547   -789102.73845
                  22332262.0164                                   22332255.8754
                                                                        46.5004
        34.5004
 -27945743.04748 -21763833.54747
                  20687470.1094                                   20687465.9184
                                                                        51.2504
        43.0004
 -27517608.18048 -21357043.90646
                  20378663.3524                                   20378659.6334
                                                                        53.0004
        41.5004
 -14739585.52047 -11442216.00845
                  22524904.2274                                   22524900.4924
                                                                        47.0004
        30.2504
  -3812908.87947  -2909016.87944
                  22830701.9534                                   22830696.9144
                                                                        43.7504
        26.7504
 -19102332.96548 -14807673.66046
                  22200482.4454                                   22200478.2304
                                                                        48.7504
        38.0004
  -4011893.03547  -3088246.02044
                  23556707.2584                                   23556702.7544
                                                                        42.0004
        26.5004
  -8262359.13747  -6393112.71545
                  22645696.5474                                   22645691.7154
                                                                        47.2504
        32.5004
 09 10 19  1 15  0.0000000  0  8G02G05G10G25G13G29G16G07
  -1074365.37147   -782648.72745
                  22333838.1414                                   22333832.5354
                                                                        47.0004
        35.2504
 -28066720.64548 -21858101.81647
                  20664448.9454                                   20664445.0824
                                                                        51.5004
        43.2504
 -27614801.17248 -21432778.75446
                  20360168.1804                                   20360164.0314
                                                                        52.0004
        41.7504
 -14815221.71947 -11501153.30145
                  22510510.9924                                   22510506.7464
                                                                        47.0004
        30.2504
  -3808260.39547  -2905394.64144
                  22831586.6724                                   22831580.8594
                                                                        44.5004
        25.5004
 -19155616.15647 -14849193.05146
                  22190342.7504                                   22190339.0744
                                                                        47.7504
        38.2504
  -4091020.02347  -3149903.41444
                  23541650.1334                                   23541645.5164
                                                                        42.2504
        26.5004
  -8396700.57047  -6497794.29345
                  22620132.0084                                   22620127.4184
                                                                        47.0004
        33.0004
 09 10 19  1 15 30.0000000  0  8G02G05G10G25G13G29G16G07
  -1065723.70747   -775914.98445
                  22335482.3204                                   22335476.8834
                                                                        47.7504
        35.5004
 -28187160.94148 -21951951.40647
                  20641530.0234                                   20641525.9844
                                                                        52.0004
        43.5004
 -27711403.50448 -21508053.35946
                  20341785.7504                                   20341781.7734
                                                                        52.2504
        41.5004
 -14890256.47347 -11559621.91045
                  22496232.6564                                   22496228.2814
                                                                        46.2504
        30.2504
  -3803227.87546  -2901473.14144
                  22832543.5084                                   22832538.2734
                                                                        41.7504
        26.0004
 -19208305.18747 -14890249.40246
                  22180316.5164                                   22180312.9344
                                                                        47.7504
        38.2504
  -4169518.84046  -3211071.30544
                  23526712.5234                                   23526707.7584
                                                                        41.5004
        26.5004
  -8530457.96547  -6602020.82845
                  22594678.7114                                   22594674.1914
                                                                        46.2504
        32.7504
 09 10 19  1 16  0.0000000  0  8G02G05G10G25G13G29G16G07
  -1056726.48047   -768904.12945
                  22337194.7424                                   22337188.8204
                                                                        46.7504
        33.7504
 -28307064.39848 -22045382.66847
                  20618713.2814                                   20618709.1724
                                                                        52.0004
        43.0004
 -27807416.32848 -21582868.52346
                  20323514.9384                                   20323511.3364
                                                                        52.5004
        41.0004
 -14964692.04347 -11617623.61745
                  22482067.7424                                   22482063.6914
                                                                        45.7504
        31.0004
  -3797815.42246  -2897255.57043
                  22833573.0474                                   22833568.6644
                                                                        40.7504
        23.7504
 -19260402.29748 -14930844.52046
                  22170402.6254                                   22170399.2704
                                                                        48.5004
        38.5004
  -4247391.03946  -3271750.95344
                  23511893.8594                                   23511889.7154
                                                                        40.7504
        27.0004
  -8663631.00847  -6705792.00445
                  22569336.5864                                   22569332.2974
                                                                        46.2504
        32.5004
 09 10 19  1 16 30.0000000  0  8G02G05G10G25G13G29G16G07
  -1047372.61347   -761615.37145
                  22338974.1024                                   22338968.9494
                                                                        47.7504
        34.2504
 -28426426.64148 -22138392.25047
                  20595999.1644                                   20595995.3284
                                                                        52.5004
        43.7504
 -27902836.26248 -21657221.73846
                  20305357.1884                                   20305353.1484
                                                                        52.2504
        41.5004
 -15038524.97747 -11675155.73845
                  22468017.8834                                   22468013.2814
                                                                        47.0004
        30.2504
  -3792021.79347  -2892741.01244
                  22834675.7814                                   22834671.8054
                                                                        42.7504
        26.5004
 -19311905.15648 -14970976.62146
                  22160601.9144                                   22160598.1644
                                                                        48.0004
        38.2504
  -4324633.09447  -3331939.56644
                  23497195.0164                                   23497190.8404
                                                                        44.0004
        27.7504
  -8796214.27747  -6809103.62545
                  22544106.8284                                   22544102.0984
                                                                        46.5004
        32.0004
 09 10 19  1 17  0.0000000  0  8G02G05G10G25G13G29G16G07
  -1037664.00448   -754050.24245
                  22340822.1644                                   22340816.2774
                                                                        48.5004
        34.7504
 -28545245.52048 -22230978.35247
                  20573388.7974                                   20573384.6374
                                                                        51.7504
        43.0004
 -27997662.07048 -21731111.94146
                  20287312.1884                                   20287308.6374
                                                                        52.0004
        41.0004
 -15111755.59047 -11732218.53145
                  22454082.7424                                   22454078.0864
                                                                        45.7504
        30.5004
  -3785849.52747  -2887931.44944
                  22835850.5944                                   22835846.3954
                                                                        44.5004
        27.2504
 -19362813.67648 -15010645.58646
                  22150914.3444                                   22150910.5704
                                                                        48.0004
        38.0004
  -4401244.47347  -3391636.73844
                  23482617.0634                                   23482612.2384
                                                                        42.0004
        26.5004
  -8928205.73447  -6911954.10545
                  22518989.4144                                   22518984.9064
                                                                        46.5004
        32.2504
