     2.11           OBSERVATION DATA    G (GPS)             RINEX VERSION / TYPE
teqc  2019Feb25                         20221121 12:28:25UTCPGM / RUN BY / DATE
OSX ker:10.11.6|Core i5|gcc 4.3 -m64|OSX ker:10.10+|=+      COMMENT
BIT 2 OF LLI FLAGS DATA COLLECTED UNDER A/S CONDITION       COMMENT
04712890                                                    MARKER NAME
2890                                                        MARKER NUMBER
-Unknown-           -Unknown-                               OBSERVER / AGENCY
0220400471          TRIMBLE R7          2.30                REC # / TYPE / VERS
-Unknown-           TRM39105.00     NONE                    ANT # / TYPE
  1449461.0608 -1709241.3446  5952438.7350                  APPROX POSITION XYZ
        0.0000        0.0000        0.0000                  ANTENNA: DELTA H/E/N
     1     1                                                WAVELENGTH FACT L1/2
    20    L1    L2    L5    L6    L7    L8    C1    P1    C2# / TYPES OF OBSERV
          P2    C5    C6    C7    C8    S1    S2    S5    S6# / TYPES OF OBSERV
          S7    S8                                          # / TYPES OF OBSERV
    30.0000                                                 INTERVAL
    15                                                      LEAP SECONDS
Forced Modulo Decimation to 30 seconds                      COMMENT
 SNR is mapped to RINEX snr flag value [0-9]                COMMENT
  L1 & L2: min(max(int(snr_dBHz/6), 0), 9)                  COMMENT
teqc edited: Beidou # 1 - 37 excluded                       COMMENT
  2009    10    16     0     0    0.0000000     GPS         TIME OF FIRST OBS
                                                            END OF HEADER
 09 10 16  0  0  0.0000000  0  9G02G04G29G05G13G10G23G25G30
 -10359512.63748  -8046690.86347
                  20462457.8984                                   20462452.2504
                                                                        51.5004
        42.2504
  -1990762.80148  -1543073.57846
                  21956186.9144                                   21956183.7154
                                                                        48.5004
        36.7504
 -16841853.83247 -13109102.45745
                  22771215.1024                                   22771211.5984
                                                                        45.0004
        33.5004
 -11827802.39547  -9202105.15245
                  23066101.8594                                   23066098.6954
                                                                        47.2504
        33.5004
 -12230151.55948  -9500407.34045
                  21227853.3054                                   21227849.2154
                                                                        49.5004
        35.7504
 -17832813.87547 -13880310.65645
                  22230339.7664                                   22230336.6454
                                                                        47.5004
        34.5004
  -3927246.37147  -3046236.02344
                  22661982.7194                                   22661977.0004
                                                                        46.2504
        29.7504
  -5139089.07446  -3969353.31243
                  23725531.4694                                   23725528.5554
                                                                        39.7504
        22.0004
  -1051808.44146   -810700.93744
                  24163014.5004                                   24163012.4574
                                                                        41.5004
        24.0004
 09 10 16  0  0 30.0000000  0  9G02G04G29G05G13G10G23G25G30
 -10428014.16848  -8100068.67247
                  20449422.5084                                   20449416.5664
                                                                        51.5004
        42.5004
  -1983286.14548  -1537247.61746
                  21957609.6254                                   21957605.9654
                                                                        48.7504
        36.7504
 -16986093.00047 -13221496.60245
                  22743767.4694                                   22743764.4344
                                                                        45.7504
        34.2504
 -12008638.69547  -9343016.56645
                  23031689.6954                                   23031686.6994
                                                                        46.5004
        34.0004
 -12313377.80948  -9565258.98046
                  21212015.7194                                   21212012.0474
                                                                        50.0004
        36.0004
 -18006137.77747 -14015368.26645
                  22197357.4614                                   22197354.0704
                                                                        47.2504
        34.7504
  -3933303.62547  -3050955.94945
                  22660830.2664                                   22660823.9024
                                                                        46.7504
        30.0004
  -5295983.03546  -4091608.31643
                  23695675.5234                                   23695672.8714
                                                                        40.0004
        22.2504
  -1034352.63346   -797098.94144
                  24166336.6884                                   24166333.9414
                                                                        41.5004
        24.0004
 09 10 16  0  1  0.0000000  0  9G02G04G29G05G13G10G23G25G30
 -10495885.18048  -8152955.14547
                  20436507.0004                                   20436501.5044
                                                                        51.2504
        42.5004
  -1975397.01248  -1531100.23846
                  21959110.9694                                   21959107.5394
                                                                        49.5004
        36.0004
 -17129812.91047 -13333486.15245
                  22716417.9924                                   22716415.0594
                                                                        46.5004
        34.0004
 -12189184.90247  -9483701.87945
                  22997333.4534                                   22997329.8524
                                                                        47.0004
        34.0004
 -12395888.33648  -9629552.92646
                  21196314.8834                                   21196310.3524
                                                                        50.0004
        36.5004
 -18179071.39148 -14150121.72745
                  22164449.1484                                   22164445.6484
                                                                        48.2504
        35.0004
  -3938842.04747  -3055271.59444
                  22659776.3914                                   22659769.8554
                                                                        46.0004
        29.7504
  -5452462.81246  -4213540.57044
                  23665898.3984                                   23665895.4774
                                                                        41.5004
        24.5004
  -1016512.30947   -783197.27044
                  24169731.6954                                   24169729.2154
                                                                        44.0004
        25.0004
 09 10 16  0  1 30.0000000  0  8G02G04G29G05G13G10G23G25
 -10563128.35948  -8205352.44147
                  20423711.0704                                   20423705.1334
                                                                        52.5004
        42.0004
  -1967100.02048  -1524635.05546
                  21960689.4454                                   21960686.4614
                                                                        50.0004
        36.2504
 -17273013.66847 -13445071.17245
                  22689167.7274                                   22689165.1454
                                                                        46.0004
        33.7504
 -12369441.30947  -9624161.39545
                  22963031.7584                                   22963028.1764
                                                                        47.7504
        34.7504
 -12477685.45748  -9693290.95746
                  21180749.7034                                   21180745.3754
                                                                        49.5004
        37.0004
 -18351615.50447 -14284571.64545
                  22131615.0634                                   22131612.2504
                                                                        47.0004
        35.5004
  -3943865.90647  -3059186.28944
                  22658820.8204                                   22658813.9494
                                                                        46.5004
        28.7504
  -5608527.98446  -4335149.76244
                  23636200.5944                                   23636197.1174
                                                                        41.0004
        25.2504
 09 10 16  0  2  0.0000000  0  8G02G04G29G05G13G10G23G25
 -10629739.57448  -8257257.30947
                  20411035.3754                                   20411029.7584
                                                                        51.5004
        43.0004
  -1958392.74248  -1517850.16446
                  21962347.0004                                   21962342.8794
                                                                        50.0004
        36.5004
 -17415688.60547 -13556246.44945
                  22662017.9064                                   22662014.5554
                                                                        45.5004
        34.5004
 -12549401.85948  -9764390.43445
                  22928786.0784                                   22928783.0594
                                                                        48.0004
        34.7504
 -12558764.89148  -9756469.73046
                  21165320.2814                                   21165316.1994
                                                                        48.7504
        37.0004
 -18523763.61747 -14418712.98846
                  22098856.1884                                   22098853.3284
                                                                        47.7504
        36.0004
  -3948373.10547  -3062698.37545
                  22657962.8754                                   22657956.5274
                                                                        45.7504
        30.0004
  -5764171.92647  -4456430.72744
                  23606582.5004                                   23606579.5004
                                                                        42.5004
        25.7504
 09 10 16  0  2 30.0000000  0  8G02G04G29G05G13G10G23G25
 -10695719.46148  -8308670.22347
                  20398479.7734                                   20398474.2274
                                                                        52.5004
        42.5004
  -1949278.23448  -1510747.94546
                  21964080.7114                                   21964077.5434
                                                                        49.5004
        36.0004
 -17557836.21947 -13667010.87945
                  22634968.2274                                   22634964.8324
                                                                        46.2504
        34.7504
 -12729065.43747  -9904388.07445
                  22894597.7274                                   22894594.0864
                                                                        47.5004
        34.5004
 -12639127.14548  -9819089.64146
                  21150027.7344                                   21150024.2704
                                                                        49.0004
        36.0004
 -18695514.04348 -14552544.50845
                  22066173.5084                                   22066170.0474
                                                                        48.2504
        35.5004
  -3952366.87547  -3065810.40244
                  22657202.8834                                   22657197.1174
                                                                        45.0004
        29.5004
  -5919392.57047  -4577381.85244
                  23577045.1174                                   23577041.4964
                                                                        43.0004
        25.5004
 09 10 16  0  3  0.0000000  0  8G02G04G29G05G13G10G23G25
 -10761067.33648  -8359590.64147
                  20386044.4844                                   20386038.7074
                                                                        52.5004
        42.5004
  -1939757.44548  -1503329.18046
                  21965892.6564                                   21965889.7344
                                                                        48.0004
        36.5004
 -17699453.85547 -13777362.31245
                  22608019.0704                                   22608015.8324
                                                                        46.7504
        33.7504
 -12908428.97747 -10044151.90245
                  22860465.5164                                   22860462.2034
                                                                        47.0004
        34.7504
 -12718771.91048  -9881150.47746
                  21134872.2734                                   21134868.0634
                                                                        49.0004
        36.2504
 -18866864.11747 -14686064.10545
                  22033566.6954                                   22033563.1804
                                                                        46.7504
        35.0004
  -3955848.85247  -3068523.65645
                  22656540.0164                                   22656534.3794
                                                                        46.0004
        30.0004
  -6074186.65247  -4698000.61744
                  23547588.5004                                   23547585.1054
                                                                        43.2504
        24.5004
 09 10 16  0  3 30.0000000  0  8G02G04G29G05G13G10G23G25
 -10825786.12148  -8410020.89547
                  20373728.7814                                   20373723.1024
                                                                        51.7504
        42.5004
  -1929835.14848  -1495597.53546
                  21967780.7974                                   21967777.7624
                                                                        48.5004
        36.0004
 -17840542.39847 -13887301.43745
                  22581170.7424                                   22581167.9734
                                                                        46.5004
        34.0004
 -13087493.55947 -10183682.76645
                  22826390.9924                                   22826387.2734
                                                                        47.7504
        34.7504
 -12797701.82448  -9942654.30546
                  21119852.2584                                   21119848.4264
                                                                        49.2504
        36.7504
 -19037814.87147 -14819272.52345
                  22001035.7664                                   22001032.5314
                                                                        47.5004
        35.5004
  -3958824.49247  -3070842.35944
                  22655973.8204                                   22655968.3244
                                                                        44.2504
        29.2504
  -6228554.46547  -4818287.22343
                  23518213.9614                                   23518209.4844
                                                                        43.2504
        23.7504
 09 10 16  0  4  0.0000000  0  8G02G04G29G05G13G10G23G25
 -10889880.12948  -8459964.27747
                  20361532.3984                                   20361526.7464
                                                                        51.7504
        42.7504
  -1919517.94148  -1487558.17246
                  21969744.2584                                   21969741.4574
                                                                        48.7504
        36.2504
 -17981103.70747 -13996829.71945
                  22554422.7114                                   22554419.9694
                                                                        46.5004
        34.2504
 -13266261.34448 -10322982.39145
                  22792372.6024                                   22792369.1804
                                                                        48.2504
        35.5004
 -12875921.23448 -10003604.48446
                  21104967.5474                                   21104963.4654
                                                                        49.2504
        36.2504
 -19208368.30147 -14952171.34845
                  21968580.4614                                   21968576.9144
                                                                        47.5004
        35.5004
  -3961300.09447  -3072771.40644
                  22655502.4224                                   22655497.0274
                                                                        44.5004
        28.5004
  -6382497.64546  -4938242.92643
                  23488918.3984                                   23488915.5514
                                                                        41.7504
        23.5004
 09 10 16  0  4 30.0000000  0  8G02G04G29G05G13G10G23G25
 -10953353.20748  -8509423.82847
                  20349453.6484                                   20349448.5004
                                                                        51.5004
        43.0004
  -1908811.45348  -1479215.47746
                  21971781.7814                                   21971778.0164
                                                                        49.5004
        36.0004
 -18121139.24247 -14105948.32045
                  22527774.8754                                   22527772.3524
                                                                        46.5004
        34.0004
 -13444733.60247 -10462051.73445
                  22758410.8054                                   22758407.3364
                                                                        47.7504
        35.5004
 -12953433.93448 -10064003.98046
                  21090217.1414                                   21090213.1484
                                                                        48.0004
        36.5004
 -19378525.21947 -15084761.13746
                  21936200.8594                                   21936197.5784
                                                                        46.5004
        36.2504
  -3963282.09047  -3074315.82044
                  22655125.8834                                   22655119.2894
                                                                        45.0004
        29.0004
  -6536017.50046  -5057868.77343
                  23459704.7734                                   23459701.4304
                                                                        41.0004
        22.7504
 09 10 16  0  5  0.0000000  0  8G02G04G29G05G13G10G23G25
 -11016207.06648  -8558400.92647
                  20337493.1094                                   20337487.6914
                                                                        51.5004
        42.5004
  -1897718.98448  -1470572.01245
                  21973892.3914                                   21973889.4614
                                                                        48.5004
        35.5004
 -18260648.46147 -14214656.78545
                  22501226.9304                                   22501224.6644
                                                                        47.0004
        34.0004
 -13622910.41447 -10600890.80546
                  22724504.5474                                   22724501.3014
                                                                        47.5004
        36.0004
 -13030241.79748 -10123854.23046
                  21075601.3134                                   21075597.1024
                                                                        49.5004
        36.5004
 -19548286.16447 -15217042.43045
                  21903896.2734                                   21903892.9614
                                                                        47.5004
        35.5004
  -3964774.30147  -3075478.58244
                  22654841.4614                                   22654835.6454
                                                                        45.0004
        28.7504
  -6689112.85246  -5177163.79343
                  23430571.7814                                   23430568.5984
                                                                        41.5004
        22.7504
 09 10 16  0  5 30.0000000  0  8G02G04G29G05G13G10G23G25
  -9503021.31648  -7379295.21147
                  20625442.9694                                   20625437.2974
                                                                        52.0004
        43.0004
   -310824.53547   -234030.87545
                  22275868.5084                                   22275865.0044
                                                                        47.0004
        35.5004
 -16824206.79747 -13095351.58645
                  22774573.0864                                   22774570.0704
                                                                        47.2504
        34.2504
 -12225365.37147  -9511894.59846
                  22990448.6804                                   22990445.2344
                                                                        45.5004
        36.0004
 -11530923.58648  -8955554.31646
                  21360912.1564                                   21360907.9924
                                                                        48.7504
        37.0004
 -18142224.46548 -14121409.94546
                  22171461.3054                                   22171457.8484
                                                                        48.0004
        36.2504
  -2390360.65247  -1848662.74245
                  22954442.8674                                   22954436.4344
                                                                        45.5004
        30.0004
  -5266357.39147  -4068523.12944
                  23701313.4924                                   23701309.6844
                                                                        43.0004
        25.5004
 09 10 16  0  6  0.0000000  0  8G02G04G29G05G13G10G23G25
  -9564639.96148  -7427309.78147
                  20613717.2664                                   20613711.4104
                                                                        51.2504
        42.7504
   -298969.15248   -224792.94146
                  22278124.4144                                   22278121.3754
                                                                        49.5004
        36.0004
 -16962660.40648 -13203237.49645
                  22748225.9694                                   22748223.8244
                                                                        48.0004
        35.5004
 -12402947.80547  -9650270.50445
                  22956655.3284                                   22956652.2734
                                                                        46.0004
        34.7504
 -11606324.62948  -9014308.39846
                  21346563.8364                                   21346559.6684
                                                                        50.2504
        36.5004
 -18311188.51248 -14253070.22746
                  22139308.1094                                   22139305.3524
                                                                        48.7504
        37.0004
  -2390883.07447  -1849069.82044
                  22954343.6724                                   22954337.0984
                                                                        45.0004
        28.5004
  -5418598.64847  -4187152.64844
                  23672342.8204                                   23672339.0514
                                                                        42.7504
        24.5004
 09 10 16  0  6 30.0000000  0  8G02G04G29G05G13G10G23G25
  -9625641.66848  -7474843.60247
                  20602109.0004                                   20602103.6644
                                                                        51.7504
        42.2504
   -286735.68748   -215260.38345
                  22280452.4614                                   22280449.1844
                                                                        48.7504
        35.5004
 -17100583.60247 -13310710.09845
                  22721980.2504                                   22721977.6484
                                                                        47.5004
        35.2504
 -12580230.60547  -9788412.94945
                  22922919.7344                                   22922916.2114
                                                                        45.5004
        34.5004
 -11681022.85548  -9072514.80946
                  21332349.0944                                   21332344.8204
                                                                        50.0004
        36.5004
 -18479751.46948 -14384417.96946
                  22107231.8834                                   22107228.5824
                                                                        48.0004
        36.5004
  -2390924.51647  -1849102.11744
                  22954335.6254                                   22954329.0984
                                                                        45.0004
        28.7504
  -5570409.49647  -4305446.80144
                  23643454.7194                                   23643450.8754
                                                                        42.0004
        26.5004
 09 10 16  0  7  0.0000000  0  8G02G04G29G05G13G10G23G25
  -9686027.88348  -7521897.81247
                  20590617.6804                                   20590612.1804
                                                                        51.2504
        42.5004
   -274127.72348   -205435.97745
                  22282851.7344                                   22282848.4184
                                                                        48.5004
        35.5004
 -17237975.69147 -13417768.87145
                  22695835.8054                                   22695832.8524
                                                                        47.0004
        35.0004
 -12757212.85947  -9926321.18745
                  22889241.6484                                   22889237.5314
                                                                        46.7504
        34.5004
 -11755019.98048  -9130174.91446
                  21318268.2584                                   21318263.9534
                                                                        50.7504
        36.5004
 -18647912.98448 -14515452.91046
                  22075231.5864                                   22075228.2774
                                                                        48.5004
        36.0004
  -2390489.10247  -1848762.82844
                  22954418.5864                                   22954411.9654
                                                                        45.2504
        28.2504
  -5721789.03947  -4423404.85944
                  23614647.9454                                   23614643.8444
                                                                        42.5004
        26.5004
 09 10 16  0  7 30.0000000  0  8G02G04G29G05G13G10G23G25
  -9745799.54348  -7568473.14547
                  20579243.5634                                   20579238.2934
                                                                        52.0004
        42.2504
   -261147.89548   -195321.85245
                  22285321.7274                                   22285318.9804
                                                                        48.7504
        35.2504
 -17374834.57048 -13524412.14545
                  22669792.1724                                   22669789.3914
                                                                        48.0004
        34.7504
 -12933892.60247 -10063993.68045
                  22855620.2814                                   22855616.7814
                                                                        47.0004
        35.5004
 -11828316.83248  -9187289.37546
                  21304320.0864                                   21304315.6844
                                                                        50.0004
        36.2504
 -18815671.56648 -14646173.89146
                  22043308.1334                                   22043304.6604
                                                                        49.0004
        36.2504
  -2389579.60947  -1848054.12944
                  22954590.9304                                   22954584.5944
                                                                        44.5004
        27.5004
  -5872735.23047  -4541025.24644
                  23585923.3674                                   23585919.7424
                                                                        42.2504
        24.5004
 09 10 16  0  8  0.0000000  0  8G02G04G29G05G13G10G23G25
  -9804952.99648  -7614566.75847
                  20567987.3054                                   20567981.5984
                                                                        51.7504
        42.2504
   -247793.94948   -184916.20345
                  22287862.9694                                   22287859.7544
                                                                        49.5004
        35.5004
 -17511154.82047 -13630635.71145
                  22643850.8284                                   22643847.9344
                                                                        47.7504
        34.7504
 -13110265.19147 -10201426.85546
                  22822057.4924                                   22822054.0944
                                                                        46.5004
        36.0004
 -11900909.52048  -9243855.11346
                  21290506.2034                                   21290501.8594
                                                                        50.5004
        36.0004
 -18983020.72748 -14776575.79345
                  22011462.6174                                   22011458.6844
                                                                        49.0004
        35.5004
  -2388194.48847  -1846974.82444
                  22954854.9774                                   22954848.5394
                                                                        45.5004
        27.5004
  -6023241.35246  -4658302.71544
                  23557283.1884                                   23557279.3134
                                                                        41.2504
        26.5004
 09 10 16  0  8 30.0000000  0  8G02G04G29G05G13G10G23G25
  -9863489.85948  -7660179.88347
                  20556848.2664                                   20556842.3164
                                                                        51.5004
        42.5004
   -234069.87948   -174222.15645
                  22290474.5394                                   22290471.6724
                                                                        49.0004
        35.7504
 -17646935.82447 -13736439.05945
                  22618012.7274                                   22618009.6804
                                                                        47.5004
        34.2504
 -13286329.73447 -10338619.98845
                  22788553.6954                                   22788550.5354
                                                                        46.0004
        35.0004
 -11972800.16048  -9299873.80146
                  21276825.8364                                   21276821.3674
                                                                        51.0004
        36.0004
 -19149959.99248 -14906658.35946
                  21979695.4224                                   21979691.5944
                                                                        48.7504
        36.5004
  -2386337.85247  -1845528.08244
                  22955208.3134                                   22955202.2074
                                                                        45.7504
        28.7504
  -6173306.84046  -4775236.80543
                  23528725.8524                                   23528723.1724
                                                                        40.0004
        22.7504
 09 10 16  0  9  0.0000000  0  8G02G04G29G05G13G10G23G25
  -9921412.40248  -7705314.33247
                  20545825.8984                                   20545819.9884
                                                                        51.0004
        42.5004
   -219979.22748   -163242.44145
                  22293155.8984                                   22293152.4104
                                                                        49.5004
        34.5004
 -17782177.68047 -13841822.29345
                  22592276.7974                                   22592274.0824
                                                                        47.0004
        34.7504
 -13462085.84047 -10475572.80545
                  22755108.3594                                   22755104.6604
                                                                        45.7504
        35.7504
 -12043990.71548  -9355346.94146
                  21263278.8284                                   21263274.6844
                                                                        50.5004
        36.5004
 -19316489.43048 -15036421.59846
                  21948005.9844                                   21948002.2974
                                                                        48.5004
        36.5004
  -2384013.73447  -1843717.09044
                  22955650.1724                                   22955644.7074
                                                                        46.0004
        29.5004
  -6322930.86346  -4891826.91043
                  23500253.4614                                   23500250.2894
                                                                        39.0004
        22.7504
 09 10 16  0  9 30.0000000  0  8G02G04G29G05G13G10G23G25
  -9978719.27348  -7749969.04347
                  20534920.3284                                   20534914.9694
                                                                        51.5004
        42.2504
   -205522.32047   -151977.34845
                  22295906.9224                                   22295903.5234
                                                                        47.5004
        35.0004
 -17916876.73847 -13946782.59845
                  22566644.8134                                   22566641.4574
                                                                        45.7504
        35.0004
 -13637530.12947 -10612282.64146
                  22721722.3444                                   22721719.1024
                                                                        47.0004
        36.0004
 -12114480.31248  -9410273.89846
                  21249865.0784                                   21249860.4774
                                                                        50.7504
        36.0004
 -19482605.05948 -15165862.39146
                  21916395.2734                                   21916392.0664
                                                                        48.0004
        37.2504
  -2381223.16047  -1841542.62944
                  22956181.9454                                   22956174.9844
                                                                        45.7504
        29.0004
  -6472109.15646  -5008069.68743
                  23471865.8364                                   23471862.0004
                                                                        40.0004
        23.2504
 09 10 16  0 10  0.0000000  0  8G02G04G29G05G13G10G23G25
 -10035411.02748  -7794144.40647
                  20524132.3594                                   20524126.9804
                                                                        51.7504
        42.0004
   -190701.94948   -140429.02745
                  22298726.8524                                   22298723.7664
                                                                        49.0004
        35.0004
 -18051031.02047 -14051318.38345
                  22541116.2504                                   22541113.0594
                                                                        47.0004
        35.0004
 -13812660.90247 -10748748.19945
                  22688396.1254                                   22688392.8204
                                                                        47.5004
        35.5004
 -12184269.18748  -9464654.84046
                  21236584.7344                                   21236580.4264
                                                                        50.7504
        36.5004
 -19648305.27348 -15294979.53146
                  21884863.7424                                   21884859.8324
                                                                        49.5004
        36.2504
  -2377968.84447  -1839006.82444
                  22956800.7664                                   22956794.9614
                                                                        45.5004
        29.2504
  -6620839.80946  -5123963.68044
                  23443563.5004                                   23443559.9384
                                                                        41.0004
        24.5004
 09 10 16  0 10 30.0000000  0  8G02G04G29G05G13G10G23G25
 -10091491.52348  -7837843.50047
                  20513460.7584                                   20513455.1294
                                                                        53.0004
        42.0004
   -175523.12948   -128601.40645
                  22301615.5164                                   22301612.4024
                                                                        48.5004
        34.2504
 -18184642.29747 -14155431.05145
                  22515690.6334                                   22515687.6564
                                                                        47.2504
        35.0004
 -13987479.46547 -10884970.51246
                  22655129.5234                                   22655125.7464
                                                                        47.5004
        36.2504
 -12253361.27048  -9518492.84046
                  21223436.5864                                   21223432.8984
                                                                        50.7504
        36.2504
 -19813591.50448 -15423774.02346
                  21853410.7424                                   21853407.4224
                                                                        49.2504
        37.2504
  -2374256.50447  -1836114.09044
                  22957507.6254                                   22957501.0634
                                                                        46.0004
        28.2504
  -6769123.53947  -5239509.44144
                  23415346.3204                                   23415342.1094
                                                                        42.2504
        25.0004
 09 10 16  0 11  0.0000000  0  8G02G04G29G05G13G10G23G25
 -10146956.91448  -7881063.28947
                  20502906.1174                                   20502900.3164
                                                                        52.5004
        42.2504
   -159984.00048   -116493.00845
                  22304572.4844                                   22304569.0164
                                                                        48.2504
        34.5004
 -18317703.98447 -14259115.44545
                  22490369.8134                                   22490366.8594
                                                                        45.7504
        35.2504
 -14161979.43047 -11020944.49646
                  22621923.3134                                   22621919.7034
                                                                        47.2504
        36.5004
 -12321753.03548  -9571785.12946
                  21210422.2814                                   21210417.8634
                                                                        50.7504
        36.2504
 -19978457.17248 -15552240.83646
                  21822037.5704                                   21822034.6374
                                                                        48.7504
        37.0004
  -2370084.85547  -1832863.45344
                  22958300.9304                                   22958294.6024
                                                                        45.2504
        27.5004
  -6916954.00846  -5354702.00044
                  23387214.8054                                   23387211.7034
                                                                        41.0004
        25.7504
 09 10 16  0 11 30.0000000  0  8G02G04G29G05G13G10G23G25
 -10201809.79748  -7923805.75447
                  20492467.5634                                   20492461.9264
                                                                        52.7504
        42.2504
   -144089.13748   -104107.42645
                  22307597.4924                                   22307594.0634
                                                                        48.7504
        34.0004
 -18450216.88747 -14362372.23045
                  22465153.2504                                   22465150.7894
                                                                        47.0004
        35.5004
 -14336161.18048 -11156670.60245
                  22588777.4224                                   22588773.6644
                                                                        48.7504
        35.7504
 -12389447.39148  -9624533.98446
                  21197540.5234                                   21197535.6174
                                                                        51.5004
        36.2504
 -20142902.75448 -15680380.27046
                  21790744.7194                                   21790741.1994
                                                                        49.0004
        37.2504
  -2365458.60247  -1829258.58244
                  22959180.7974                                   22959175.1334
                                                                        44.7504
        26.2504
  -7064331.27746  -5469541.42644
                  23359169.7734                                   23359165.6484
                                                                        41.2504
        25.5004
 09 10 16  0 12  0.0000000  0  8G02G04G29G05G13G10G23G25
 -10256049.95348  -7966070.78547
                  20482146.1174                                   20482140.6684
                                                                        52.0004
        42.2504
   -127839.38348    -91445.30545
                  22310689.5084                                   22310686.6174
                                                                        49.0004
        34.2504
 -18582178.41447 -14465199.36346
                  22440041.7734                                   22440039.4304
                                                                        47.5004
        36.2504
 -14510022.08248 -11292146.63345
                  22555692.7344                                   22555688.9844
                                                                        48.2504
        35.5004
 -12456443.81248  -9676739.00046
                  21184791.3984                                   21184787.4654
                                                                        50.7504
        36.5004
 -20306925.73448 -15808190.39846
                  21759532.2894                                   21759528.7854
                                                                        49.5004
        36.5004
  -2360379.24247  -1825300.64844
                  22960147.5004                                   22960141.7664
                                                                        44.7504
        27.2504
  -7211251.84446  -5584024.95344
                  23331212.0084                                   23331208.2504
                                                                        41.7504
        26.0004
 09 10 16  0 12 30.0000000  0  8G02G04G29G05G13G10G23G25
 -10309678.89848  -8007859.50846
                  20471940.6804                                   20471935.3674
                                                                        52.5004
        41.7504
   -111238.27747    -78509.39545
                  22313849.0394                                   22313846.0124
                                                                        47.7504
        34.0004
 -18713587.70747 -14567596.24645
                  22415035.5394                                   22415033.1644
                                                                        46.5004
        35.2504
 -14683562.02748 -11427372.64146
                  22522669.6724                                   22522665.5634
                                                                        48.2504
        36.5004
 -12522743.84848  -9728401.37146
                  21172174.8834                                   21172170.8054
                                                                        51.0004
        36.2504
 -20470524.81248 -15935670.14146
                  21728400.3594                                   21728397.2624
                                                                        49.2504
        36.5004
  -2354850.64847  -1820992.65244
                  22961200.1024                                   22961193.8444
                                                                        45.5004
        27.7504
  -7357714.53946  -5698151.73444
                  23303340.8364                                   23303337.4024
                                                                        40.2504
        24.7504
 09 10 16  0 13  0.0000000  0  8G02G04G29G05G13G10G23G25
 -10362696.42648  -8049171.77347
                  20461851.8674                                   20461845.8954
                                                                        52.2504
        42.0004
    -94287.17647    -65300.75845
                  22317074.3284                                   22317071.6024
                                                                        47.7504
        34.5004
 -18844441.92247 -14669560.54346
                  22390134.8914                                   22390131.9734
                                                                        46.2504
        36.0004
 -14856777.65248 -11562345.84046
                  22489707.4924                                   22489704.1024
                                                                        48.2504
        36.7504
 -12588347.66048  -9779521.25846
                  21159690.7504                                   21159686.6914
                                                                        50.5004
        36.7504
 -20633697.55948 -16062817.75046
                  21697349.7424                                   21697346.0664
                                                                        48.5004
        37.0004
  -2348874.62547  -1816336.01644
                  22962337.3914                                   22962331.2344
                                                                        45.5004
        28.5004
  -7503716.45746  -5811919.42644
                  23275557.2734                                   23275553.9454
                                                                        39.7504
        25.2504
 09 10 16  0 13 30.0000000  0  8G02G04G29G05G13G10G23G25
 -10415103.20348  -8090008.18747
                  20451879.2734                                   20451873.6914
                                                                        51.7504
        42.0004
    -76988.18047    -51821.02345
                  22320366.0314                                   22320362.8834
                                                                        47.0004
        33.5004
 -18974739.55547 -14771091.13746
                  22365340.2034                                   22365337.5514
                                                                        46.5004
        36.2504
 -15029667.12148 -11697064.89546
                  22456807.8834                                   22456804.4144
                                                                        48.5004
        37.0004
 -12653255.65648  -9830098.95346
                  21147339.5864                                   21147335.2234
                                                                        49.7504
        36.0004
 -20796441.93748 -16189631.57846
                  21666380.4924                                   21666377.1914
                                                                        48.7504
        37.2504
  -2342453.79747  -1811332.76244
                  22963559.1884                                   22963553.2664
                                                                        45.2504
        27.7504
  -7649255.25046  -5925326.27044
                  23247862.2584                                   23247859.0394
                                                                        40.0004
        26.0004
 09 10 16  0 14  0.0000000  0  8G02G04G29G05G13G10G23G25
 -10466897.70748  -8130367.55146
                  20442023.0864                                   20442017.4924
                                                                        51.5004
        41.5004
    -59341.24647    -38070.16045
                  22323724.0784                                   22323721.1994
                                                                        47.2504
        33.5004
 -19104476.21147 -14872184.55946
                  22340652.1254                                   22340649.1484
                                                                        47.7504
        37.0004
 -15202226.29348 -11831526.50446
                  22423970.9454                                   22423967.4024
                                                                        48.0004
        37.0004
 -12717466.45348  -9880133.35245
                  21135120.4924                                   21135116.3524
                                                                        50.2504
        35.7504
 -20958753.55548 -16316108.08646
                  21635493.5004                                   21635489.9414
                                                                        48.5004
        37.0004
  -2335588.57847  -1805983.25044
                  22964865.5864                                   22964859.8674
                                                                        44.5004
        28.5004
  -7794326.32846  -6038368.60544
                  23220255.9454                                   23220252.9304
                                                                        41.2504
        25.5004
 09 10 16  0 14 30.0000000  0  8G02G04G29G05G13G10G23G25
 -10518081.30548  -8170250.86747
                  20432283.0084                                   20432277.6724
                                                                        51.7504
        42.5004
    -41349.70347    -24050.77045
                  22327148.0004                                   22327144.6954
                                                                        47.7504
        34.0004
 -19233651.88348 -14972840.92245
                  22316070.5474                                   22316068.1604
                                                                        48.2504
        35.7504
 -15374454.57448 -11965730.30946
                  22391196.8674                                   22391193.8054
                                                                        48.2504
        37.2504
 -12780982.05148  -9929626.01245
                  21123034.0864                                   21123029.7774
                                                                        50.5004
        35.7504
 -21120631.92648 -16442246.98846
                  21604688.9144                                   21604685.4924
                                                                        49.5004
        37.5004
  -2328282.62147  -1800290.29344
                  22966255.1804                                   22966249.8754
                                                                        44.0004
        27.5004
  -7938928.69147  -6151045.75844
                  23192739.6414                                   23192735.9454
                                                                        42.0004
        26.0004
 09 10 16  0 15  0.0000000  0  8G02G04G29G05G13G10G23G25
 -10568657.00048  -8209660.52347
                  20422659.0394                                   20422653.5664
                                                                        50.7504
        42.5004
    -23017.89148     -9766.21945
                  22330636.5234                                   22330633.3524
                                                                        48.0004
        34.2504
 -19362267.59447 -15073060.97346
                  22291596.0864                                   22291593.0204
                                                                        47.2504
        36.0004
 -15546352.42648 -12099676.63346
                  22358485.7344                                   22358482.0594
                                                                        48.2504
        37.2504
 -12843805.55548  -9978579.47345
                  21111079.0864                                   21111074.9884
                                                                        49.5004
        35.5004
 -21282077.35948 -16568048.52746
                  21573967.0314                                   21573963.6484
                                                                        48.7504
        37.2504
  -2320540.93447  -1794257.81644
                  22967728.8364                                   22967722.9694
                                                                        42.5004
        27.5004
  -8083062.27047  -6263357.62944
                  23165312.2344                                   23165308.1914
                                                                        42.5004
        27.0004
 09 10 16  0 15 30.0000000  0  8G02G04G29G05G13G10G23G25
 -10618624.53148  -8248596.27347
                  20413150.5314                                   20413144.7274
                                                                        50.7504
        42.2504
     -4347.05548      4782.47345
                  22334189.3364                                   22334185.8714
                                                                        48.2504
        33.0004
 -19490319.89847 -15172841.98046
                  22267228.3984                                   22267225.3244
                                                                        46.7504
        36.0004
 -15717917.42647 -12233363.63346
                  22325838.0704                                   22325834.3054
                                                                        46.7504
        36.7504
 -12905936.39148 -10026993.14845
                  21099255.9774                                   21099251.7154
                                                                        50.0004
        35.5004
 -21443087.44948 -16693510.90246
                  21543327.8284                                   21543324.5784
                                                                        48.2504
        37.0004
  -2312365.21947  -1787887.14544
                  22969284.6564                                   22969278.6174
                                                                        42.0004
        27.5004
  -8226723.69947  -6375301.55944
                  23137974.4384                                   23137970.2894
                                                                        43.0004
        26.2504
 09 10 16  0 16  0.0000000  0  8G02G04G29G05G13G10G23G25
  -9092564.95748  -7059458.96547
                  20703550.3444                                   20703544.6054
                                                                        51.5004
        42.2504
   1590077.55947   1247191.25045
                  22637598.2274                                   22637595.2734
                                                                        47.2504
        33.2504
 -18042384.46548 -14044580.57846
                  22542761.7114                                   22542758.1884
                                                                        48.0004
        36.5004
 -14313723.53947 -11139186.53546
                  22593047.0004                                   22593043.5634
                                                                        47.0004
        36.5004
 -11391955.80148  -8847268.13345
                  21387357.1724                                   21387353.0784
                                                                        50.5004
        35.7504
 -20028236.47348 -15591029.55546
                  21812564.8594                                   21812561.5084
                                                                        49.2504
        37.5004
   -728340.45347   -553582.12944
                  23270714.9454                                   23270708.9064
                                                                        45.2504
        27.5004
  -6794488.68047  -5259274.23844
                  23410519.1414                                   23410515.1844
                                                                        42.0004
        24.5004
 09 10 16  0 16 30.0000000  0  8G02G04G29G05G13G10G23G25
  -9141322.02048  -7097451.50447
                  20694271.8054                                   20694266.6054
                                                                        51.2504
        42.0004
   1609415.55547   1262259.79345
                  22641278.2734                                   22641275.4654
                                                                        47.5004
        33.0004
 -18169308.77748 -14143482.63746
                  22518608.4064                                   22518605.2584
                                                                        48.5004
        36.0004
 -14484620.20747 -11272352.69546
                  22560526.0944                                   22560522.5634
                                                                        47.5004
        36.7504
 -11452708.12548  -8894607.74646
                  21375796.2664                                   21375792.1684
                                                                        50.7504
        36.0004
 -20188373.27348 -15715811.44546
                  21782091.8444                                   21782088.6094
                                                                        49.2504
        38.0004
   -719308.68747   -546544.38344
                  23272433.4844                                   23272427.3244
                                                                        44.0004
        26.0004
  -6937203.93447  -5370480.94144
                  23383360.9144                                   23383357.3164
                                                                        42.5004
        24.0004
 09 10 16  0 17  0.0000000  0  8G02G04G29G05G13G10G23G25
  -9189476.95748  -7134974.84047
                  20685108.3364                                   20685102.5394
                                                                        51.5004
        42.2504
   1629081.78948   1277584.11345
                  22645020.4224                                   22645017.5004
                                                                        48.0004
        32.7504
 -18295668.50048 -14241944.74246
                  22494563.2034                                   22494559.9494
                                                                        49.5004
        36.2504
 -14655182.06648 -11405258.00046
                  22528069.3284                                   22528066.1094
                                                                        48.5004
        37.7504
 -11512774.73448  -8941412.87945
                  21364365.9924                                   21364362.1414
                                                                        50.2504
        35.0004
 -20348072.81648 -15840252.64146
                  21751702.3444                                   21751699.0744
                                                                        50.0004
        38.0004
   -709855.09047   -539177.92644
                  23274232.5314                                   23274225.5864
                                                                        43.7504
        25.7504
  -7079444.98847  -5481318.11344
                  23356293.4614                                   23356290.0124
                                                                        42.0004
        25.5004
 09 10 16  0 17 30.0000000  0  8G02G04G29G05G13G10G23G25
  -9237028.50048  -7172028.00047
                  20676059.3834                                   20676054.0594
                                                                        51.5004
        42.0004
   1649076.29747   1293164.21545
                  22648825.2274                                   22648822.2934
                                                                        47.5004
        33.7504
 -18421460.46548 -14339964.40646
                  22470625.4454                                   22470622.5124
                                                                        48.2504
        36.7504
 -14825405.68747 -11537899.76646
                  22495677.1564                                   22495673.8014
                                                                        47.7504
        37.0004
 -11572153.85948  -8987682.28945
                  21353066.6484                                   21353062.4414
                                                                        50.2504
        35.5004
 -20507331.41048 -15964350.20746
                  21721396.0554                                   21721392.4494
                                                                        49.5004
        38.5004
   -699979.74647   -531482.82044
                  23276111.9304                                   23276105.4924
                                                                        44.0004
        27.0004
  -7221207.27747  -5591782.19543
                  23329316.6804                                   23329313.7814
                                                                        42.5004
        23.7504
 09 10 16  0 18  0.0000000  0  8G02G04G29G05G13G10G23G25
  -9283977.64548  -7208611.72747
                  20667125.4924                                   20667119.8984
                                                                        51.5004
        42.2504
   1669396.14148   1308997.85945
                  22652692.1724                                   22652689.4344
                                                                        48.0004
        32.2504
 -18546683.34048 -14437540.60546
                  22446796.6804                                   22446793.6254
                                                                        48.7504
        36.7504
 -14995289.54348 -11670276.83246
                  22463349.4064                                   22463345.7034
                                                                        48.0004
        37.7504
 -11630847.44948  -9033417.56245
                  21341897.6334                                   21341893.6954
                                                                        50.7504
        35.7504
 -20666147.41848 -16088102.92246
                  21691174.0234                                   21691171.0164
                                                                        49.5004
        37.5004
   -689686.37947   -523462.02044
                  23278070.5394                                   23278064.4104
                                                                        43.0004
        26.7504
  -7362489.44546  -5701872.17244
                  23302431.8984                                   23302428.9104
                                                                        41.7504
        26.5004
 09 10 16  0 18 30.0000000  0  8G02G04G29G05G13G10G23G25
  -9330325.99248  -7244727.33646
                  20658305.6334                                   20658299.8954
                                                                        51.2504
        41.5004
   1690038.86347   1325083.09445
                  22656620.3594                                   22656617.0784
                                                                        47.2504
        32.7504
 -18671336.08248 -14534672.62946
                  22423075.8674                                   22423072.9694
                                                                        49.0004
        36.5004
 -15164831.97348 -11802387.82446
                  22431086.6094                                   22431083.3404
                                                                        48.5004
        38.0004
 -11688856.47348  -9078619.39545
                  21330858.7504                                   21330854.8054
                                                                        50.2504
        35.7504
 -20824519.91448 -16211510.06246
                  21661037.1174                                   21661033.1994
                                                                        49.2504
        37.5004
   -678977.77747   -515117.65244
                  23280107.9534                                   23280102.4844
                                                                        43.5004
        26.5004
  -7503289.52747  -5811586.52344
                  23275638.6174                                   23275635.5084
                                                                        42.0004
        26.0004
 09 10 16  0 19  0.0000000  0  9G02G04G29G05G13G10G23G25G16
  -9376076.36348  -7280376.98446
                  20649599.6024                                   20649593.5944
                                                                        51.7504
        41.5004
   1711000.23847   1341416.62145
                  22660609.2344                                   22660606.1994
                                                                        47.0004
        32.0004
 -18795419.60248 -14631361.06646
                  22399463.6804                                   22399460.6094
                                                                        49.2504
        37.5004
 -15334033.37548 -11934233.03946
                  22398888.7344                                   22398885.1254
                                                                        48.7504
        37.5004
 -11746184.04748  -9123290.11745
                  21319949.7114                                   21319945.4964
                                                                        49.7504
        35.5004
 -20982448.67648 -16334571.43046
                  21630984.2034                                   21630980.5164
                                                                        50.2504
        37.7504
   -667859.06247   -506453.74244
                  23282223.3364                                   23282218.1134
                                                                        42.5004
        26.0004
  -7643607.39847  -5920925.12144
                  23248937.8204                                   23248934.0084
                                                                        43.7504
        28.0004
   2934914.41456   2317335.18853
                  24405630.6484                                   24405626.8404
                                                                        40.0004
        22.0004
 09 10 16  0 19 30.0000000  0  9G02G04G29G05G13G10G23G25G16
  -9421232.09048  -7315563.25846
                  20641006.5784                                   20641001.3594
                                                                        51.7504
        41.5004
   1732274.34847   1357993.83245
                  22664657.6644                                   22664654.5864
                                                                        47.5004
        31.7504
 -18918934.27348 -14727606.23446
                  22375959.1414                                   22375956.5164
                                                                        49.0004
        36.2504
 -15502894.75048 -12065813.34846
                  22366755.0004                                   22366751.4574
                                                                        48.7504
        38.5004
 -11802835.25048  -9167433.87545
                  21309169.0004                                   21309165.2584
                                                                        50.2504
        35.5004
 -21139934.98448 -16457288.02046
                  21601015.5314                                   21601012.0864
                                                                        49.2504
        37.7504
   -656335.93747   -497474.68044
                  23284416.5634                                   23284410.9614
                                                                        43.2504
        27.2504
  -7783444.76647  -6029889.29344
                  23222327.3834                                   23222324.0514
                                                                        44.7504
        28.2504
   2789531.47746   2204049.77343
                  24377965.8914                                   24377961.5164
                                                                        41.0004
        21.2504
 09 10 16  0 20  0.0000000  0  9G02G04G29G05G13G10G23G25G16
  -9465797.12548  -7350289.25847
                  20632526.5234                                   20632520.6024
                                                                        52.0004
        42.0004
   1753857.01647   1374811.49245
                  22668764.3364                                   22668761.2344
                                                                        46.5004
        32.5004
 -19041881.59048 -14823409.32846
                  22352562.9924                                   22352560.4384
                                                                        49.7504
        37.0004
 -15671417.25048 -12197129.59446
                  22334686.2664                                   22334682.8134
                                                                        49.2504
        37.5004
 -11858812.93448  -9211052.77346
                  21298517.0314                                   21298513.0204
                                                                        49.7504
        36.0004
 -21296979.77048 -16579660.55546
                  21571130.7584                                   21571127.6994
                                                                        50.7504
        38.5004
   -644413.50047   -488184.48844
                  23286685.2814                                   23286680.0434
                                                                        44.5004
        27.5004
  -7922801.64847  -6138479.03544
                  23195808.0704                                   23195804.9344
                                                                        44.0004
        28.2504
   2644629.13346   2091138.89143
                  24350391.1804                                   24350387.4384
                                                                        40.7504
        21.5004
 09 10 16  0 20 30.0000000  0  9G02G04G29G05G13G10G23G25G16
  -9509768.66848  -7384552.76246
                  20624158.6954                                   20624153.0984
                                                                        51.7504
        41.2504
   1775749.43047   1391870.50845
                  22672930.5474                                   22672927.2894
                                                                        47.2504
        31.5004
 -19164256.87548 -14918766.62946
                  22329275.9924                                   22329273.2074
                                                                        49.0004
        37.5004
 -15839595.34448 -12328177.48046
                  22302683.0784                                   22302679.8554
                                                                        50.0004
        38.0004
 -11914114.26248  -9254144.62945
                  21287993.5944                                   21287989.3404
                                                                        50.2504
        35.7504
 -21453577.91048 -16701685.08246
                  21541331.3594                                   21541328.1724
                                                                        50.5004
        38.5004
   -632090.95747   -478582.51244
                  23289030.5314                                   23289024.4924
                                                                        45.5004
        26.0004
  -8061672.16847  -6246689.80944
                  23169382.3984                                   23169378.7114
                                                                        43.5004
        26.5004
   2500212.75846   1978606.67243
                  24322910.2194                                   24322906.0274
                                                                        40.7504
        21.5004
 09 10 16  0 21  0.0000000  0  9G02G04G29G05G13G10G23G25G16
  -9553146.31648  -7418353.53946
                  20615904.6174                                   20615898.6564
                                                                        52.0004
        41.2504
   1797950.39847   1409169.93845
                  22677155.4224                                   22677152.2194
                                                                        45.5004
        32.5004
 -19286057.39148 -15013676.11346
                  22306097.8754                                   22306095.2344
                                                                        49.0004
        37.0004
 -16007426.02348 -12458954.59846
                  22270746.1094                                   22270743.0594
                                                                        49.7504
        38.0004
 -11968739.47348  -9296709.67245
                  21277598.6644                                   21277594.6884
                                                                        49.5004
        35.5004
 -21609726.17248 -16823359.05546
                  21511617.2894                                   21511613.8834
                                                                        50.0004
        38.7504
   -619370.00847   -468670.06244
                  23291451.4064                                   23291444.4774
                                                                        45.2504
        25.7504
  -8200053.50047  -6354519.40644
                  23143049.3674                                   23143045.3324
                                                                        43.0004
        26.5004
   2356285.36746   1866455.46543
                  24295521.3754                                   24295516.9344
                                                                        40.5004
        20.0004
 09 10 16  0 21 30.0000000  0  9G02G04G29G05G13G10G23G25G16
  -9595927.75048  -7451689.73447
                  20607763.2424                                   20607757.8714
                                                                        51.7504
        42.0004
   1820461.22347   1426710.82845
                  22681438.9384                                   22681436.0554
                                                                        46.7504
        32.5004
 -19407278.98448 -15108134.56646
                  22283030.4774                                   22283027.4414
                                                                        48.5004
        36.5004
 -16174905.08648 -12589457.75446
                  22238875.8284                                   22238872.1844
                                                                        50.2504
        38.2504
 -12022686.57048  -9338746.35545
                  21267332.6644                                   21267328.7504
                                                                        50.2504
        35.7504
 -21765419.82048 -16944678.81246
                  21481989.8054                                   21481985.8014
                                                                        50.0004
        37.5004
   -606250.46947   -458446.99244
                  23293947.5234                                   23293940.5904
                                                                        44.0004
        24.5004
  -8337940.25847  -6461963.59844
                  23116809.5474                                   23116806.3874
                                                                        43.5004
        24.7504
   2212852.71946   1754689.78943
                  24268226.7274                                   24268222.8674
                                                                        40.2504
        20.7504
 09 10 16  0 22  0.0000000  0  9G02G04G29G05G13G10G23G25G16
  -9638112.00848  -7484560.58247
                  20599735.7584                                   20599730.2344
                                                                        52.0004
        42.0004
   1843281.00047   1444492.46145
                  22685781.3594                                   22685778.4614
                                                                        47.0004
        32.2504
 -19527916.26248 -15202137.60546
                  22260073.5234                                   22260070.8634
                                                                        49.0004
        36.0004
 -16342027.76248 -12719683.19946
                  22207073.2504                                   22207069.9264
                                                                        49.7504
        38.0004
 -12075954.82848  -9380254.10946
                  21257196.1954                                   21257192.0234
                                                                        51.0004
        36.0004
 -21920654.43748 -17065640.83246
                  21452449.2584                                   21452445.8834
                                                                        50.2504
        38.7504
   -592732.78147   -447913.69144
                  23296520.2194                                   23296512.9654
                                                                        44.2504
        24.0004
  -8475328.78947  -6569019.58244
                  23090665.2814                                   23090661.6054
                                                                        43.0004
        25.5004
   2069919.37146   1643313.15243
                  24241027.4614                                   24241023.6094
                                                                        40.2504
        20.2504
 09 10 16  0 22 30.0000000  0  9G02G04G29G05G13G10G23G25G16
  -9679699.10248  -7516966.06246
                  20591822.1954                                   20591816.5394
                                                                        52.0004
        41.2504
   1866409.03147   1462514.28545
                  22690182.0784                                   22690179.3134
                                                                        46.0004
        31.0004
 -19647968.80548 -15295684.98446
                  22237228.5864                                   22237225.6374
                                                                        49.5004
        36.2504
 -16508792.03548 -12849629.37146
                  22175339.1174                                   22175335.7274
                                                                        50.0004
        38.5004
 -12128544.06648  -9421232.73845
                  21247188.7814                                   21247184.7704
                                                                        50.5004
        35.5004
 -22075428.13748 -17186243.71546
                  21422997.0784                                   21422993.6954
                                                                        50.5004
        38.0004
   -578818.35947   -437071.29344
                  23299167.6334                                   23299161.8714
                                                                        43.2504
        24.5004
  -8612215.45347  -6675684.49644
                  23064616.7814                                   23064613.1994
                                                                        43.5004
        24.0004
   1927487.97346   1532327.68443
                  24213924.7424                                   24213919.4184
                                                                        40.5004
        20.2504
 09 10 16  0 23  0.0000000  0  9G02G04G29G05G13G10G23G25G16
  -9720689.48048  -7548906.61746
                  20584021.8054                                   20584016.1414
                                                                        52.5004
        41.7504
   1889843.16047   1480774.63745
                  22694642.5234                                   22694638.6914
                                                                        46.2504
        30.7504
 -19767434.52348 -15388775.10946
                  22214494.8834                                   22214491.7934
                                                                        49.5004
        36.7504
 -16675195.16448 -12979294.12146
                  22143674.2194                                   22143670.2194
                                                                        50.2504
        38.5004
 -12180455.73448  -9461683.41845
                  21237310.3594                                   21237306.6214
                                                                        50.5004
        35.5004
 -22229738.56648 -17306485.58646
                  21393632.7814                                   21393629.4614
                                                                        50.2504
        39.0004
   -564510.50047   -425922.32844
                  23301890.3524                                   23301883.9224
                                                                        43.2504
        25.2504
  -8748598.80947  -6781957.27344
                  23038664.2814                                   23038659.9064
                                                                        43.5004
        24.7504
   1785560.60846   1421734.93043
                  24186915.7344                                   24186911.4654
                                                                        40.5004
        19.7504
 09 10 16  0 23 30.0000000  0  9G02G04G29G05G13G10G23G25G16
  -9761083.95348  -7580382.84846
                  20576334.6954                                   20576329.6844
                                                                        52.2504
        41.2504
   1913581.46147   1499272.03145
                  22699159.5084                                   22699156.2154
                                                                        44.7504
        32.0004
 -19886310.94148 -15481406.01646
                  22191873.6254                                   22191870.3094
                                                                        48.7504
        36.5004
 -16841235.65648 -13108676.32046
                  22112077.4144                                   22112073.8834
                                                                        50.5004
        38.5004
 -12231690.37948  -9501606.51645
                  21227560.6804                                   21227556.8094
                                                                        50.5004
        35.2504
 -22383583.51248 -17426364.75446
                  21364357.1174                                   21364353.9884
                                                                        50.5004
        39.0004
   -549810.91847   -414468.09444
                  23304687.1334                                   23304681.8984
                                                                        44.5004
        25.7504
  -8884475.75847  -6887835.35544
                  23012808.1484                                   23012803.8674
                                                                        44.7504
        26.2504
   1644141.13746   1311537.96543
                  24160005.0634                                   24160000.2704
                                                                        40.2504
        18.5004
 09 10 16  0 24  0.0000000  0  9G02G04G29G05G13G10G23G25G16
  -9800884.83648  -7611396.55546
                  20568761.2894                                   20568755.1954
                                                                        52.5004
        41.7504
   1937620.47747   1518003.71545
                  22703733.8364                                   22703730.5864
                                                                        45.5004
        31.5004
 -20004598.08248 -15573577.79346
                  22169363.9454                                   22169361.1024
                                                                        49.7504
        37.2504
 -17006912.62148 -13237775.22346
                  22080549.9774                                   22080546.0594
                                                                        50.2504
        39.0004
 -12282250.10548  -9541003.70345
                  21217939.5394                                   21217935.4414
                                                                        50.5004
        35.0004
 -22536962.49248 -17545880.82046
                  21335170.1564                                   21335166.5354
                                                                        50.5004
        38.5004
   -534723.99247   -402712.06644
                  23307558.8134                                   23307552.9224
                                                                        44.5004
        27.2504
  -9019845.91047  -6993318.57844
                  22987047.6804                                   22987043.6054
                                                                        45.0004
        27.2504
   1503229.89146   1201736.96143
                  24133190.1334                                   24133185.4064
                                                                        41.2504
        18.2504
 09 10 16  0 24 30.0000000  0 10G02G04G29G05G13G10G23G25G16G07
  -9840093.60548  -7641948.87547
                  20561300.2424                                   20561294.4064
                                                                        52.0004
        42.0004
   1961956.88347   1536967.11745
                  22708364.4384                                   22708361.6454
                                                                        45.7504
        31.2504
 -20122295.94948 -15665290.44946
                  22146967.1174                                   22146964.0704
                                                                        49.2504
        37.2504
 -17172225.03548 -13366590.07046
                  22049092.2664                                   22049088.2544
                                                                        50.0004
        38.7504
 -12332137.62948  -9579877.09045
                  21208446.0314                                   21208441.8444
                                                                        49.7504
        35.2504
 -22689875.04348 -17665033.45746
                  21306071.6024                                   21306068.3324
                                                                        50.5004
        39.0004
   -519253.20347   -390656.89844
                  23310502.9224                                   23310496.8094
                                                                        45.0004
        26.5004
  -9154708.63747  -7098406.41444
                  22961384.1414                                   22961380.2854
                                                                        45.7504
        27.5004
   1362827.80146   1092332.72743
                  24106472.9384                                   24106467.8874
                                                                        41.7504
        20.5004
   2890385.52756   2288850.42653
                  24318020.3444                                   24318016.7344
                                                                        40.2504
        20.2504
 09 10 16  0 25  0.0000000  0 10G02G04G29G05G13G10G23G25G16G07
  -9878713.12548  -7672042.05546
                  20553951.1954                                   20553945.5634
                                                                        52.0004
        41.7504
   1986587.48847   1556159.77345
                  22713051.7034                                   22713048.9734
                                                                        45.0004
        31.5004
 -20239404.54748 -15756543.88746
                  22124681.8914                                   22124678.8484
                                                                        49.0004
        37.0004
 -17337173.29348 -13495121.21146
                  22017703.5704                                   22017699.8954
                                                                        49.7504
        38.0004
 -12381355.11348  -9618228.36345
                  21199080.5234                                   21199076.0704
                                                                        49.0004
        35.5004
 -22842321.07848 -17783822.64846
                  21277062.1484                                   21277059.1414
                                                                        51.0004
        39.0004
   -503402.34447   -378305.56244
                  23313518.7344                                   23313513.4454
                                                                        44.5004
        26.0004
  -9289062.52047  -7203097.72344
                  22935817.2344                                   22935813.4384
                                                                        44.5004
        27.7504
   1222935.70747    983325.89143
                  24079852.6024                                   24079847.0004
                                                                        43.0004
        21.0004
   2714770.16847   2152007.27044
                  24284602.1804                                   24284598.5204
                                                                        42.0004
        24.0004
 09 10 16  0 25 30.0000000  0 10G02G04G29G05G13G10G23G25G16G07
  -9916745.09848  -7701677.37146
                  20546713.7344                                   20546708.3324
                                                                        51.7504
        41.0004
   2011508.27047   1575578.55945
                  22717794.3054                                   22717790.6914
                                                                        45.0004
        31.2504
 -20355922.97348 -15847337.50046
                  22102509.1884                                   22102505.9804
                                                                        49.2504
        37.0004
 -17501755.82048 -13623367.31246
                  21986384.5394                                   21986381.1134
                                                                        50.2504
        39.0004
 -12429905.38748  -9656059.73045
                  21189841.1254                                   21189837.4924
                                                                        49.2504
        35.2504
 -22994299.45348 -17902247.46146
                  21248141.7114                                   21248138.3594
                                                                        51.5004
        39.2504
   -487176.09047   -365661.68444
                  23316606.7664                                   23316599.8404
                                                                        44.0004
        24.0004
  -9422907.80147  -7307392.73444
                  22910347.5314                                   22910343.8874
                                                                        44.5004
        27.2504
   1083554.76647    874717.34443
                  24053329.0164                                   24053324.4454
                                                                        42.5004
        22.2504
   2539431.07847   2015379.38744
                  24251236.0474                                   24251232.9654
                                                                        43.0004
        26.0004
 09 10 16  0 26  0.0000000  0 10G02G04G29G05G13G10G23G25G16G07
  -9954190.74648  -7730855.82046
                  20539588.3674                                   20539582.7424
                                                                        51.7504
        41.7504
   2036717.84047   1595222.37945
                  22722591.4924                                   22722588.3014
                                                                        45.5004
        31.2504
 -20471850.97348 -15937670.99646
                  22080448.7344                                   22080445.9884
                                                                        48.5004
        37.0004
 -17665971.56648 -13751327.58646
                  21955135.1804                                   21955131.5904
                                                                        50.5004
        38.2504
 -12477789.55148  -9693372.07045
                  21180729.7424                                   21180725.2704
                                                                        49.2504
        34.5004
 -23145808.53548 -18020306.49246
                  21219310.5704                                   21219307.5274
                                                                        50.7504
        39.0004
   -470576.77347   -352727.15243
                  23319765.2814                                   23319759.0514
                                                                        43.0004
        23.0004
  -9556241.64747  -7411289.20444
                  22884974.7974                                   22884971.8134
                                                                        44.5004
        27.7504
    944686.69147    766508.48443
                  24026903.4694                                   24026898.8984
                                                                        42.0004
        22.0004
   2364371.98447   1878969.69144
                  24217923.4224                                   24217920.5634
                                                                        42.5004
        26.5004
 09 10 16  0 26 30.0000000  0 10G02G04G29G05G13G10G23G25G16G07
  -8415625.05548  -6531973.49247
                  20832367.7974                                   20832361.9264
                                                                        52.0004
        42.0004
   3637637.28147   2842692.07445
                  23027236.4454                                   23027233.5044
                                                                        45.7504
        31.5004
 -19011757.46548 -14799935.86746
                  22358295.3364                                   22358292.7544
                                                                        49.0004
        37.7504
 -16254388.22748 -12651392.52046
                  22223750.6884                                   22223746.8204
                                                                        49.5004
        39.0004
 -10949582.96148  -8502561.73445
                  21471537.3594                                   21471533.3914
                                                                        49.2504
        35.5004
 -21721416.62948 -16910390.69546
                  21490363.2664                                   21490359.7774
                                                                        50.7504
        38.5004
   1121817.03547    888099.22343
                  23622787.6564                                   23622781.5204
                                                                        42.2504
        22.7504
  -8113633.61747  -6287179.00844
                  23159494.0944                                   23159490.5904
                                                                        43.7504
        25.7504
   2381763.73046   1886308.77743
                  24300370.1644                                   24300365.5044
                                                                        41.5004
        22.0004
   3765025.84846   2970388.32844
                  24484458.9924                                   24484455.7974
                                                                        41.7504
        24.5004
 09 10 16  0 27  0.0000000  0 10G02G04G29G05G13G10G23G25G16G07
  -8451890.59848  -6560232.40646
                  20825466.7584                                   20825460.7624
                                                                        52.5004
        41.5004
   3663427.45347   2862788.30545
                  23032143.8674                                   23032141.1684
                                                                        45.7504
        31.0004
 -19126488.56648 -14889336.78946
                  22336463.1804                                   22336459.9494
                                                                        50.0004
        37.5004
 -16417853.67248 -12778768.20746
                  22192644.2114                                   22192640.2384
                                                                        49.7504
        39.5004
 -10996128.34448  -8538830.88345
                  21462679.9224                                   21462675.3984
                                                                        49.0004
        34.5004
 -21871971.12948 -17027705.82846
                  21461713.4454                                   21461710.6174
                                                                        51.2504
        38.7504
   1139165.22347    901617.31343
                  23626089.0944                                   23626082.7344
                                                                        42.5004
        22.2504
  -8245928.90247  -6390266.20344
                  23134318.7734                                   23134314.7934
                                                                        42.7504
        25.7504
   2243939.67246   1778913.38743
                  24274143.0234                                   24274138.2304
                                                                        40.2504
        22.2504
   3590545.44546   2834429.55143
                  24451256.5634                                   24451253.5554
                                                                        40.7504
        22.0004
 09 10 16  0 27 30.0000000  0 10G02G04G29G05G13G10G23G25G16G07
  -8487568.94148  -6588033.71546
                  20818676.9534                                   20818671.3714
                                                                        52.0004
        41.0004
   3689502.91447   2883106.79744
                  23037105.5234                                   23037102.8014
                                                                        46.0004
        29.5004
 -19240620.20748 -14978270.50046
                  22314744.4304                                   22314741.6024
                                                                        50.0004
        38.0004
 -16580942.54748 -12905850.42646
                  22161609.3204                                   22161605.6724
                                                                        49.5004
        38.5004
 -11042008.03948  -8574581.30945
                  21453949.5704                                   21453945.2734
                                                                        48.7504
        34.2504
 -22022047.13348 -17144648.16446
                  21433155.0864                                   21433152.1214
                                                                        51.2504
        38.7504
   1156882.00447    915422.59444
                  23629460.7424                                   23629454.2704
                                                                        43.5004
        25.5004
  -8377703.90247  -6492947.98044
                  23109242.5164                                   23109238.7974
                                                                        42.7504
        26.5004
   2106639.07046   1671925.97743
                  24248015.0394                                   24248011.3404
                                                                        38.2504
        21.5004
   3416356.81346   2698698.20343
                  24418109.4844                                   24418106.0984
                                                                        39.5004
        20.0004
 09 10 16  0 28  0.0000000  0 10G02G04G29G05G13G10G23G25G16G07
  -8522657.47348  -6615375.45346
                  20811999.9924                                   20811994.3594
                                                                        52.5004
        41.5004
   3715865.75447   2903649.25444
                  23042122.3754                                   23042119.1684
                                                                        45.7504
        29.7504
 -19354147.39548 -15066733.23846
                  22293140.9774                                   22293138.0784
                                                                        50.0004
        38.0004
 -16743649.31248 -13032634.94146
                  22130647.3834                                   22130644.1914
                                                                        48.5004
        39.0004
 -11087218.89148  -8609810.54345
                  21445346.4454                                   21445341.8954
                                                                        48.5004
        34.0004
 -22171639.13748 -17261213.39546
                  21404688.4614                                   21404685.0124
                                                                        51.0004
        39.0004
   1174968.88347    929516.27344
                  23632902.3594                                   23632896.1764
                                                                        43.5004
        25.0004
  -8508952.42247  -6595219.53144
                  23084267.1644                                   23084263.3634
                                                                        43.2504
        26.5004
   1969868.63346   1565351.68043
                  24221987.4844                                   24221984.6954
                                                                        37.0004
        20.5004
   3242466.94146   2563199.65643
                  24385019.0944                                   24385015.3524
                                                                        41.0004
        19.5004
 09 10 16  0 28 30.0000000  0 10G02G04G29G05G13G10G23G25G16G07
  -8557158.54348  -6642259.39146
                  20805434.6334                                   20805428.7074
                                                                        51.7504
        40.7504
   3742512.76247   2924413.15245
                  23047193.2194                                   23047189.9694
                                                                        46.0004
        30.0004
 -19467071.78548 -15154726.33646
                  22271651.7274                                   22271649.6684
                                                                        50.0004
        38.5004
 -16905974.16048 -13159121.88746
                  22099757.7974                                   22099754.4144
                                                                        50.0004
        39.5004
 -11131764.05148  -8644521.00845
                  21436870.1094                                   21436865.6644
                                                                        49.0004
        34.0004
 -22320747.60248 -17377401.82446
                  21376314.3364                                   21376311.0744
                                                                        51.5004
        39.7504
   1193421.27047    943894.77044
                  23636414.2424                                   23636407.5434
                                                                        43.0004
        24.5004
  -8639673.66847  -6697080.22744
                  23059391.5474                                   23059388.1134
                                                                        43.7504
        26.0004
   1833627.57046   1459189.85243
                  24196062.3594                                   24196058.6644
                                                                        39.5004
        21.0004
   3068878.11346   2427935.60243
                  24351986.5084                                   24351982.6334
                                                                        41.7504
        21.5004
 09 10 16  0 29  0.0000000  0 10G02G04G29G05G13G10G23G25G16G07
  -8591074.36348  -6668687.29746
                  20798980.6644                                   20798974.7624
                                                                        52.5004
        41.0004
   3769439.70047   2945395.17044
                  23052317.6254                                   23052314.3014
                                                                        46.5004
        29.7504
 -19579391.19848 -15242248.02446
                  22250278.5554                                   22250275.7274
                                                                        49.7504
        37.2504
 -17067915.87948 -13285310.30946
                  22068941.6804                                   22068937.6024
                                                                        50.0004
        39.5004
 -11175646.38748  -8678715.04745
                  21428518.9774                                   21428514.4384
                                                                        48.7504
        34.7504
 -22469370.97348 -17493212.29346
                  21348032.2504                                   21348028.9964
                                                                        51.7504
        38.7504
   1212235.65647    958555.32844
                  23639993.7664                                   23639988.2384
                                                                        42.7504
        24.5004
  -8769867.64547  -6798530.07044
                  23034616.5474                                   23034612.7664
                                                                        43.7504
        27.5004
   1697917.94946   1353442.13244
                  24170238.4694                                   24170233.9224
                                                                        41.0004
        24.0004
   2895590.98847   2292906.68843
                  24319010.7344                                   24319006.7894
                                                                        42.7504
        22.5004
 09 10 16  0 29 30.0000000  0 10G02G04G29G05G13G10G23G25G16G07
  -8624405.70748  -6694659.76646
                  20792638.3834                                   20792632.2774
                                                                        51.5004
        41.0004
   3796645.52747   2966594.52345
                  23057494.3524                                   23057491.0634
                                                                        46.5004
        30.0004
 -19691105.48848 -15329298.11346
                  22229020.0314                                   22229017.4184
                                                                        49.0004
        37.5004
 -17229472.69948 -13411198.74646
                  22038198.1484                                   22038194.6564
                                                                        50.0004
        39.5004
 -11218866.50448  -8712393.05945
                  21420294.7584                                   21420290.5164
                                                                        48.0004
        34.5004
 -22617507.32448 -17608643.18046
                  21319842.9614                                   21319839.9654
                                                                        51.5004
        39.2504
   1231409.43846    973495.91043
                  23643642.5784                                   23643636.8054
                                                                        41.5004
        22.7504
  -8899531.75047  -6899566.99644
                  23009942.3444                                   23009938.7384
                                                                        44.2504
        27.5004
   1562741.56647   1248109.89544
                  24144515.1334                                   24144510.9184
                                                                        42.0004
        24.0004
   2722609.58247   2158116.01644
                  24286093.7814                                   24286090.2114
                                                                        42.7504
        24.7504
 09 10 16  0 30  0.0000000  0 10G02G04G29G05G13G10G23G25G16G07
  -8657152.79748  -6720176.98046
                  20786406.0634                                   20786400.6954
                                                                        52.5004
        41.0004
   3824128.58247   2988009.87945
                  23062724.7034                                   23062721.2384
                                                                        45.7504
        30.5004
 -19802211.29748 -15415874.08246
                  22207877.1254                                   22207874.3324
                                                                        49.5004
        37.5004
 -17390641.39148 -13536784.79346
                  22007529.0164                                   22007525.5514
                                                                        49.5004
        39.5004
 -11261424.92648  -8745555.44945
                  21412195.8284                                   21412191.6294
                                                                        48.5004
        34.5004
 -22765154.48848 -17723692.89546
                  21291746.8594                                   21291743.4384
                                                                        50.7504
        39.0004
   1250941.57446    988715.72743
                  23647358.5704                                   23647353.6524
                                                                        41.2504
        22.5004
  -9028663.03147  -7000188.75044
                  22985369.4384                                   22985365.9494
                                                                        43.5004
        26.2504
   1428102.62547   1143196.41043
                  24118894.4614                                   24118889.5864
                                                                        42.0004
        21.0004
   2549937.53146   2023566.44944
                  24253235.2194                                   24253232.2814
                                                                        40.5004
        24.5004
 09 10 16  0 30 30.0000000  0 10G02G04G29G05G13G10G23G25G16G07
  -8689319.53948  -6745242.00846
                  20780285.3914                                   20780279.4924
                                                                        52.2504
        41.5004
   3851883.67647   3009637.20745
                  23068005.7974                                   23068003.1024
                                                                        46.7504
        30.0004
 -19912710.58648 -15501977.37146
                  22186849.7034                                   22186846.9924
                                                                        49.5004
        38.2504
 -17551422.97348 -13662069.14546
                  21976933.1564                                   21976929.5084
                                                                        50.0004
        40.0004
 -11303326.54748  -8778206.05945
                  21404222.0784                                   21404218.2304
                                                                        48.5004
        34.0004
 -22912313.33248 -17838362.17246
                  21263743.2274                                   21263740.1764
                                                                        51.5004
        40.0004
   1270825.23846   1004209.49643
                  23651143.0234                                   23651136.7194
                                                                        41.0004
        22.2504
  -9157263.18047  -7100396.65644
                  22960897.8204                                   22960893.4184
                                                                        44.5004
        27.5004
   1293999.06646   1038700.10543
                  24093375.1254                                   24093369.7544
                                                                        41.5004
        20.5004
   2377574.35546   1889257.55543
                  24220435.3284                                   24220432.2194
                                                                        38.0004
        21.7504
 09 10 16  0 31  0.0000000  0 10G02G04G29G05G13G10G23G25G16G07
  -8720909.71948  -6769857.73846
                  20774273.7734                                   20774268.0904
                                                                        51.7504
        41.5004
   3879906.48447   3031473.13744
                  23073338.3834                                   23073335.7734
                                                                        45.2504
        29.2504
 -20022605.40648 -15587609.67246
                  22165937.4144                                   22165934.4224
                                                                        50.5004
        37.5004
 -17711818.67248 -13787052.76246
                  21946410.8984                                   21946407.1564
                                                                        50.0004
        39.2504
 -11344574.57448  -8810347.37145
                  21396373.5554                                   21396369.1094
                                                                        49.0004
        34.0004
 -23058984.66048 -17952651.50846
                  21235832.6724                                   21235828.9414
                                                                        51.0004
        39.5004
   1291056.32046   1019973.97343
                  23654993.2424                                   23654986.0664
                                                                        41.5004
        20.5004
  -9285332.17647  -7200190.67644
                  22936526.6644                                   22936523.0434
                                                                        43.5004
        28.2504
   1160430.66846    934620.76243
                  24067957.8364                                   24067951.8914
                                                                        40.2504
        19.0004
   2205521.23446   1755190.28943
                  24187693.5004                                   24187691.7194
                                                                        38.5004
        22.2504
 09 10 16  0 31 30.0000000  0 10G02G04G29G05G13G10G23G25G16G07
  -8751923.19148  -6794024.10546
                  20768372.2424                                   20768366.4414
                                                                        51.5004
        41.5004
   3908195.75847   3053516.70744
                  23078721.9844                                   23078718.7424
                                                                        46.0004
        28.7504
 -20131892.15648 -15672768.20346
                  22145141.0864                                   22145138.0984
                                                                        49.5004
        37.7504
 -17871824.81248 -13911732.84846
                  21915962.7664                                   21915958.9344
                                                                        50.2504
        40.0004
 -11385169.42648  -8841979.71945
                  21388647.9844                                   21388644.0394
                                                                        48.5004
        34.5004
 -23205165.23448 -18066558.42246
                  21208015.2814                                   21208012.0394
                                                                        51.5004
        39.2504
   1311633.00047   1036007.79343
                  23658908.7344                                   23658902.0314
                                                                        43.5004
        22.5004
  -9412867.35947  -7299568.72344
                  22912257.7894                                   22912253.9884
                                                                        43.2504
        28.0004
   1027401.52046    830961.66443
                  24042642.9924                                   24042637.5784
                                                                        40.5004
        19.0004
   2033781.73046   1621367.40243
                  24155013.7194                                   24155010.7894
                                                                        40.5004
        23.0004
 09 10 16  0 32  0.0000000  0 10G02G04G29G05G13G10G23G25G16G07
  -8782358.88748  -6817740.23046
                  20762580.6414                                   20762574.9104
                                                                        52.2504
        41.0004
   3936751.63747   3075768.03144
                  23084155.9774                                   23084152.8554
                                                                        45.7504
        28.5004
 -20240568.44148 -15757450.99646
                  22124460.5474                                   22124457.7344
                                                                        49.7504
        38.0004
 -18031437.77048 -14036106.55146
                  21885589.1334                                   21885585.9184
                                                                        49.5004
        39.7504
 -11425111.06648  -8873103.06245
                  21381047.5164                                   21381043.4694
                                                                        49.2504
        34.0004
 -23350851.93748 -18180080.53146
                  21180292.1094                                   21180288.9494
                                                                        51.5004
        39.7504
   1332554.20747   1052310.03944
                  23662889.9454                                   23662883.6564
                                                                        43.5004
        25.0004
  -9539865.01647  -7398527.92644
                  22888090.2274                                   22888087.0274
                                                                        43.0004
        26.5004
    894914.43446    727724.94943
                  24017431.4224                                   24017427.1094
                                                                        38.0004
        20.5004
   1862361.30547   1487793.21844
                  24122393.7894                                   24122390.0704
                                                                        42.5004
        24.0004
 09 10 16  0 32 30.0000000  0 10G02G04G29G05G13G10G23G25G16G07
  -8812223.15248  -6841011.10946
                  20756897.4924                                   20756892.1764
                                                                        50.7504
        40.5004
   3965566.90247   3098221.41444
                  23089639.3834                                   23089636.2734
                                                                        46.0004
        29.0004
 -20348637.44148 -15841660.58246
                  22103895.8134                                   22103892.7424
                                                                        49.0004
        38.0004
 -18190660.77748 -14160176.38746
                  21855289.9064                                   21855286.7544
                                                                        50.5004
        39.5004
 -11464405.19948  -8903721.87145
                  21373570.2504                                   21373565.9534
                                                                        49.0004
        34.7504
 -23496047.66448 -18293220.07046
                  21152662.3364                                   21152658.8634
                                                                        51.0004
        39.7504
   1353813.12147   1068875.42644
                  23666935.4774                                   23666929.3404
                                                                        43.5004
        25.5004
  -9666327.70347  -7497070.18044
                  22864025.6954                                   22864021.8444
                                                                        43.0004
        27.0004
    762968.08246    624909.61343
                  23992323.1954                                   23992318.8204
                                                                        40.0004
        21.2504
   1691257.61347   1354465.73044
                  24089833.6564                                   24089829.6094
                                                                        42.0004
        24.7504
 09 10 16  0 33  0.0000000  0 10G02G04G29G05G13G10G23G25G16G07
  -8841515.06248  -6863835.99646
                  20751323.6414                                   20751317.7854
                                                                        51.2504
        40.5004
   3994641.66847   3120877.04344
                  23095171.8754                                   23095169.2704
                                                                        44.2504
        29.7504
 -20456096.62948 -15925395.02046
                  22083446.8674                                   22083443.6804
                                                                        49.0004
        38.0004
 -18349490.37148 -14283939.63746
                  21825065.7974                                   21825062.3524
                                                                        50.2504
        39.5004
 -11503051.56648  -8933835.92645
                  21366216.3594                                   21366211.8914
                                                                        49.2504
        35.0004
 -23640749.03948 -18405974.37546
                  21125126.4064                                   21125123.1764
                                                                        51.0004
        40.0004
   1375408.83247   1085703.24643
                  23671044.5004                                   23671039.0944
                                                                        42.0004
        22.5004
  -9792251.83247  -7595192.85944
                  22840062.6024                                   22840059.0354
                                                                        42.7504
        27.7504
    631565.47346    522518.01243
                  23967318.1484                                   23967314.0904
                                                                        38.7504
        22.7504
   1520476.00947   1221389.15943
                  24057334.7894                                   24057330.4494
                                                                        42.0004
        22.7504
 09 10 16  0 33 30.0000000  0 10G02G04G29G05G13G10G23G25G16G07
  -8870236.33648  -6886216.20346
                  20745858.1174                                   20745852.5634
                                                                        51.0004
        40.7504
   4023972.91447   3143732.54344
                  23100753.8284                                   23100750.3364
                                                                        44.5004
        28.5004
 -20562945.09048 -16008653.55946
                  22063114.4144                                   22063111.4494
                                                                        49.7504
        37.7504
 -18507925.34448 -14407395.46146
                  21794916.6334                                   21794912.9734
                                                                        50.5004
        40.0004
 -11541052.91048  -8963447.37545
                  21358984.4924                                   21358980.3524
                                                                        48.7504
        34.5004
 -23784954.77048 -18518342.45746
                  21097685.1724                                   21097681.5634
                                                                        51.2504
        40.0004
   1397337.21146   1102790.23843
                  23675216.9144                                   23675211.6884
                                                                        39.7504
        22.0004
  -9917636.91047  -7692895.49244
                  22816203.0084                                   22816199.6294
                                                                        42.7504
        27.0004
    500707.55146    420550.83643
                  23942416.1024                                   23942412.8834
                                                                        40.0004
        23.7504
   1350018.09847   1088564.78543
                  24024898.2974                                   24024893.5394
                                                                        42.0004
        21.2504
 09 10 16  0 34  0.0000000  0 10G02G04G29G05G13G10G23G25G16G07
  -8898388.03948  -6908152.61346
                  20740500.9304                                   20740495.5354
                                                                        51.5004
        40.7504
   4053558.80547   3166786.45744
                  23106383.4774                                   23106380.6644
                                                                        44.2504
        26.5004
 -20669180.64848 -16091434.50446
                  22042898.5634                                   22042895.4304
                                                                        49.5004
        38.2504
 -18665962.80148 -14530541.52046
                  21764843.4534                                   21764839.7704
                                                                        50.7504
        40.5004
 -11578409.69148  -8992556.55145
                  21351875.6884                                   21351871.8164
                                                                        49.2504
        34.5004
 -23928662.27048 -18630322.35946
                  21070338.1804                                   21070334.3444
                                                                        50.5004
        39.7504
   1419597.27746   1120135.69543
                  23679453.1414                                   23679447.2424
                                                                        39.7504
        21.5004
 -10042480.21147  -7790175.94544
                  22792446.2814                                   22792442.4344
                                                                        44.0004
        27.0004
    370397.98846    319010.96143
                  23917619.4694                                   23917615.6024
                                                                        39.0004
        22.2504
   1179887.17246    955995.25843
                  23992522.9224                                   23992518.7814
                                                                        40.2504
        22.5004
 09 10 16  0 34 30.0000000  0 10G02G04G29G05G13G10G23G25G16G07
  -8925971.18748  -6929645.96946
                  20735251.9774                                   20735246.7344
                                                                        51.5004
        40.5004
   4083397.35547   3190037.23044
                  23112061.8134                                   23112058.5084
                                                                        44.5004
        29.5004
 -20774803.82448 -16173738.31246
                  22022798.9844                                   22022795.9414
                                                                        49.5004
        37.2504
 -18823601.59448 -14653376.95346
                  21734845.7504                                   21734841.9804
                                                                        49.7504
        40.0004
 -11615123.91048  -9021165.01245
                  21344889.3594                                   21344884.8484
                                                                        48.5004
        35.0004
 -24071871.06248 -18741913.60246
                  21043086.7424                                   21043083.5354
                                                                        51.0004
        39.2504
   1442185.18847   1137736.61343
                  23683751.4304                                   23683745.4654
                                                                        43.0004
        22.5004
 -10166780.18047  -7887033.05944
                  22768792.5704                                   22768789.0164
                                                                        44.0004
        28.5004
    240637.31646    217898.77743
                  23892926.8754                                   23892922.7704
                                                                        39.7504
        22.7504
   1010086.59846    823683.12543
                  23960210.7114                                   23960207.0554
                                                                        41.0004
        22.7504
 09 10 16  0 35  0.0000000  0 10G02G04G29G05G13G10G23G25G16G07
  -8952988.77048  -6950698.62946
                  20730110.7894                                   20730105.5554
                                                                        51.5004
        41.0004
   4113484.78547   3213481.96144
                  23117786.7974                                   23117784.1954
                                                                        45.5004
        29.0004
 -20879814.43748 -16255564.76646
                  22002816.0704                                   22002813.0474
                                                                        50.0004
        37.7504
 -18980841.78548 -14775901.78146
                  21704924.0784                                   21704919.8984
                                                                        50.5004
        40.2504
 -11651198.85947  -9049275.33245
                  21338024.3364                                   21338020.4064
                                                                        47.7504
        34.0004
 -24214581.03948 -18853116.16446
                  21015929.8364                                   21015926.5704
                                                                        51.5004
        39.7504
   1465096.96547   1155589.98443
                  23688112.8134                                   23688105.6454
                                                                        44.2504
        22.7504
 -10290536.93847  -7983466.88744
                  22745242.4534                                   22745238.5164
                                                                        42.7504
        27.5004
    111426.23046    117214.80543
                  23868338.5474                                   23868334.5824
                                                                        40.5004
        23.2504
    840617.30946    691629.18043
                  23927961.4924                                   23927958.1724
                                                                        39.7504
        22.7504
 09 10 16  0 35 30.0000000  0 10G02G04G29G05G13G10G23G25G16G07
  -8979442.76248  -6971312.13346
                  20725076.3524                                   20725070.9654
                                                                        51.5004
        41.2504
   4143818.27347   3237118.40244
                  23123559.1884                                   23123556.7074
                                                                        45.2504
        28.7504
 -20984211.33648 -16336912.88746
                  21982949.9614                                   21982946.9064
                                                                        50.2504
        38.0004
 -19137682.23448 -14898115.23446
                  21675078.1174                                   21675074.1724
                                                                        49.7504
        40.0004
 -11686636.25047  -9076888.83245
                  21331280.8674                                   21331276.8674
                                                                        46.5004
        34.0004
 -24356790.35548 -18963928.57446
                  20988868.4924                                   20988865.0354
                                                                        50.2504
        39.5004
   1488329.87947   1173693.57843
                  23692533.4224                                   23692525.7504
                                                                        43.5004
        22.7504
 -10413748.89147  -8079476.16044
                  22721796.1254                                   22721792.5784
                                                                        43.0004
        27.7504
    -17233.25046     16960.66843
                  23843856.1024                                   23843851.4844
                                                                        41.0004
        22.5004
    671482.26246    559835.70744
                  23895776.5784                                   23895772.8554
                                                                        41.2504
        24.0004
 09 10 16  0 36  0.0000000  0 10G02G04G29G05G13G10G23G25G16G07
  -9005333.17648  -6991486.44146
                  20720149.9064                                   20720144.2274
                                                                        51.2504
        40.7504
   4174396.60247   3260945.62544
                  23129378.5864                                   23129375.4654
                                                                        45.5004
        29.2504
 -21087993.20748 -16417781.79746
                  21963200.9064                                   21963197.9494
                                                                        50.5004
        37.5004
 -19294119.91848 -15020014.94146
                  21645308.9774                                   21645305.6524
                                                                        50.0004
        40.5004
 -11721437.48047  -9104006.63345
                  21324658.3134                                   21324654.2624
                                                                        47.2504
        34.7504
 -24498497.21948 -19074349.65646
                  20961902.7114                                   20961898.8324
                                                                        50.2504
        40.0004
   1511881.37547   1192045.42643
                  23697014.2584                                   23697007.8244
                                                                        43.2504
        22.5004
 -10536413.90647  -8175059.23844
                  22698453.4454                                   22698449.6564
                                                                        44.5004
        28.2504
   -145339.00446    -82861.98843
                  23819478.0864                                   23819473.8054
                                                                        41.2504
        23.5004
    502684.54347    428304.99244
                  23863655.5474                                   23863652.0314
                                                                        42.7504
        26.7504
 09 10 16  0 36 30.0000000  0 10G02G04G29G05G13G10G23G25G16G07
  -7455242.28948  -5783623.46946
                  21015122.4384                                   21015117.0434
                                                                        51.5004
        41.0004
   5780635.25847   4512560.07844
                  23435036.0004                                   23435032.7584
                                                                        44.2504
        28.7504
 -19615736.99248 -15270569.13346
                  22243361.6724                                   22243358.3284
                                                                        50.5004
        38.0004
 -17874728.68048 -13913995.82846
                  21915410.2664                                   21915407.0044
                                                                        50.0004
        40.5004
 -10180183.98847  -7903029.86745
                  21617949.1804                                   21617945.1254
                                                                        47.2504
        34.0004
 -23064276.41448 -17956775.16046
                  21234826.0084                                   21234822.2194
                                                                        49.5004
        39.7504
   3111167.09046   2438242.07843
                  24001348.3364                                   24001342.6094
                                                                        40.0004
        21.0004
  -9083107.44547  -7042612.64544
                  22975008.7194                                   22975004.7344
                                                                        43.7504
        28.0004
   1302534.09446   1045350.83243
                  24094998.9454                                   24094994.1024
                                                                        41.7504
        22.2504
   1909651.81346   1524643.17644
                  24131393.0394                                   24131389.2304
                                                                        41.7504
        26.5004
 09 10 16  0 37  0.0000000  0 10G02G04G29G05G13G10G23G25G16G07
  -7480010.97348  -5802923.77346
                  21010409.4694                                   21010403.4024
                                                                        52.0004
        41.0004
   5811695.59447   4536762.85944
                  23440945.8914                                   23440943.2034
                                                                        44.2504
        28.7504
 -19718286.58648 -15350477.91046
                  22223847.6254                                   22223844.4654
                                                                        50.0004
        37.7504
 -18030356.01648 -14035263.93446
                  21885795.4224                                   21885792.0044
                                                                        49.2504
        40.2504
 -10213718.50847  -7929160.67645
                  21611567.5944                                   21611563.6724
                                                                        46.7504
        34.0004
 -23204973.88748 -18066409.58246
                  21208051.9224                                   21208048.7544
                                                                        50.2504
        40.0004
   3135347.55146   2457083.91443
                  24005949.8834                                   24005943.7584
                                                                        40.0004
        22.7504
  -9204674.53147  -7137340.23044
                  22951875.1254                                   22951871.3094
                                                                        43.7504
        29.0004
   1175541.23046    946395.35243
                  24070833.6644                                   24070828.1524
                                                                        41.0004
        21.7504
   1741537.18446   1393644.79744
                  24099401.7194                                   24099397.6724
                                                                        41.2504
        26.0004
 09 10 16  0 37 30.0000000  0 10G02G04G29G05G13G10G23G25G16G07
  -7504221.70748  -5821789.28546
                  21005802.1884                                   21005796.7664
                                                                        52.0004
        40.5004
   5842993.30947   4561150.62144
                  23446902.1804                                   23446899.1684
                                                                        45.0004
        28.0004
 -19820220.23048 -15429906.71146
                  22204450.1414                                   22204447.3984
                                                                        50.0004
        38.0004
 -18185577.14548 -14156215.44146
                  21856257.9844                                   21856254.2194
                                                                        50.7504
        40.5004
 -10246623.02047  -7954800.57045
                  21605306.4224                                   21605302.5164
                                                                        47.0004
        33.7504
 -23345166.07448 -18175650.35946
                  21181374.4224                                   21181371.3134
                                                                        50.2504
        39.7504
   3159837.14547   2476166.68043
                  24010610.5784                                   24010604.5204
                                                                        42.0004
        23.0004
  -9325690.96547  -7231638.73044
                  22928845.8204                                   22928842.3794
                                                                        43.7504
        28.0004
   1049105.94147    847874.30143
                  24046773.6644                                   24046768.4224
                                                                        43.0004
        22.0004
   1573767.69547   1262915.35244
                  24067475.6094                                   24067471.8794
                                                                        42.2504
        24.5004
 09 10 16  0 38  0.0000000  0 10G02G04G29G05G13G10G23G25G16G07
  -7527874.20748  -5840219.82446
                  21001301.1954                                   21001295.4534
                                                                        51.2504
        40.7504
   5874527.35947   4585722.59444
                  23452902.7344                                   23452899.5784
                                                                        45.2504
        28.2504
 -19921533.79348 -15508852.36746
                  22185170.7034                                   22185167.6414
                                                                        50.2504
        38.0004
 -18340387.62548 -14276846.93746
                  21826798.4454                                   21826794.9884
                                                                        50.5004
        40.2504
 -10278897.79747  -7979949.73445
                  21599164.4614                                   21599160.4344
                                                                        46.0004
        33.5004
 -23484848.56648 -18284493.88746
                  21154793.6334                                   21154790.5594
                                                                        50.2504
        40.0004
   3184635.19947   2495489.78944
                  24015329.3524                                   24015323.1524
                                                                        43.0004
        25.0004
  -9446153.88347  -7325505.96144
                  22905923.7894                                   22905919.0944
                                                                        43.2504
        28.7504
    923232.20346    749790.85943
                  24022820.5704                                   24022815.0744
                                                                        41.7504
        21.5004
   1406347.45347   1132458.03943
                  24035616.9144                                   24035613.1374
                                                                        42.0004
        22.2504
 09 10 16  0 38 30.0000000  0 10G02G04G29G05G13G10G23G25G16G07
  -7550971.19148  -5858217.48446
                  20996905.9924                                   20996900.4454
                                                                        51.7504
        41.2504
   5906294.21147   4610475.98044
                  23458947.5634                                   23458944.4454
                                                                        45.2504
        28.5004
 -20022228.15648 -15587315.47746
                  22166009.0234                                   22166006.1294
                                                                        50.0004
        38.5004
 -18494787.70348 -14397158.76246
                  21797417.1484                                   21797413.7344
                                                                        51.0004
        40.0004
 -10310545.93747  -8004610.60945
                  21593141.9064                                   21593138.0744
                                                                        47.0004
        34.5004
 -23624021.25448 -18392940.10946
                  21128309.7344                                   21128306.7854
                                                                        50.7504
        40.2504
   3209737.80547   2515050.23843
                  24020106.1564                                   24020100.3794
                                                                        43.2504
        23.2504
  -9566062.68047  -7418941.32044
                  22883105.4144                                   22883101.4494
                                                                        43.7504
        27.0004
    797920.71546    652145.53143
                  23998974.2814                                   23998969.3094
                                                                        41.0004
        21.0004
   1239277.78946   1002273.93443
                  24003824.1954                                   24003820.2114
                                                                        39.7504
        22.0004
 09 10 16  0 39  0.0000000  0 10G02G04G29G05G13G10G23G25G16G07
  -7573515.09848  -5875784.18046
                  20992615.8834                                   20992610.5314
                                                                        51.2504
        41.0004
   5938290.81347   4635408.34844
                  23465036.7114                                   23465033.7274
                                                                        45.0004
        27.5004
 -20122304.85948 -15665297.31246
                  22146965.2034                                   22146962.3164
                                                                        50.2504
        38.7504
 -18648777.30148 -14517150.70346
                  21768114.0164                                   21768110.3794
                                                                        50.5004
        40.0004
 -10341570.18447  -8028785.31645
                  21587238.1954                                   21587234.2774
                                                                        47.0004
        33.7504
 -23762684.53948 -18500989.42646
                  21101923.1954                                   21101920.3054
                                                                        50.7504
        40.7504
   3235140.54347   2534844.61343
                  24024940.5234                                   24024934.0904
                                                                        43.2504
        21.5004
  -9685417.15647  -7511944.76244
                  22860392.6954                                   22860389.2194
                                                                        44.5004
        28.0004
    673171.88246    554938.65843
                  23975234.4454                                   23975230.2774
                                                                        39.5004
        20.2504
   1072561.07446    872364.86343
                  23972098.7114                                   23972095.3714
                                                                        41.0004
        22.7504
 09 10 16  0 39 30.0000000  0 10G02G04G29G05G13G10G23G25G16G07
  -7595506.37148  -5892920.17246
                  20988430.8594                                   20988425.8014
                                                                        51.5004
        40.5004
   5970515.62147   4660518.53944
                  23471168.8984                                   23471165.8634
                                                                        44.2504
        28.0004
 -20221761.04748 -15742795.60946
                  22128039.1254                                   22128036.3874
                                                                        50.7504
        38.5004
 -18802353.39148 -14636820.35946
                  21738889.3594                                   21738886.1134
                                                                        51.2504
        40.5004
 -10371971.60547  -8052474.73445
                  21581452.9454                                   21581448.9774
                                                                        47.7504
        34.0004
 -23900835.22748 -18608639.24646
                  21075633.8134                                   21075630.5824
                                                                        50.5004
        40.5004
   3260842.14147   2554871.84043
                  24029831.3594                                   24029824.5204
                                                                        42.0004
        21.7504
  -9804214.74247  -7604514.30544
                  22837786.5944                                   22837782.5824
                                                                        43.5004
        28.7504
    548988.42246    458172.32043
                  23951603.9694                                   23951599.4414
                                                                        39.7504
        20.2504
    906200.80146    742733.51244
                  23940441.9224                                   23940437.7344
                                                                        40.7504
        26.2504
 09 10 16  0 40  0.0000000  0 10G02G04G29G05G13G10G23G25G16G07
  -7616947.01248  -5909627.07846
                  20984350.9064                                   20984345.3444
                                                                        51.5004
        40.5004
   6002966.24247   4685804.70744
                  23477344.0004                                   23477341.2584
                                                                        44.5004
        28.0004
 -20320596.64148 -15819810.34046
                  22109231.6414                                   22109228.4224
                                                                        50.7504
        38.7504
 -18955514.58248 -14756166.71546
                  21709743.3914                                   21709739.9064
                                                                        51.2504
        40.5004
 -10401752.79348  -8075680.85945
                  21575785.7504                                   21575781.6134
                                                                        48.2504
        33.5004
 -24038472.51648 -18715888.96146
                  21049442.2974                                   21049438.8444
                                                                        51.0004
        40.2504
   3286838.86746   2575129.02343
                  24034777.7114                                   24034771.5394
                                                                        40.7504
        19.7504
  -9922455.00847  -7696649.57444
                  22815286.4534                                   22815282.3754
                                                                        44.0004
        28.2504
    425371.10546    361847.14143
                  23928080.4454                                   23928075.7974
                                                                        41.7504
        21.5004
    740199.02347    613381.53144
                  23908853.2424                                   23908849.5394
                                                                        43.0004
        27.5004
 09 10 16  0 40 30.0000000  0 10G02G04G29G05G13G10G23G25G16G07
  -7637841.21148  -5925908.28546
                  20980375.0944                                   20980369.2544
                                                                        51.5004
        40.7504
   6035637.85947   4711263.08644
                  23483560.8134                                   23483558.4104
                                                                        44.5004
        28.0004
 -20418812.53548 -15896342.17646
                  22090541.4844                                   22090538.9804
                                                                        50.0004
        38.5004
 -19108261.38748 -14875190.13346
                  21680676.9614                                   21680673.2934
                                                                        51.0004
        40.0004
 -10430917.52348  -8098406.62945
                  21570236.4224                                   21570231.9964
                                                                        48.0004
        33.0004
 -24175597.71548 -18822739.78946
                  21023347.9534                                   21023345.0634
                                                                        50.7504
        41.0004
   3313126.30546   2595612.68843
                  24039779.6884                                   24039773.8834
                                                                        40.2504
        20.7504
 -10040138.36747  -7788350.89844
                  22792891.7734                                   22792888.3484
                                                                        44.7504
        28.7504
    302320.16447    265963.28943
                  23904665.0394                                   23904660.1414
                                                                        42.5004
        21.5004
    574556.51647    484309.51644
                  23877332.0164                                   23877328.5434
                                                                        43.2504
        27.2504
 09 10 16  0 41  0.0000000  0 10G02G04G29G05G13G10G23G25G16G07
  -7658190.10948  -5941764.62946
                  20976502.6564                                   20976496.7584
                                                                        52.2504
        40.5004
   6068528.25847   4736891.91044
                  23489820.0394                                   23489817.0984
                                                                        45.0004
        28.0004
 -20516408.03948 -15972390.53946
                  22071969.8984                                   22071967.0124
                                                                        50.5004
        37.5004
 -19260592.35548 -14993889.57446
                  21651689.3444                                   21651685.8834
                                                                        50.2504
        40.5004
 -10459467.82448  -8120653.59445
                  21564803.2034                                   21564798.8014
                                                                        48.2504
        34.0004
 -24312209.19148 -18929190.29346
                  20997351.6804                                   20997348.8094
                                                                        50.5004
        40.5004
   3339701.53546   2616320.63743
                  24044836.7894                                   24044831.4064
                                                                        41.5004
        21.5004
 -10157263.34847  -7879617.10544
                  22770603.4774                                   22770600.0394
                                                                        45.5004
        28.5004
    179837.27347    170522.09443
                  23881357.0084                                   23881352.3204
                                                                        42.0004
        22.5004
    409275.93447    355519.52344
                  23845880.3054                                   23845876.1844
                                                                        42.0004
        27.7504
 09 10 16  0 41 30.0000000  0 10G02G04G29G05G13G10G23G25G16G07
  -7677996.02048  -5957197.77346
                  20972733.8284                                   20972728.6844
                                                                        51.2504
        40.2504
   6101635.04347   4762689.35944
                  23496120.2114                                   23496117.2934
                                                                        44.7504
        27.0004
 -20613385.26648 -16047957.14146
                  22053515.6254                                   22053512.5044
                                                                        50.0004
        39.0004
 -19412507.66448 -15112265.08246
                  21622780.5944                                   21622777.5434
                                                                        51.5004
        40.7504
 -10487406.59847  -8142424.05545
                  21559486.3834                                   21559482.2114
                                                                        47.7504
        33.7504
 -24448307.17648 -19035240.66446
                  20971453.4384                                   20971450.0634
                                                                        50.7504
        41.0004
   3366560.07046   2637249.35943
                  24049948.8284                                   24049942.1954
                                                                        41.2504
        22.7504
 -10273829.55547  -7970447.89544
                  22748421.6024                                   22748417.7894
                                                                        45.0004
        29.2504
     57921.55147     75522.82043
                  23858157.4774                                   23858152.7704
                                                                        42.0004
        23.0004
    244359.39547    227013.15244
                  23814497.6094                                   23814494.2734
                                                                        43.0004
        26.5004
 09 10 16  0 42  0.0000000  0 10G02G04G29G05G13G10G23G25G16G07
  -7697259.72348  -5972208.44946
                  20969068.0084                                   20969062.7344
                                                                        51.5004
        40.7504
   6134956.32047   4788653.90244
                  23502461.1174                                   23502458.2424
                                                                        45.0004
        27.7504
 -20709739.53548 -16123038.37946
                  22035179.9064                                   22035176.8524
                                                                        50.0004
        38.2504
 -19564002.78548 -15230313.21146
                  21593952.0474                                   21593948.9064
                                                                        51.5004
        40.7504
 -10514734.34047  -8163718.39545
                  21554286.1254                                   21554282.2194
                                                                        47.7504
        32.5004
 -24583887.01248 -19140887.21146
                  20945653.4144                                   20945649.6914
                                                                        51.0004
        40.5004
   3393701.55146   2658398.50843
                  24055113.1804                                   24055107.8444
                                                                        41.5004
        22.7504
 -10389834.41847  -8060841.28544
                  22726346.9774                                   22726343.1054
                                                                        45.2504
        28.7504
    -63422.16847    -19030.73044
                  23835066.3054                                   23835061.9264
                                                                        43.0004
        25.2504
     79810.75846     98793.49643
                  23783184.6174                                   23783181.3244
                                                                        41.5004
        23.0004
 09 10 16  0 42 30.0000000  0 10G02G04G29G05G13G10G23G25G16G07
  -7715981.35948  -5986796.72346
                  20965505.4614                                   20965499.7974
                                                                        51.0004
        40.0004
   6168490.94947   4814784.77344
                  23508842.9454                                   23508839.8364
                                                                        45.0004
        27.0004
 -20805470.27048 -16197633.73046
                  22016963.2034                                   22016960.2624
                                                                        50.0004
        38.5004
 -19715076.32048 -15348032.81246
                  21565203.5784                                   21565199.8054
                                                                        51.0004
        39.5004
 -10541452.46148  -8184537.68745
                  21549201.8834                                   21549197.3914
                                                                        48.5004
        33.5004
 -24718947.38348 -19246128.88746
                  20919951.7034                                   20919948.8164
                                                                        50.5004
        40.5004
   3421123.75446   2679766.40244
                  24060331.7664                                   24060325.9694
                                                                        41.2504
        25.2504
 -10505275.71147  -8150795.51244
                  22704378.8834                                   22704375.1764
                                                                        44.7504
        28.7504
   -184192.03547   -113137.11344
                  23812084.8134                                   23812080.1374
                                                                        43.0004
        24.5004
    -84366.66846    -29136.94343
                  23751942.6884                                   23751938.5664
                                                                        41.5004
        22.7504
 09 10 16  0 43  0.0000000  0 10G02G04G29G05G13G10G23G25G16G07
  -7734163.70748  -6000964.78146
                  20962045.5634                                   20962039.8164
                                                                        50.7504
        40.5004
   6202235.96947   4841079.56644
                  23515263.7504                                   23515261.0904
                                                                        45.2504
        26.7504
 -20900579.26248 -16271744.59846
                  21998864.5554                                   21998861.4924
                                                                        50.2504
        38.0004
 -19865728.21948 -15465423.91446
                  21536535.8054                                   21536531.9304
                                                                        51.0004
        40.7504
 -10567564.40648  -8204884.64845
                  21544233.1174                                   21544228.8674
                                                                        49.0004
        33.2504
 -24853488.94548 -19350966.36746
                  20894349.6254                                   20894346.5554
                                                                        51.2504
        40.5004
   3448822.09846   2701349.52343
                  24065601.9844                                   24065596.4924
                                                                        41.5004
        22.2504
 -10620153.50847  -8240310.64144
                  22682518.1254                                   22682514.8014
                                                                        45.0004
        28.7504
   -304389.06647   -206797.17243
                  23789211.7504                                   23789207.5514
                                                                        42.0004
        23.5004
   -248171.07446   -156776.70743
                  23720771.3594                                   23720766.9304
                                                                        41.5004
        22.5004
 09 10 16  0 43 30.0000000  0 10G02G04G29G05G13G10G23G25G16G07
  -7751810.08248  -6014715.23446
                  20958687.2114                                   20958681.9924
                                                                        50.2504
        40.2504
   6236187.36347   4867535.18044
                  23521724.7504                                   23521722.1054
                                                                        43.7504
        27.7504
 -20995066.36748 -16345370.96146
                  21980883.8524                                   21980881.2814
                                                                        50.0004
        38.5004
 -20015957.36748 -15582485.53146
                  21507947.7584                                   21507944.5234
                                                                        51.5004
        40.5004
 -10593073.28148  -8224761.69145
                  21539378.7114                                   21539374.9024
                                                                        48.7504
        33.2504
 -24987511.67248 -19455399.66446
                  20868846.1334                                   20868842.5474
                                                                        51.0004
        40.2504
   3476792.92646   2723144.91843
                  24070924.8204                                   24070919.2424
                                                                        38.5004
        20.7504
 -10734467.65247  -8329386.59444
                  22660765.2584                                   22660761.1844
                                                                        44.7504
        29.2504
   -424011.59847   -300009.53943
                  23766448.1254                                   23766443.5784
                                                                        42.0004
        22.2504
   -411600.94947   -284124.66444
                  23689671.7894                                   23689667.9304
                                                                        42.5004
        25.2504
 09 10 16  0 44  0.0000000  0 10G02G04G29G05G13G10G23G25G16G07
  -7768915.07048  -6028043.79346
                  20955432.3444                                   20955427.1564
                                                                        51.2504
        40.5004
   6270349.66447   4894155.15244
                  23528225.6414                                   23528223.2774
                                                                        43.5004
        27.0004
 -21088923.40648 -16418506.30546
                  21963023.7344                                   21963020.6454
                                                                        49.0004
        38.5004
 -20165755.37548 -15699211.25446
                  21479442.4614                                   21479439.2424
                                                                        50.7504
        40.7504
 -10617974.64848  -8244165.34445
                  21534639.9224                                   21534636.2074
                                                                        48.7504
        33.0004
 -25121006.98448 -19559421.99646
                  20843442.8674                                   20843439.3674
                                                                        50.7504
        40.5004
   3505040.57046   2745156.05542
                  24076300.2974                                   24076294.5704
                                                                        38.2504
        17.7504
 -10848210.07847  -8418017.01644
                  22639120.6414                                   22639117.0394
                                                                        45.7504
        29.7504
   -543051.51246   -392767.89843
                  23743795.8834                                   23743791.9614
                                                                        41.2504
        23.5004
   -574647.21547   -411173.65244
                  23658645.4224                                   23658641.9614
                                                                        43.7504
        26.0004
 09 10 16  0 44 30.0000000  0 10G02G04G29G05G13G10G23G25G16G07
  -7785485.64148  -6040955.87546
                  20952279.3984                                   20952273.6524
                                                                        50.7504
        40.0004
   6304715.69947   4920933.87144
                  23534765.3284                                   23534763.0314
                                                                        42.5004
        26.7504
 -21182156.38748 -16491155.39846
                  21945282.2194                                   21945279.1374
                                                                        49.2504
        38.5004
 -20315126.86748 -15815604.65246
                  21451017.8054                                   21451014.3164
                                                                        51.2504
        41.0004
 -10642275.24248  -8263100.88745
                  21530016.0164                                   21530011.8014
                                                                        48.5004
        33.5004
 -25253978.85948 -19663036.45346
                  20818138.8134                                   20818135.4694
                                                                        51.2504
        41.0004
   3533556.15246   2767375.98443
                  24081726.7814                                   24081720.3484
                                                                        39.7504
        19.7504
 -10961384.81247  -8506205.07044
                  22617584.1644                                   22617580.3524
                                                                        45.5004
        28.2504
   -661513.36346   -485075.86743
                  23721253.4534                                   23721249.1334
                                                                        41.5004
        22.5004
   -737311.80547   -537925.24644
                  23627692.1334                                   23627688.0664
                                                                        44.2504
        28.2504
 09 10 16  0 45  0.0000000  0  9G02G04G29G05G13G10G25G16G07
  -7801527.73448  -6053456.21946
                  20949226.4384                                   20949220.8524
                                                                        51.2504
        40.2504
   6339278.93446   4947866.20744
                  23541342.5634                                   23541339.3754
                                                                        41.7504
        25.5004
 -21274767.75048 -16563320.05546
                  21927658.8834                                   21927655.6644
                                                                        49.5004
        38.5004
 -20464073.62148 -15931667.02046
                  21422674.3754                                   21422671.0354
                                                                        51.0004
        41.2504
 -10665981.54748  -8281573.32445
                  21525504.8524                                   21525500.4454
                                                                        49.2504
        33.2504
 -25386430.01648 -19766245.15646
                  20792934.4304                                   20792930.6884
                                                                        51.5004
        40.5004
 -11073994.87947  -8593953.14844
                  22596154.9384                                   22596151.1254
                                                                        45.0004
        27.7504
   -779398.90246   -576934.72743
                  23698820.3364                                   23698816.6214
                                                                        40.5004
        22.5004
   -899596.46147   -664380.81644
                  23596810.1254                                   23596806.1914
                                                                        43.7504
        27.5004
 09 10 16  0 45 30.0000000  0  9G02G04G29G05G13G10G25G16G07
  -7817039.93448  -6065543.62146
                  20946274.8284                                   20946268.9964
                                                                        50.2504
        39.5004
   6374039.90247   4974952.64844
                  23547957.2194                                   23547954.1804
                                                                        43.0004
        26.0004
 -21366754.89848 -16634998.30146
                  21910154.0784                                   21910151.0004
                                                                        49.0004
        38.0004
 -20612591.32448 -16047395.04346
                  21394412.3134                                   21394408.9264
                                                                        50.5004
        41.5004
 -10689092.96548  -8299582.21145
                  21521106.9694                                   21521102.9734
                                                                        49.0004
        33.5004
 -25518356.54348 -19869045.13746
                  20767829.5704                                   20767826.3634
                                                                        51.0004
        40.0004
 -11186036.03147  -8681257.91044
                  22574834.2734                                   22574830.5594
                                                                        45.0004
        27.7504
   -896704.28146   -668341.52043
                  23676497.9384                                   23676493.5594
                                                                        41.0004
        22.5004
  -1061495.43746   -790535.82444
                  23566001.9224                                   23565998.1644
                                                                        41.7504
        27.5004
 09 10 16  0 46  0.0000000  0  9G02G04G29G05G13G10G25G16G07
  -7832019.71548  -6077216.15246
                  20943423.8914                                   20943418.4344
                                                                        50.5004
        39.5004
   6409000.92247   5002194.97744
                  23554610.7114                                   23554607.1454
                                                                        42.7504
        27.0004
 -21458112.09048 -16706185.66046
                  21892769.1254                                   21892766.2424
                                                                        49.2504
        39.2504
 -20760674.12148 -16162784.27346
                  21366232.9384                                   21366229.3834
                                                                        50.7504
        41.0004
 -10711606.44948  -8317125.16845
                  21516822.4304                                   21516818.5554
                                                                        48.2504
        32.5004
 -25649752.24248 -19971431.26646
                  20742825.7974                                   20742822.7624
                                                                        51.2504
        40.5004
 -11297502.69147  -8768115.05544
                  22553623.0554                                   22553618.9534
                                                                        45.0004
        28.0004
  -1013422.95346   -759291.10943
                  23654287.1024                                   23654282.2854
                                                                        41.0004
        21.7504
  -1223001.97746   -916385.03144
                  23535267.7194                                   23535263.8164
                                                                        41.2504
        27.0004
 09 10 16  0 46 30.0000000  0  9G02G04G29G05G13G10G25G16G07
  -7846467.91848  -6088474.42246
                  20940674.4454                                   20940668.8404
                                                                        50.7504
        39.7504
   6444160.23047   5029591.83244
                  23561300.5944                                   23561297.6134
                                                                        43.0004
        27.5004
 -21548838.73048 -16776881.61346
                  21875504.2274                                   21875501.5354
                                                                        49.5004
        39.0004
 -20908319.75048 -16277832.77346
                  21338137.1334                                   21338133.4614
                                                                        50.2504
        40.5004
 -10733524.80148  -8334204.37945
                  21512651.7344                                   21512647.6374
                                                                        49.0004
        33.0004
 -25780615.75448 -20073402.84046
                  20717923.1024                                   20717919.9384
                                                                        50.5004
        40.5004
 -11408393.31647  -8854523.34444
                  22532521.3134                                   22532517.2624
                                                                        45.0004
        28.7504
  -1129554.09446   -849782.91443
                  23632188.0944                                   23632183.6804
                                                                        40.7504
        22.0004
  -1384112.62146  -1041925.69944
                  23504608.6724                                   23504605.6564
                                                                        41.2504
        26.2504
 09 10 16  0 47  0.0000000  0  9G02G04G29G05G13G10G25G16G07
  -6284967.33248  -4871720.71946
                  21237818.2424                                   21237812.8404
                                                                        50.5004
        40.5004
   8054933.16847   6284739.60244
                  23867820.6724                                   23867818.1724
                                                                        42.5004
        26.7504
 -20063512.69148 -15619484.63346
                  22158152.4924                                   22158149.5864
                                                                        48.5004
        38.5004
 -19480103.09848 -15164936.69146
                  21609917.6644                                   21609914.2704
                                                                        49.7504
        41.2504
  -9179430.33648  -7123221.66845
                  21808386.1414                                   21808382.1214
                                                                        49.0004
        33.0004
 -24335522.52748 -18947356.14546
                  20992915.1094                                   20992912.2424
                                                                        50.5004
        40.5004
  -9943284.57847  -7712880.16444
                  22811322.3444                                   22811317.9064
                                                                        45.5004
        28.5004
    330326.72346    287786.55543
                  23909994.4384                                   23909989.1174
                                                                        41.0004
        22.0004
     30599.49246     60447.44944
                  23773819.4844                                   23773816.3834
                                                                        40.2504
        24.7504
 09 10 16  0 47 30.0000000  0  9G02G04G29G05G13G10G25G16G07
  -6298363.66048  -4882159.37946
                  21235269.0474                                   21235263.2074
                                                                        50.5004
        40.0004
   8090476.65647   6312435.81644
                  23874583.8834                                   23874581.7384
                                                                        42.5004
        26.5004
 -20152983.27348 -15689201.97346
                  22141126.7114                                   22141123.5864
                                                                        49.5004
        38.5004
 -19626876.10948 -15279305.23046
                  21581987.5084                                   21581984.0984
                                                                        50.2504
        41.0004
  -9200169.27748  -7139381.85945
                  21804439.7194                                   21804435.7034
                                                                        48.7504
        33.0004
 -24465323.40248 -19048499.71146
                  20968214.7974                                   20968211.7734
                                                                        51.0004
        40.0004
 -10053025.59447  -7798392.64544
                  22790438.9924                                   22790434.9304
                                                                        45.0004
        28.2504
    215369.67646    198209.60543
                  23888118.4454                                   23888113.6214
                                                                        41.0004
        22.0004
   -129716.82446    -64474.30143
                  23743312.0234                                   23743308.3164
                                                                        41.0004
        23.0004
 09 10 16  0 48  0.0000000  0  9G02G04G29G05G13G10G25G16G07
  -6311241.63348  -4892194.14846
                  21232818.4534                                   21232812.7074
                                                                        49.5004
        40.0004
   8126203.71147   6340275.03544
                  23881382.2734                                   23881380.3404
                                                                        43.0004
        26.5004
 -20241829.83248 -15758433.00446
                  22124220.1254                                   22124216.6374
                                                                        48.7504
        38.7504
 -19773215.40248 -15393335.81646
                  21554140.0164                                   21554136.4344
                                                                        50.5004
        41.2504
  -9220326.66448  -7155088.88345
                  21800603.8984                                   21800599.7664
                                                                        48.7504
        33.5004
 -24594596.22348 -19149231.75046
                  20943615.3594                                   20943612.1134
                                                                        51.0004
        40.7504
 -10162194.97347  -7883459.68444
                  22769664.2114                                   22769660.9884
                                                                        45.0004
        29.7504
    100997.32847    109088.28943
                  23866354.2504                                   23866349.4964
                                                                        42.0004
        22.5004
   -289637.24247   -189087.54744
                  23712880.5784                                   23712876.7664
                                                                        42.5004
        25.5004
 09 10 16  0 48 30.0000000  0  9G02G04G29G05G13G10G25G16G07
  -6323604.19948  -4901827.30946
                  21230465.7274                                   21230460.4494
                                                                        50.5004
        39.7504
   8162111.10547   6368254.78944
                  23888215.4694                                   23888213.1174
                                                                        42.0004
        24.0004
 -20330052.70748 -15827178.09446
                  22107431.5394                                   22107428.8634
                                                                        48.5004
        38.7504
 -19919120.47348 -15507028.04746
                  21526375.3984                                   21526372.3834
                                                                        50.5004
        41.0004
  -9239905.87548  -7170345.38345
                  21796877.8054                                   21796874.2424
                                                                        48.5004
        33.0004
 -24723340.73848 -19249552.11746
                  20919116.0474                                   20919112.8484
                                                                        51.0004
        40.0004
 -10270792.78547  -7968081.34044
                  22748999.3834                                   22748995.6604
                                                                        45.2504
        29.5004
    -12790.15246     20422.73043
                  23844701.7424                                   23844696.3554
                                                                        41.7504
        22.5004
   -449160.02047   -313390.98444
                  23682524.6804                                   23682520.6134
                                                                        42.5004
        27.7504
 09 10 16  0 49  0.0000000  0  9G02G04G29G05G13G10G25G16G07
  -6335451.79348  -4911059.21146
                  21228211.2344                                   21228205.6724
                                                                        50.2504
        40.0004
   8198198.41047   6396374.73844
                  23895083.5704                                   23895080.5234
                                                                        42.0004
        24.5004
 -20417651.33248 -15895436.70346
                  22090762.2194                                   22090759.4454
                                                                        49.2504
        38.5004
 -20064589.21948 -15620380.30146
                  21498693.5234                                   21498689.7274
                                                                        50.2504
        41.2504
  -9258908.21548  -7185152.39845
                  21793261.8754                                   21793257.7034
                                                                        48.2504
        32.7504
 -24851554.54748 -19349458.98046
                  20894717.7034                                   20894714.3164
                                                                        51.0004
        40.5004
 -10378816.46147  -8052255.61744
                  22728443.1174                                   22728439.4144
                                                                        45.5004
        29.7504
   -125991.18746    -67785.89843
                  23823159.5554                                   23823155.0784
                                                                        39.7504
        22.0004
   -608280.95747   -437381.30544
                  23652245.0704                                   23652240.9534
                                                                        43.0004
        26.5004
 09 10 16  0 49 30.0000000  0  9G02G04G29G05G13G10G25G16G07
  -6346789.58248  -4919893.84446
                  21226053.6564                                   21226048.3954
                                                                        50.5004
        39.5004
   8234459.12147   6424629.79744
                  23901983.7504                                   23901980.5984
                                                                        42.5004
        24.7504
 -20504627.69948 -15963210.44146
                  22074211.1024                                   22074208.2854
                                                                        48.7504
        38.5004
 -20209622.44948 -15733393.10546
                  21471094.0554                                   21471090.9844
                                                                        51.0004
        41.0004
  -9277339.68448  -7199514.58245
                  21789754.3914                                   21789750.1764
                                                                        48.0004
        32.2504
 -24979240.10548 -19448954.22346
                  20870419.9144                                   20870416.4964
                                                                        50.0004
        40.5004
 -10486268.73847  -8135984.63344
                  22707996.0864                                   22707991.8754
                                                                        46.0004
        29.0004
   -238606.92246   -155538.40643
                  23801729.3914                                   23801725.2464
                                                                        40.7504
        22.0004
   -767001.65247   -561059.71544
                  23622041.1954                                   23622037.7274
                                                                        43.5004
        28.2504
 09 10 16  0 50  0.0000000  0  9G02G04G29G05G13G10G25G16G07
  -6357616.54348  -4928330.42246
                  21223993.4224                                   21223987.9184
                                                                        50.5004
        39.2504
   8270894.14147   6453020.74144
                  23908917.2344                                   23908913.2384
                                                                        44.0004
        25.2504
 -20590979.36048 -16030497.42346
                  22057778.7734                                   22057776.1564
                                                                        48.7504
        38.7504
 -20354216.93748 -15846064.16846
                  21443578.8984                                   21443575.6094
                                                                        50.7504
        40.7504
  -9295198.77048  -7213430.74045
                  21786356.1724                                   21786351.8594
                                                                        48.7504
        32.2504
 -25106393.20748 -19548034.49646
                  20846223.6334                                   20846220.1724
                                                                        50.5004
        40.5004
 -10593145.83147  -8219265.47344
                  22687657.3914                                   22687653.7154
                                                                        46.0004
        29.2504
   -350633.77347   -242832.06643
                  23780412.0474                                   23780406.4774
                                                                        42.2504
        22.2504
   -925316.08647   -684421.58644
                  23591914.9924                                   23591911.0124
                                                                        42.2504
        27.5004
 09 10 16  0 50 30.0000000  0  9G02G04G29G05G13G10G25G16G07
  -6367937.12948  -4936372.43046
                  21222029.4454                                   21222023.8524
                                                                        50.2504
        40.0004
   8307498.59447   6481543.68444
                  23915882.5554                                   23915879.8204
                                                                        43.0004
        24.7504
 -20676708.32848 -16097299.16846
                  22041465.5084                                   22041462.3134
                                                                        49.2504
        39.2504
 -20498373.04748 -15958393.53146
                  21416146.7504                                   21416143.6334
                                                                        52.0004
        41.2504
  -9312491.62948  -7226905.68445
                  21783065.5554                                   21783061.0864
                                                                        48.2504
        32.2504
 -25233015.12948 -19646700.90246
                  20822127.9694                                   20822124.6094
                                                                        49.7504
        41.0004
 -10699449.42247  -8302099.43045
                  22667428.3364                                   22667425.0274
                                                                        45.5004
        30.0004
   -462073.53946   -329668.25043
                  23759205.3984                                   23759200.7424
                                                                        41.5004
        22.7504
  -1083224.46146   -807467.01644
                  23561866.3674                                   23561862.3364
                                                                        41.2504
        27.0004
 09 10 16  0 51  0.0000000  0  9G02G04G29G05G13G10G25G16G07
  -6377752.23448  -4944020.54746
                  21220161.7114                                   21220156.6294
                                                                        50.0004
        39.5004
   8344271.54347   6510197.92243
                  23922879.9384                                   23922877.3404
                                                                        42.5004
        23.7504
 -20761814.07048 -16163615.34846
                  22025270.0234                                   22025267.2194
                                                                        50.2504
        39.2504
 -20642088.80148 -16070379.71946
                  21388798.5004                                   21388795.4694
                                                                        51.7504
        41.0004
  -9329217.94548  -7239939.17245
                  21779882.4064                                   21779878.5434
                                                                        48.2504
        33.0004
 -25359104.08248 -19744951.95346
                  20798134.2034                                   20798130.9104
                                                                        50.5004
        41.2504
 -10805177.20347  -8384484.70344
                  22647309.5474                                   22647305.9844
                                                                        45.5004
        29.0004
   -572923.68447   -416044.98444
                  23738111.7274                                   23738106.7114
                                                                        43.0004
        24.5004
  -1240723.02746   -930193.10244
                  23531894.9064                                   23531891.5824
                                                                        40.0004
        26.7504
 09 10 16  0 51 30.0000000  0  9G02G04G29G05G13G10G25G16G07
  -6387064.18748  -4951276.59446
                  21218390.0004                                   21218384.1954
                                                                        49.7504
        39.7504
   8381209.73446   6538980.87144
                  23929908.3204                                   23929906.7114
                                                                        41.5004
        25.2504
 -20846295.64548 -16229445.11346
                  22009193.7664                                   22009190.7194
                                                                        48.7504
        38.5004
 -20785362.84448 -16182021.74246
                  21361534.3914                                   21361530.8404
                                                                        51.5004
        41.5004
  -9345381.46948  -7252534.12145
                  21776806.0474                                   21776802.4574
                                                                        48.5004
        33.0004
 -25484659.44948 -19842787.22346
                  20774241.6024                                   20774238.3554
                                                                        50.7504
        41.0004
 -10910328.74647  -8466420.96944
                  22627299.7664                                   22627295.5784
                                                                        45.2504
        29.2504
   -683182.73447   -501961.15244
                  23717129.5784                                   23717125.6414
                                                                        42.7504
        24.2504
  -1397809.66946  -1052598.21944
                  23502002.0474                                   23501998.8834
                                                                        40.7504
        28.5004
 09 10 16  0 52  0.0000000  0  9G02G04G29G05G13G10G25G16G07
  -6395874.71148  -4958141.89546
                  21216713.2424                                   21216707.4454
                                                                        50.2504
        40.0004
   8418311.25347   6567891.10344
                  23936969.3444                                   23936966.8914
                                                                        43.2504
        25.5004
 -20930153.27048 -16294788.75046
                  21993236.2274                                   21993233.0784
                                                                        50.0004
        39.0004
 -20928193.87548 -16293318.60546
                  21334354.3054                                   21334351.1564
                                                                        51.0004
        41.5004
  -9360984.32448  -7264692.18745
                  21773837.2424                                   21773833.6454
                                                                        48.2504
        32.2504
 -25609679.66848 -19940205.52746
                  20750451.0634                                   20750447.6294
                                                                        50.7504
        40.7504
 -11014903.32447  -8547907.65244
                  22607399.3984                                   22607395.8984
                                                                        45.7504
        29.5004
   -792849.87147   -587416.05144
                  23696261.1484                                   23696257.0234
                                                                        42.0004
        24.7504
  -1554481.99646  -1174680.50144
                  23472188.2584                                   23472184.9534
                                                                        40.7504
        28.2504
 09 10 16  0 52 30.0000000  0  9G02G04G29G05G13G10G25G16G07
  -6404180.90248  -4964614.23046
                  21215132.4454                                   21215126.9614
                                                                        50.5004
        39.7504
   8455578.60247   6596930.57044
                  23944060.9304                                   23944058.4184
                                                                        43.5004
        27.2504
 -21013382.88348 -16359642.98846
                  21977398.0164                                   21977395.2234
                                                                        50.2504
        39.0004
 -21070576.37548 -16404265.91846
                  21307259.8984                                   21307256.2544
                                                                        51.5004
        41.0004
  -9376023.84048  -7276411.30145
                  21770975.2664                                   21770971.3754
                                                                        48.0004
        33.0004
 -25734159.66048 -20037202.93046
                  20726763.3204                                   20726760.1564
                                                                        50.5004
        41.5004
 -11118895.44147  -8628940.46545
                  22587610.7034                                   22587606.8984
                                                                        46.0004
        30.0004
   -901920.50846   -672406.16044
                  23675505.4614                                   23675501.2274
                                                                        41.7504
        24.7504
  -1710732.63747  -1296434.21344
                  23442454.8364                                   23442451.2934
                                                                        42.5004
        27.7504
 09 10 16  0 53  0.0000000  0  9G02G04G29G05G13G10G25G16G07
  -6411988.86348  -4970698.32446
                  21213646.6804                                   21213641.1804
                                                                        49.2504
        38.7504
   8493006.01247   6626094.73844
                  23951183.3674                                   23951180.5164
                                                                        43.5004
        25.7504
 -21095987.27748 -16424010.02746
                  21961678.8444                                   21961676.0084
                                                                        51.2504
        38.7504
 -21212512.06648 -16514865.05946
                  21280250.5314                                   21280247.0164
                                                                        52.2504
        41.0004
  -9390507.24248  -7287697.06645
                  21768219.7114                                   21768215.4614
                                                                        48.0004
        32.0004
 -25858102.12948 -20133781.41046
                  20703177.7424                                   20703174.5984
                                                                        50.7504
        41.0004
 -11222307.60547  -8709521.36744
                  22567932.7664                                   22567927.9414
                                                                        45.5004
        29.7504
  -1010396.39547   -756932.83644
                  23654863.3834                                   23654859.3404
                                                                        43.2504
        26.0004
  -1866562.28146  -1417859.87544
                  23412801.9304                                   23412797.0234
                                                                        41.5004
        26.7504
 09 10 16  0 53 30.0000000  0  9G02G04G29G05G13G10G25G16G07
  -6419301.82848  -4976396.70746
                  21212254.9924                                   21212249.2384
                                                                        50.2504
        39.0004
   8530589.07147   6655380.22343
                  23958335.7344                                   23958331.8834
                                                                        43.5004
        22.2504
 -21177967.60948 -16487890.79346
                  21946078.7274                                   21946075.6024
                                                                        50.2504
        38.2504
 -21354001.27048 -16625116.37946
                  21253326.1724                                   21253322.3634
                                                                        51.2504
        41.5004
  -9404438.35948  -7298552.48845
                  21765568.6484                                   21765564.4454
                                                                        48.2504
        33.5004
 -25981506.72348 -20229940.72346
                  20679694.7894                                   20679691.4654
                                                                        51.5004
        40.7504
 -11325141.35547  -8789651.57044
                  22548363.6644                                   22548359.9534
                                                                        45.2504
        29.2504
  -1118278.05947   -840996.46144
                  23634333.9614                                   23634329.9414
                                                                        43.0004
        26.2504
  -2021970.70346  -1538957.28144
                  23383228.6254                                   23383224.1254
                                                                        41.7504
        26.5004
 09 10 16  0 54  0.0000000  0  9G02G04G29G05G13G10G25G16G07
  -6426118.49648  -4981708.36746
                  21210957.9774                                   21210952.1644
                                                                        50.2504
        39.0004
   8568328.75847   6684787.75843
                  23965516.8134                                   23965513.9414
                                                                        42.5004
        22.7504
 -21259320.32448 -16551282.54346
                  21930597.5554                                   21930594.7734
                                                                        50.5004
        39.5004
 -21495038.78948 -16735015.69946
                  21226487.3984                                   21226483.8834
                                                                        51.5004
        41.5004
  -9417813.85548  -7308974.94945
                  21763023.1644                                   21763019.0594
                                                                        48.5004
        32.5004
 -26104369.54748 -20325677.91046
                  20656314.5864                                   20656311.3674
                                                                        51.0004
        41.5004
 -11427391.75447  -8869327.21144
                  22528905.8674                                   22528902.5044
                                                                        45.5004
        29.7504
  -1225560.13747   -924592.85944
                  23613918.8754                                   23613914.5984
                                                                        42.2504
        25.7504
  -2176951.87146  -1659721.78544
                  23353736.8834                                   23353732.2664
                                                                        41.7504
        27.0004
 09 10 16  0 54 30.0000000  0  9G02G04G29G05G13G10G25G16G07
  -6432439.12548  -4986633.50846
                  21209755.1024                                   21209749.5274
                                                                        50.2504
        39.0004
   8606225.35246   6714317.50443
                  23972728.1334                                   23972725.6844
                                                                        41.0004
        22.7504
 -21340044.65648 -16614184.59046
                  21915236.4454                                   21915233.2894
                                                                        49.5004
        38.7504
 -21635622.35548 -16844561.34446
                  21199735.4384                                   21199731.7854
                                                                        51.5004
        41.5004
  -9430637.34047  -7318967.28545
                  21760582.6414                                   21760578.6294
                                                                        47.5004
        31.5004
 -26226688.24648 -20420991.20346
                  20633038.4694                                   20633034.6374
                                                                        51.0004
        41.5004
 -11529056.55547  -8948546.54745
                  22509559.5634                                   22509555.8444
                                                                        46.2504
        31.0004
  -1332241.53547  -1007721.21144
                  23593617.9534                                   23593614.2584
                                                                        42.5004
        25.5004
  -2331501.28546  -1780149.85244
                  23324326.2114                                   23324322.5744
                                                                        41.0004
        27.0004
 09 10 16  0 55  0.0000000  0  9G02G04G29G05G13G10G25G16G07
  -6438264.50448  -4991172.75846
                  21208646.2664                                   21208640.9804
                                                                        50.0004
        38.7504
   8644276.82046   6743967.96143
                  23979969.4064                                   23979966.4304
                                                                        39.7504
        23.0004
 -21420139.49648 -16676596.15246
                  21899995.1334                                   21899991.9264
                                                                        50.2504
        38.5004
 -21775749.53548 -16953751.30147
                  21173069.9384                                   21173066.0824
                                                                        52.0004
        42.0004
  -9442909.74247  -7328530.19145
                  21758247.6884                                   21758243.4654
                                                                        47.7504
        31.2504
 -26348460.77748 -20515878.88346
                  20609865.5164                                   20609861.9654
                                                                        50.5004
        41.0004
 -11630133.98447  -9027308.19144
                  22490325.6954                                   22490321.4964
                                                                        45.5004
        29.5004
  -1438319.91447  -1090379.68744
                  23573432.0314                                   23573427.1524
                                                                        43.5004
        25.5004
  -2485615.55546  -1900238.85544
                  23294999.4144                                   23294995.4924
                                                                        40.5004
        25.7504
 09 10 16  0 55 30.0000000  0  9G02G04G29G05G13G10G25G16G07
  -6443601.22748  -4995331.23046
                  21207630.6804                                   21207624.9454
                                                                        50.7504
        38.0004
   8682476.63746   6773734.00044
                  23987238.4454                                   23987235.5744
                                                                        41.7504
        24.0004
 -21499607.98848 -16738519.64546
                  21884872.2034                                   21884869.5234
                                                                        50.0004
        38.5004
 -21915422.43748 -17062587.28547
                  21146490.9924                                   21146487.5944
                                                                        52.0004
        42.0004
  -9454636.66448  -7337668.03945
                  21756015.9454                                   21756011.5274
                                                                        48.0004
        31.7504
 -26469689.87948 -20610343.09046
                  20586796.4844                                   20586793.2424
                                                                        51.7504
        40.2504
 -11730627.79747  -9105615.05144
                  22471202.0784                                   22471198.2194
                                                                        45.2504
        29.7504
  -1543797.89847  -1172570.32444
                  23553360.4384                                   23553355.5514
                                                                        43.0004
        25.0004
  -2639296.96546  -2019990.56244
                  23265754.4224                                   23265750.7504
                                                                        40.2504
        27.0004
 09 10 16  0 56  0.0000000  0  9G02G04G29G05G13G10G25G16G07
  -6448446.94948  -4999107.11746
                  21206708.9224                                   21206702.8324
                                                                        51.0004
        38.5004
   8720827.03946   6803617.40644
                  23994536.1954                                   23994533.7154
                                                                        41.5004
        25.0004
 -21578447.93448 -16799953.38746
                  21869870.0004                                   21869866.7704
                                                                        50.0004
        38.7504
 -22054637.22348 -17171066.31646
                  21119999.3364                                   21119995.9344
                                                                        51.5004
        41.5004
  -9465817.63347  -7346380.47745
                  21753888.1024                                   21753883.9614
                                                                        47.5004
        31.7504
 -26590371.30148 -20704380.54346
                  20563831.3524                                   20563827.7734
                                                                        52.0004
        41.0004
 -11830533.62947  -9183463.75844
                  22452190.5084                                   22452186.6484
                                                                        45.0004
        29.5004
  -1648672.20347  -1254290.54343
                  23533403.4384                                   23533398.5004
                                                                        42.5004
        23.0004
  -2792538.87546  -2139399.80544
                  23236593.2814                                   23236589.8134
                                                                        41.5004
        27.7504
 09 10 16  0 56 30.0000000  0  9G02G04G29G05G13G10G25G16G07
  -6452805.32448  -5002503.26246
                  21205879.6884                                   21205873.5594
                                                                        50.5004
        39.2504
   8759323.74146   6833614.83044
                  24001862.1724                                   24001858.9924
                                                                        41.0004
        24.0004
 -21656659.48448 -16860897.40246
                  21854986.5784                                   21854983.4224
                                                                        50.2504
        39.0004
 -22193392.82048 -17279187.52746
                  21093594.9454                                   21093591.4224
                                                                        51.0004
        41.7504
  -9476456.61347  -7354670.59445
                  21751863.7034                                   21751859.8364
                                                                        47.5004
        31.5004
 -26710505.78148 -20797991.85246
                  20540970.4774                                   20540966.8634
                                                                        52.0004
        41.0004
 -11929851.75447  -9260854.49244
                  22433290.5704                                   22433287.0314
                                                                        46.0004
        29.2504
  -1752942.00447  -1335539.74244
                  23513560.3284                                   23513556.5784
                                                                        42.2504
        24.0004
  -2945340.14547  -2258465.68744
                  23207516.9224                                   23207512.8594
                                                                        42.5004
        28.5004
 09 10 16  0 57  0.0000000  0  9G02G04G29G05G13G10G25G16G07
  -6456680.64548  -5005523.00446
                  21205141.8444                                   21205136.5784
                                                                        50.0004
        38.5004
   8797962.60946   6863722.94944
                  24009214.4694                                   24009212.3794
                                                                        41.0004
        24.2504
 -21734245.26248 -16921353.89146
                  21840222.2584                                   21840219.2034
                                                                        50.2504
        38.7504
 -22331690.71948 -17386952.11746
                  21067277.8984                                   21067274.1884
                                                                        51.0004
        41.7504
  -9486557.62147  -7362541.52045
                  21749941.6724                                   21749937.5634
                                                                        47.5004
        30.7504
 -26830094.17248 -20891177.59846
                  20518213.6884                                   20518210.0824
                                                                        51.7504
        40.7504
 -12028583.44147  -9337788.25445
                  22414502.1724                                   22414498.9384
                                                                        45.0004
        30.0004
  -1856608.10546  -1416318.51243
                  23493834.3674                                   23493829.7304
                                                                        41.5004
        22.7504
  -3097699.96547  -2377187.59044
                  23178524.0474                                   23178519.7114
                                                                        42.5004
        28.5004
 09 10 16  0 57 30.0000000  0  9G02G04G29G05G13G10G25G16G07
  -4884651.38348  -3780565.15246
                  21504289.3524                                   21504283.9964
                                                                        50.2504
        39.5004
  10412163.61747   8121541.85243
                  24316387.5084                                   24316384.6374
                                                                        42.0004
        23.0004
 -20235779.31248 -15753718.07046
                  22125370.9614                                   22125367.8484
                                                                        49.0004
        38.5004
 -20894101.12948 -16266752.46146
                  21340842.0234                                   21340838.3094
                                                                        51.0004
        41.2504
  -7920699.91048  -6142392.66045
                  22047914.5164                                   22047910.0984
                                                                        48.2504
        31.7504
 -25373707.78948 -19756331.02046
                  20795354.6334                                   20795351.1884
                                                                        51.5004
        41.2504
 -10551301.98047  -8186659.85245
                  22695620.2894                                   22695616.2464
                                                                        45.5004
        30.0004
   -384243.91047   -269021.72743
                  23774015.1414                                   23774011.4304
                                                                        42.7504
        22.5004
  -1674188.00847  -1267957.44944
                  23449409.2344                                   23449405.0124
                                                                        42.5004
        29.2504
 09 10 16  0 58  0.0000000  0  9G02G04G29G05G13G10G25G16G07
  -4887561.33148  -3782832.65446
                  21503735.3754                                   21503729.7544
                                                                        50.5004
        38.5004
  10451085.58747   8151870.65944
                  24323794.1414                                   24323791.3754
                                                                        42.7504
        25.5004
 -20312109.11748 -15813195.75046
                  22110845.7034                                   22110842.8284
                                                                        50.0004
        38.7504
 -21031474.46948 -16373796.64846
                  21314700.9144                                   21314697.1604
                                                                        51.7504
        41.7504
  -7929727.85247  -6149427.40245
                  22046196.5784                                   22046192.3054
                                                                        47.7504
        31.7504
 -25492196.06248 -19848659.53146
                  20772807.2504                                   20772803.8834
                                                                        51.5004
        41.5004
 -10648854.43747  -8262674.74245
                  22677056.7344                                   22677052.6484
                                                                        44.2504
        30.0004
   -486697.19947   -348855.45743
                  23754519.4064                                   23754514.9494
                                                                        42.0004
        23.0004
  -1825653.36347  -1385982.38344
                  23420586.0474                                   23420581.9884
                                                                        43.5004
        28.5004
 09 10 16  0 58 30.0000000  0  9G02G04G29G05G13G10G25G16G07
  -4889992.71948  -3784727.24246
                  21503272.7974                                   21503267.0274
                                                                        50.0004
        39.0004
  10490144.04747   8182305.76643
                  24331226.4454                                   24331224.0084
                                                                        43.2504
        23.5004
 -20387810.80148 -15872184.07846
                  22096440.2584                                   22096437.0864
                                                                        49.0004
        38.5004
 -21168383.26648 -16480478.75847
                  21288647.9534                                   21288644.4534
                                                                        50.5004
        42.7504
  -7938224.15647  -6156047.90245
                  22044579.7114                                   22044576.0864
                                                                        47.7504
        31.2504
 -25610133.28948 -19940558.68446
                  20750364.5784                                   20750360.8324
                                                                        51.5004
        41.0004
 -10745817.64847  -8338230.50844
                  22658605.0634                                   22658601.3484
                                                                        44.0004
        29.5004
   -588542.58647   -428215.50043
                  23735139.0554                                   23735134.0984
                                                                        43.0004
        22.7504
  -1976669.30147  -1503657.12544
                  23391849.0704                                   23391844.2934
                                                                        43.0004
        29.0004
 09 10 16  0 59  0.0000000  0  9G02G04G29G05G13G10G25G16G07
  -4891944.65648  -3786248.23446
                  21502901.7894                                   21502895.6294
                                                                        50.0004
        39.0004
  10529340.61347   8212848.55143
                  24338685.0314                                   24338682.4224
                                                                        43.0004
        23.2504
 -20462883.03148 -15930681.90246
                  22082154.5004                                   22082150.8984
                                                                        48.5004
        38.5004
 -21304824.77348 -16586796.78546
                  21262683.6484                                   21262680.1954
                                                                        51.2504
        41.5004
  -7946188.28947  -6162253.71545
                  22043064.4694                                   22043060.2734
                                                                        47.0004
        31.5004
 -25727516.37148 -20032026.01246
                  20728027.1334                                   20728023.6214
                                                                        52.2504
        41.0004
 -10842187.52347  -8413323.92245
                  22640266.8204                                   22640262.8014
                                                                        44.7504
        30.0004
   -689777.55947   -507099.90643
                  23715874.9924                                   23715870.0984
                                                                        42.0004
        22.5004
  -2127229.91446  -1620977.06644
                  23363198.0234                                   23363193.6914
                                                                        41.0004
        27.5004
 09 10 16  0 59 30.0000000  0  9G02G04G29G05G13G10G25G16G07
  -4893420.90248  -3787398.55946
                  21502620.2424                                   21502614.6914
                                                                        49.5004
        38.5004
  10568670.46147   8243495.09843
                  24346169.3134                                   24346166.5634
                                                                        43.0004
        22.0004
 -20537326.44148 -15988689.71146
                  22067988.4924                                   22067985.0784
                                                                        49.5004
        38.0004
 -21440798.73448 -16692750.51647
                  21236808.7734                                   21236804.9024
                                                                        50.7504
        42.0004
  -7953624.90247  -6168048.48445
                  22041649.4384                                   22041644.5984
                                                                        47.2504
        31.2504
 -25844345.84848 -20123061.96146
                  20705795.2974                                   20705792.0474
                                                                        52.0004
        41.2504
 -10937965.49247  -8487956.10245
                  22622040.7274                                   22622036.7934
                                                                        44.7504
        30.5004
   -790401.78547   -585508.39143
                  23696726.5864                                   23696721.5514
                                                                        43.2504
        22.5004
  -2277334.70746  -1737941.80944
                  23334633.4384                                   23334629.5204
                                                                        41.2504
        28.5004
 09 10 16  1  0  0.0000000  0  9G02G04G29G05G13G10G25G16G07
  -4894422.67248  -3788179.15246
                  21502429.9064                                   21502423.8404
                                                                        50.0004
        38.2504
  10608132.99247   8274245.08643
                  24353678.3674                                   24353676.1994
                                                                        42.2504
        23.7504
 -20611142.27748 -16046208.51246
                  22053941.6564                                   22053938.5394
                                                                        49.5004
        38.5004
 -21576304.11348 -16798339.11746
                  21211023.1334                                   21211019.4064
                                                                        51.2504
        41.7504
  -7960535.48447  -6173433.35945
                  22040333.8364                                   22040330.2774
                                                                        46.7504
        30.0004
 -25960620.89848 -20213665.88746
                  20683669.0004                                   20683665.1954
                                                                        52.0004
        41.0004
 -11033150.11347  -8562125.93445
                  22603927.8524                                   22603923.8404
                                                                        44.5004
        30.5004
   -890415.68047   -663441.29743
                  23677695.2894                                   23677690.1254
                                                                        44.0004
        22.5004
  -2426979.81646  -1854548.35544
                  23306157.1174                                   23306153.3134
                                                                        40.2504
        27.7504
 09 10 16  1  0 30.0000000  0  9G02G04G29G05G13G10G25G16G07
  -4894950.34848  -3788590.32846
                  21502329.5554                                   21502323.7194
                                                                        50.0004
        38.5004
  10647727.18847   8305097.60544
                  24361213.2424                                   24361211.2704
                                                                        42.0004
        24.5004
 -20684327.58648 -16103236.05146
                  22040014.9384                                   22040012.3014
                                                                        49.5004
        39.0004
 -21711336.90648 -16903559.46147
                  21185327.2974                                   21185323.5314
                                                                        51.0004
        42.0004
  -7966920.51647  -6178408.71945
                  22039118.5394                                   22039114.5664
                                                                        46.7504
        30.2504
 -26076338.20748 -20303835.21146
                  20661648.7504                                   20661645.0554
                                                                        52.0004
        41.0004
 -11127739.18747  -8635831.71944
                  22585928.0704                                   22585924.1024
                                                                        43.7504
        29.5004
   -989815.04747   -740895.38744
                  23658780.2344                                   23658774.8834
                                                                        44.0004
        24.0004
  -2576161.92246  -1970794.12544
                  23277768.1724                                   23277764.4964
                                                                        41.7504
        26.7504
 09 10 16  1  1  0.0000000  0  9G02G04G29G05G13G10G25G16G07
  -4895006.84048  -3788634.35246
                  21502318.9534                                   21502313.1764
                                                                        50.2504
        38.5004
  10687450.03147   8336050.36343
                  24368772.4924                                   24368770.1174
                                                                        42.0004
        23.0004
 -20756883.05948 -16159772.79346
                  22026208.6174                                   22026205.4104
                                                                        49.5004
        39.5004
 -21845896.15648 -17008410.81646
                  21159721.5314                                   21159717.6994
                                                                        52.0004
        41.7504
  -7972783.80147  -6182977.49644
                  22038003.4384                                   22037998.8134
                                                                        46.7504
        29.7504
 -26191497.65648 -20393569.84846
                  20639734.5234                                   20639730.8554
                                                                        52.5004
        41.0004
 -11221733.19947  -8709073.78945
                  22568040.9614                                   22568037.5744
                                                                        44.0004
        30.0004
  -1088600.07847   -817870.73443
                  23639981.5474                                   23639976.2974
                                                                        44.0004
        23.7504
  -2724879.32047  -2086677.77344
                  23249468.8594                                   23249464.5824
                                                                        44.0004
        27.5004
 09 10 16  1  1 30.0000000  0  9G02G04G29G05G13G10G25G16G07
  -4894594.13748  -3788312.77346
                  21502396.6884                                   21502391.6134
                                                                        49.5004
        38.2504
  10727299.62546   8367101.84443
                  24376356.1644                                   24376353.6884
                                                                        41.5004
        23.2504
 -20828810.36748 -16215820.02746
                  22012520.9924                                   22012517.3834
                                                                        49.5004
        39.0004
 -21979981.66448 -17112893.01246
                  21134205.6254                                   21134201.8834
                                                                        51.2504
        41.7504
  -7978127.74247  -6187141.61345
                  22036986.3204                                   22036982.1954
                                                                        46.7504
        30.5004
 -26306098.97748 -20482869.56646
                  20617926.6254                                   20617922.9494
                                                                        52.0004
        41.5004
 -11315131.23847  -8781851.48444
                  22550268.0634                                   22550264.3444
                                                                        43.7504
        29.5004
  -1186770.94547   -894367.54343
                  23621300.2664                                   23621295.3634
                                                                        43.7504
        22.7504
  -2873129.05546  -2202197.05144
                  23221258.1954                                   23221253.4024
                                                                        41.2504
        29.5004
 09 10 16  1  2  0.0000000  0  9G02G04G29G05G13G10G25G16G07
  -4893714.00448  -3787626.96146
                  21502564.5164                                   21502559.1564
                                                                        49.7504
        38.2504
  10767274.16047   8398250.77743
                  24383963.0944                                   24383960.2814
                                                                        42.7504
        22.5004
 -20900108.30948 -16271376.80946
                  21998953.1174                                   21998949.6134
                                                                        49.5004
        38.5004
 -22113591.41848 -17217004.48447
                  21108780.6334                                   21108776.6914
                                                                        52.5004
        42.2504
  -7982954.64547  -6190902.83645
                  22036068.0784                                   22036063.3284
                                                                        47.0004
        30.0004
 -26420140.55548 -20571733.13746
                  20596225.2814                                   20596221.8594
                                                                        51.7504
        41.5004
 -11407932.72747  -8854164.33644
                  22532608.5784                                   22532604.7344
                                                                        44.2504
        29.0004
  -1284326.15247   -970384.59844
                  23602736.3284                                   23602731.5634
                                                                        43.0004
        25.0004
  -3020908.74647  -2317350.03944
                  23193136.5314                                   23193132.1024
                                                                        43.5004
        27.7504
 09 10 16  1  2 30.0000000  0  9G02G04G29G05G13G10G25G16G07
  -4892367.19548  -3786577.50846
                  21502821.2734                                   21502815.5204
                                                                        49.5004
        37.5004
  10807372.64847   8429496.32443
                  24391593.6804                                   24391590.2934
                                                                        43.0004
        21.5004
 -20970776.66048 -16326442.99646
                  21985505.5314                                   21985502.0784
                                                                        48.0004
        39.2504
 -22246723.06248 -17320743.41046
                  21083446.3524                                   21083442.7114
                                                                        50.5004
        41.7504
  -7987266.05147  -6194262.37145
                  22035247.4694                                   22035243.0044
                                                                        47.0004
        31.0004
 -26533620.71548 -20660159.23846
                  20574630.7424                                   20574627.1914
                                                                        52.2504
        40.7504
 -11500135.79747  -8926010.89145
                  22515062.9924                                   22515059.2034
                                                                        43.0004
        30.0004
  -1381264.21147  -1045920.75844
                  23584289.8674                                   23584285.2344
                                                                        43.0004
        24.7504
  -3168214.59847  -2432133.78144
                  23165105.2274                                   23165100.8094
                                                                        44.0004
        29.0004
 09 10 16  1  3  0.0000000  0  9G02G04G29G05G13G10G25G16G07
  -4890558.78148  -3785168.35546
                  21503165.1884                                   21503159.8244
                                                                        49.5004
        38.0004
  10847589.72346   8460834.27743
                  24399247.0004                                   24399243.3364
                                                                        41.0004
        22.5004
 -21040816.87148 -16381019.73046
                  21972177.2424                                   21972173.8594
                                                                        49.2504
        39.2504
 -22379377.35948 -17424110.37146
                  21058203.2274                                   21058199.5084
                                                                        51.7504
        41.5004
  -7991066.92647  -6197224.10545
                  22034524.5004                                   22034519.4924
                                                                        46.7504
        30.5004
 -26646540.48048 -20748148.65246
                  20553142.7114                                   20553139.0234
                                                                        51.5004
        41.7504
 -11591743.05947  -8997393.16444
                  22497630.5784                                   22497627.3714
                                                                        44.0004
        29.5004
  -1477585.92646  -1120976.64844
                  23565960.0474                                   23565955.0744
                                                                        41.5004
        24.2504
  -3315047.80147  -2546549.27344
                  23137163.6174                                   23137159.1054
                                                                        43.7504
        28.5004
 09 10 16  1  3 30.0000000  0  9G02G04G29G05G13G10G25G16G07
  -4888289.84448  -3783400.36346
                  21503596.8134                                   21503591.0784
                                                                        49.0004
        37.7504
  10887925.04346   8492264.36743
                  24406921.6094                                   24406919.6024
                                                                        40.5004
        22.0004
 -21110230.29748 -16435108.08246
                  21958968.2974                                   21958965.0514
                                                                        49.5004
        39.2504
 -22511553.28548 -17527104.59447
                  21033050.9924                                   21033047.2854
                                                                        51.5004
        42.0004
  -7994358.96547  -6199789.32045
                  22033897.6954                                   22033894.0394
                                                                        46.0004
        30.7504
 -26758899.22748 -20835700.91846
                  20531761.3364                                   20531758.4494
                                                                        51.7504
        41.2504
 -11682752.77347  -9068309.82844
                  22480312.4384                                   22480308.5204
                                                                        44.5004
        29.2504
  -1573291.02347  -1195552.07844
                  23547747.5084                                   23547742.8244
                                                                        43.0004
        25.0004
  -3461403.93047  -2660592.99644
                  23109312.9844                                   23109308.7384
                                                                        43.5004
        28.5004
 09 10 16  1  4  0.0000000  0  9G02G04G29G05G13G10G25G16G07
  -4885563.92648  -3781276.28146
                  21504115.6954                                   21504109.8754
                                                                        48.7504
        37.7504
  10928373.96546   8523782.88343
                  24414618.4694                                   24414617.0004
                                                                        40.0004
        22.0004
 -21179017.10948 -16488708.18046
                  21945878.5554                                   21945875.4264
                                                                        50.0004
        39.2504
 -22643249.99648 -17629725.39147
                  21007989.8444                                   21007986.0904
                                                                        51.5004
        42.5004
  -7997146.23847  -6201961.22745
                  22033366.9144                                   22033363.4614
                                                                        46.2504
        30.2504
 -26870696.96148 -20922816.02046
                  20510487.2424                                   20510483.4534
                                                                        52.0004
        41.5004
 -11773166.12947  -9138761.80544
                  22463106.4924                                   22463103.4614
                                                                        44.0004
        29.0004
  -1668379.56247  -1269647.02744
                  23529652.9924                                   23529649.0234
                                                                        43.2504
        25.7504
  -3607282.72347  -2774264.77744
                  23081553.3134                                   23081548.5664
                                                                        44.0004
        29.0004
 09 10 16  1  4 30.0000000  0  9G02G04G29G05G13G10G25G16G07
  -4882379.36348  -3778794.81646
                  21504721.6724                                   21504716.1254
                                                                        49.0004
        37.7504
  10968938.81646   8555391.71543
                  24422338.3754                                   24422336.4264
                                                                        39.5004
        23.0004
 -21247175.06648 -16541818.23046
                  21932908.3834                                   21932905.2194
                                                                        49.7504
        39.2504
 -22774463.44148 -17731969.63747
                  20983020.6564                                   20983017.1134
                                                                        51.0004
        42.0004
  -7999428.19147  -6203739.39145
                  22032933.1094                                   22032928.9694
                                                                        46.2504
        30.2504
 -26981929.44948 -21009490.67646
                  20489320.1644                                   20489316.9064
                                                                        52.0004
        41.5004
 -11862979.14847  -9208745.98045
                  22446016.1484                                   22446012.4534
                                                                        44.5004
        30.0004
  -1762848.06647  -1343258.85244
                  23511676.2974                                   23511672.1134
                                                                        42.7504
        24.0004
  -3752677.75447  -2887559.58644
                  23053885.2894                                   23053881.5664
                                                                        43.2504
        28.5004
 09 10 16  1  5  0.0000000  0  9G02G04G29G05G13G10G25G16G07
  -4878739.34848  -3775958.44946
                  21505414.3594                                   21505408.6054
                                                                        48.7504
        38.0004
  11009615.96147   8587088.05144
                  24430079.4454                                   24430077.3484
                                                                        42.0004
        24.2504
 -21314704.72748 -16594438.65246
                  21920058.3204                                   21920054.5824
                                                                        50.0004
        38.7504
 -22905192.59848 -17833836.51646
                  20958143.9774                                   20958139.8714
                                                                        52.0004
        41.7504
  -8001207.59047  -6205125.92645
                  22032593.9454                                   22032590.4654
                                                                        45.7504
        30.5004
 -27092596.74648 -21095724.92246
                  20468261.0314                                   20468257.2704
                                                                        52.2504
        41.0004
 -11952192.07047  -9278262.54345
                  22429039.3524                                   22429035.9064
                                                                        44.2504
        30.0004
  -1856695.50847  -1416386.71944
                  23493817.3054                                   23493813.3524
                                                                        42.7504
        24.0004
  -3897587.87147  -3000476.53144
                  23026309.9694                                   23026305.9454
                                                                        43.0004
        28.7504
 09 10 16  1  5 30.0000000  0  9G02G04G29G05G13G10G25G16G07
  -4874647.79748  -3772770.23046
                  21506192.7584                                   21506187.0394
                                                                        49.2504
        37.7504
  11050402.03547   8618869.34843
                  24437841.0314                                   24437838.3364
                                                                        43.2504
        23.2504
 -21381609.04748 -16646571.86346
                  21907326.7194                                   21907323.1414
                                                                        49.5004
        39.0004
 -23035438.27748 -17935326.64847
                  20933358.7664                                   20933355.1644
                                                                        52.0004
        42.0004
  -8002488.80147  -6206124.26645
                  22032350.6564                                   22032346.7504
                                                                        46.5004
        30.2504
 -27202700.18448 -21181519.80146
                  20447308.9774                                   20447305.5124
                                                                        51.0004
        41.2504
 -12040806.41047  -9347312.67645
                  22412176.9534                                   22412172.9264
                                                                        43.7504
        30.0004
  -1949924.24247  -1489032.48844
                  23476076.9384                                   23476072.6604
                                                                        42.7504
        26.0004
  -4042012.20347  -3113014.94144
                  22998826.6724                                   22998822.8244
                                                                        42.5004
        28.0004
 09 10 16  1  6  0.0000000  0  9G02G04G29G05G13G10G25G16G07
  -4870106.15647  -3769231.30146
                  21507057.0314                                   21507051.7074
                                                                        47.7504
        38.0004
  11091294.93847   8650733.90643
                  24445622.5314                                   24445619.5514
                                                                        44.2504
        22.0004
 -21447887.05948 -16698217.01246
                  21894714.1094                                   21894711.0744
                                                                        49.0004
        39.0004
 -23165198.40648 -18036438.43047
                  20908666.3204                                   20908662.7624
                                                                        51.7504
        42.2504
  -8003274.58247  -6206736.55545
                  22032200.7274                                   22032197.0314
                                                                        46.0004
        30.0004
 -27312238.02048 -21266873.94546
                  20426464.8204                                   20426461.5274
                                                                        52.0004
        41.5004
 -12128821.71947  -9415896.03145
                  22395427.8594                                   22395424.2584
                                                                        44.5004
        30.0004
  -2042532.93447  -1561195.11344
                  23458454.3674                                   23458449.5314
                                                                        43.0004
        24.5004
  -4185948.16447  -3225172.80544
                  22971436.9614                                   22971432.5664
                                                                        43.7504
        28.2504
 09 10 16  1  6 30.0000000  0  9G02G04G29G05G13G10G25G16G07
  -4865116.07048  -3765342.92246
                  21508006.8984                                   21508001.3444
                                                                        48.5004
        37.5004
  11132293.60946   8682680.98843
                  24453424.2034                                   24453420.9774
                                                                        41.0004
        19.2504
 -21513539.71948 -16749374.89546
                  21882220.8054                                   21882217.5824
                                                                        49.7504
        39.5004
 -23294471.82848 -18137170.93747
                  20884066.5634                                   20884062.8364
                                                                        51.7504
        42.0004
  -8003566.37147  -6206963.93444
                  22032145.4304                                   22032141.3404
                                                                        45.5004
        29.5004
 -27421209.45748 -21351786.73046
                  20405728.2894                                   20405724.8164
                                                                        52.0004
        41.7504
 -12216236.34047  -9484011.32045
                  22378793.8204                                   22378790.0354
                                                                        44.0004
        30.2504
  -2134520.17647  -1632873.48444
                  23440949.6564                                   23440945.0394
                                                                        43.2504
        25.5004
  -4329392.41047  -3336947.51644
                  22944140.4694                                   22944135.9224
                                                                        44.0004
        29.0004
 09 10 16  1  7  0.0000000  0  9G02G04G29G05G13G10G25G16G07
  -4859679.78948  -3761106.87146
                  21509041.3204                                   21509035.5164
                                                                        48.0004
        37.0004
  11173395.12146   8714707.91843
                  24461244.5704                                   24461243.1454
                                                                        37.5004
        19.0004
 -21578566.07848 -16800044.76646
                  21869846.3914                                   21869843.2664
                                                                        49.5004
        39.5004
 -23423256.48848 -18237522.60547
                  20859559.3674                                   20859555.7194
                                                                        51.5004
        42.0004
  -8003367.28147  -6206808.79344
                  22032183.3284                                   22032179.2894
                                                                        45.5004
        29.2504
 -27529613.37148 -21436257.30946
                  20385099.3134                                   20385095.7814
                                                                        52.0004
        41.5004
 -12303050.59047  -9551658.78544
                  22362273.3594                                   22362269.4844
                                                                        44.0004
        28.7504
  -2225885.39547  -1704067.18044
                  23423563.6254                                   23423558.9264
                                                                        44.0004
        26.7504
  -4472343.45347  -3448337.91844
                  22916937.6884                                   22916933.0164
                                                                        44.2504
        28.5004
 09 10 16  1  7 30.0000000  0  9G02G04G29G05G13G10G25G16G07
  -4853797.69948  -3756523.44146
                  21510160.3984                                   21510155.1914
                                                                        48.2504
        37.5004
  11214599.38946   8746814.93243
                  24469086.5474                                   24469084.7234
                                                                        38.5004
        20.7504
 -21642965.50848 -16850226.13746
                  21857591.5944                                   21857588.4494
                                                                        50.2504
        39.5004
 -23551550.28948 -18337491.78547
                  20835146.0634                                   20835142.5234
                                                                        51.2504
        42.2504
  -8002678.16047  -6206271.82044
                  22032314.2504                                   22032310.1994
                                                                        45.7504
        29.5004
 -27637447.81648 -21520284.13746
                  20364579.3834                                   20364575.4804
                                                                        52.2504
        41.2504
 -12389262.51247  -9618836.90245
                  22345867.6174                                   22345863.8874
                                                                        44.2504
        30.2504
  -2316627.11747  -1774775.01244
                  23406295.8134                                   23406291.5984
                                                                        43.7504
        26.2504
  -4614797.31247  -3559340.91844
                  22889829.3984                                   22889824.6914
                                                                        43.0004
        28.7504
 09 10 16  1  8  0.0000000  0  9G02G04G29G05G13G10G25G16G07
  -3272053.45748  -2523995.46946
                  21811156.4774                                   21811150.7034
                                                                        48.7504
        37.5004
  12831322.14146  10006598.75044
                  24776739.0554                                   24776737.3524
                                                                        40.5004
        25.5004
 -20131318.06648 -15672319.02346
                  22145248.8284                                   22145245.7424
                                                                        50.0004
        39.5004
 -22103928.78548 -17209475.00847
                  21110619.0394                                   21110615.1724
                                                                        52.0004
        42.2504
  -6426082.69547  -4977755.86344
                  22332330.9774                                   22332325.9264
                                                                        46.0004
        29.2504
 -26169289.71948 -20376264.83246
                  20643960.6644                                   20643956.9224
                                                                        52.0004
        41.2504
 -10899449.69947  -8457943.80544
                  22629369.7034                                   22629366.1054
                                                                        44.5004
        28.2504
   -831322.92647   -617395.12944
                  23688939.8284                                   23688935.6134
                                                                        43.2504
        27.2504
  -3181327.04747  -2442351.07444
                  23162609.5864                                   23162605.0984
                                                                        44.2504
        28.7504
 09 10 16  1  8 30.0000000  0  9G02G04G29G05G13G10G25G16G07
  -3265283.39848  -2518720.10246
                  21812444.7034                                   21812439.5904
                                                                        48.2504
        37.5004
  12872728.75847  10038863.49644
                  24784619.3754                                   24784617.1524
                                                                        42.0004
        26.7504
 -20194462.38348 -15721522.34846
                  22133232.8284                                   22133229.6564
                                                                        50.2504
        39.7504
 -22231233.83248 -17308673.72747
                  21086393.9224                                   21086389.8284
                                                                        51.7504
        42.2504
  -6424417.98447  -4976458.68744
                  22332647.3674                                   22332643.4614
                                                                        45.7504
        29.7504
 -26275979.80548 -20459399.94146
                  20623657.7734                                   20623654.5274
                                                                        51.7504
        41.2504
 -10984452.82847  -8524180.01244
                  22613194.1884                                   22613190.4734
                                                                        44.7504
        29.7504
   -920812.24247   -687127.07844
                  23671910.6254                                   23671905.9884
                                                                        44.0004
        26.0004
  -3322775.65647  -2552570.76644
                  23135692.9534                                   23135688.3554
                                                                        43.2504
        29.0004
 09 10 16  1  9  0.0000000  0  8G02G29G05G13G10G25G16G07
  -3258076.94148  -2513104.68746
                  21813816.2424                                   21813810.2934
                                                                        49.0004
        37.5004
 -20256984.69348 -15770241.02446
                  22121335.1804                                   22121331.9844
                                                                        50.0004
        38.5004
 -22358047.21948 -17407489.34047
                  21062261.9144                                   21062258.1294
                                                                        52.0004
        42.2504
  -6422274.46547  -4974788.41045
                  22333055.1254                                   22333051.4104
                                                                        46.0004
        30.0004
 -26382101.29748 -20542091.99646
                  20603464.0164                                   20603460.1524
                                                                        51.5004
        41.2504
 -11068855.53947  -8589948.34045
                  22597133.0314                                   22597129.0514
                                                                        45.2504
        30.2504
  -1009680.08647   -756374.74244
                  23654999.4774                                   23654995.2704
                                                                        43.7504
        25.0004
  -3463722.56647  -2662399.50444
                  23108871.2424                                   23108867.3094
                                                                        43.5004
        29.0004
 09 10 16  1  9 30.0000000  0  8G02G29G05G13G10G25G16G07
  -3250433.65248  -2507148.89546
                  21815270.9614                                   21815264.8244
                                                                        48.2504
        37.0004
 -20318882.15248 -15818472.80946
                  22109556.7734                                   22109553.6644
                                                                        50.0004
        39.0004
 -22484364.72348 -17505918.56647
                  21038224.7274                                   21038220.9104
                                                                        51.5004
        42.2504
  -6419651.52347  -4972744.57444
                  22333554.3364                                   22333550.5594
                                                                        44.5004
        29.0004
 -26487650.68048 -20624338.24246
                  20583378.2734                                   20583374.6884
                                                                        51.2504
        41.0004
 -11152655.10247  -8655246.70344
                  22581186.5944                                   22581182.3324
                                                                        44.2504
        29.7504
  -1097922.75847   -825135.27344
                  23638207.3914                                   23638203.3834
                                                                        44.0004
        26.5004
  -3604163.14547  -2771833.69944
                  23082146.3204                                   23082142.3714
                                                                        42.7504
        29.0004
 09 10 16  1 10  0.0000000  0  8G02G29G05G13G10G25G16G07
  -3242355.83648  -2500854.48846
                  21816808.0314                                   21816802.0744
                                                                        48.2504
        37.0004
 -20380155.71548 -15866218.43746
                  22097896.4454                                   22097893.1884
                                                                        49.5004
        39.0004
 -22610189.16448 -17603963.57847
                  21014280.9304                                   21014277.1484
                                                                        51.5004
        42.5004
  -6416551.75847  -4970329.17645
                  22334144.4144                                   22334140.6484
                                                                        45.0004
        30.0004
 -26592627.35548 -20706138.23446
                  20563401.6644                                   20563398.0864
                                                                        52.2504
        40.5004
 -11235851.47747  -8720075.04345
                  22565354.2734                                   22565350.9964
                                                                        44.5004
        30.5004
  -1185539.73047   -893408.25844
                  23621534.6804                                   23621530.4104
                                                                        43.0004
        26.7504
  -3744095.19147  -2880871.62545
                  23055518.3594                                   23055514.3674
                                                                        42.5004
        30.0004
 09 10 16  1 10 30.0000000  0  8G02G29G05G13G10G25G16G07
  -3233842.90648  -2494221.05146
                  21818427.8674                                   21818422.0434
                                                                        49.0004
        37.5004
 -20440803.18448 -15913476.18046
                  22086355.6484                                   22086352.4184
                                                                        50.2504
        39.0004
 -22735509.19148 -17701615.50847
                  20990433.1094                                   20990429.3484
                                                                        52.2504
        42.7504
  -6412975.42647  -4967542.42644
                  22334824.7034                                   22334820.9414
                                                                        45.5004
        29.2504
 -26697028.18748 -20787489.51646
                  20543534.9454                                   20543531.7584
                                                                        52.2504
        41.0004
 -11318441.60947  -8784430.99645
                  22549637.9384                                   22549634.6844
                                                                        44.7504
        30.0004
  -1272528.00447   -961191.34044
                  23604981.6254                                   23604976.9774
                                                                        42.5004
        26.5004
  -3883513.70747  -2989509.39544
                  23028987.8524                                   23028983.8164
                                                                        43.7504
        28.7504
 09 10 16  1 11  0.0000000  0  8G02G29G05G13G10G25G16G07
  -3224893.64847  -2487247.61346
                  21820130.7734                                   21820125.4224
                                                                        47.5004
        37.2504
 -20500822.52348 -15960244.51646
                  22074934.4384                                   22074931.0124
                                                                        50.5004
        38.7504
 -22860323.95348 -17798873.72347
                  20966681.7584                                   20966678.1684
                                                                        52.0004
        42.7504
  -6408922.02747  -4964383.93044
                  22335596.5234                                   22335592.4064
                                                                        45.2504
        28.7504
 -26800849.46148 -20868389.21146
                  20523778.3834                                   20523774.7114
                                                                        53.0004
        41.0004
 -11400422.14847  -8848311.94944
                  22534037.7734                                   22534034.3164
                                                                        44.5004
        29.7504
  -1358884.22747  -1028481.89844
                  23588548.3914                                   23588544.2704
                                                                        43.2504
        26.2504
  -4022413.03547  -3097742.60944
                  23002556.3054                                   23002552.2114
                                                                        43.7504
        29.7504
 09 10 16  1 11 30.0000000  0  8G02G29G05G13G10G25G16G07
  -3215516.29748  -2479940.58646
                  21821915.2114                                   21821909.7304
                                                                        48.0004
        36.2504
 -20560219.67248 -16006528.03946
                  22063631.3054                                   22063628.4574
                                                                        50.0004
        38.7504
 -22984638.13348 -17895741.85947
                  20943025.5474                                   20943021.8284
                                                                        52.0004
        42.5004
  -6404399.92247  -4960860.21144
                  22336456.5004                                   22336452.4024
                                                                        45.0004
        28.5004
 -26904096.02348 -20948841.04746
                  20504131.5004                                   20504127.6914
                                                                        52.0004
        41.0004
 -11481798.64847  -8911722.19945
                  22518552.3984                                   22518548.7584
                                                                        45.7504
        30.2504
  -1444613.63747  -1095284.04744
                  23572235.1174                                   23572230.1604
                                                                        42.5004
        26.2504
  -4160797.09047  -3205574.31245
                  22976222.7344                                   22976218.6484
                                                                        44.0004
        30.2504
 09 10 16  1 12  0.0000000  0  8G02G29G05G13G10G25G16G07
  -3205715.51247  -2472303.61746
                  21823780.2504                                   21823774.7194
                                                                        46.5004
        36.5004
 -20618996.75848 -16052328.28146
                  22052446.4614                                   22052443.4924
                                                                        50.5004
        38.5004
 -23108450.61748 -17992219.10547
                  20919464.7894                                   20919461.4384
                                                                        51.2504
        42.2504
  -6399414.24647  -4956975.27344
                  22337405.7734                                   22337401.3324
                                                                        44.7504
        29.2504
 -27006769.78948 -21028846.57046
                  20484593.3204                                   20484589.4964
                                                                        52.0004
        41.0004
 -11562573.77747  -8974663.85945
                  22503181.8524                                   22503177.6564
                                                                        44.5004
        30.7504
  -1529718.14847  -1161599.24644
                  23556039.5314                                   23556035.2734
                                                                        42.0004
        26.5004
  -4298666.10247  -3313004.68445
                  22949986.9304                                   22949982.9614
                                                                        43.5004
        30.0004
 09 10 16  1 12 30.0000000  0  8G02G29G05G13G10G25G16G07
  -3195494.66448  -2464339.33246
                  21825725.2734                                   21825719.8984
                                                                        48.7504
        37.5004
 -20677156.73448 -16097647.69546
                  22041379.1414                                   22041375.8984
                                                                        50.0004
        38.5004
 -23231766.17248 -18088309.14847
                  20895998.6254                                   20895995.3554
                                                                        52.7504
        42.5004
  -6393969.24247  -4952732.40244
                  22338441.6564                                   22338437.5984
                                                                        44.5004
        29.2504
 -27108871.58648 -21108406.40246
                  20465163.9454                                   20465160.1334
                                                                        52.5004
        41.0004
 -11642748.32047  -9037137.52745
                  22487924.8674                                   22487920.9534
                                                                        45.5004
        30.2504
  -1614198.78147  -1227428.32444
                  23539963.2034                                   23539959.0124
                                                                        42.2504
        26.0004
  -4436018.95747  -3420032.86345
                  22923849.6564                                   22923844.9614
                                                                        44.2504
        31.2504
 09 10 16  1 13  0.0000000  0  8G02G29G05G13G10G25G16G07
  -3184857.05148  -2456050.28546
                  21827749.7274                                   21827743.7194
                                                                        48.7504
        36.5004
 -20734701.98448 -16142488.12946
                  22030428.5554                                   22030425.1884
                                                                        50.0004
        39.0004
 -23354584.68048 -18184011.87147
                  20872627.0634                                   20872623.2114
                                                                        51.7504
        42.7504
  -6388067.97747  -4948134.02344
                  22339564.6174                                   22339560.7034
                                                                        44.2504
        29.2504
 -27210402.09048 -21187521.07446
                  20445843.3134                                   20445839.6414
                                                                        51.5004
        40.7504
 -11722323.87547  -9099144.45345
                  22472782.0864                                   22472778.3364
                                                                        45.0004
        31.2504
  -1698058.13747  -1292773.27044
                  23524005.3204                                   23524001.2814
                                                                        42.5004
        26.5004
  -4572854.63747  -3526658.05945
                  22897810.5944                                   22897806.2814
                                                                        43.7504
        30.5004
 09 10 16  1 13 30.0000000  0  8G02G29G05G13G10G25G16G07
  -3173805.98448  -2447439.07446
                  21829852.4064                                   21829846.6054
                                                                        48.0004
        36.5004
 -20791632.67248 -16186849.70346
                  22019594.7584                                   22019591.9734
                                                                        50.0004
        39.0004
 -23476902.97348 -18279324.81647
                  20849350.8054                                   20849347.3134
                                                                        51.7504
        43.0004
  -6381714.05547  -4943182.91844
                  22340774.0784                                   22340769.5904
                                                                        44.5004
        29.2504
 -27311360.94948 -21266190.30546
                  20426631.3594                                   20426627.7854
                                                                        52.2504
        41.0004
 -11801300.64147  -9160684.78545
                  22457753.4534                                   22457749.5744
                                                                        45.0004
        30.0004
  -1781294.46947  -1357632.75044
                  23508166.3134                                   23508162.2424
                                                                        42.0004
        27.0004
  -4709171.73847  -3632879.16045
                  22871870.1954                                   22871865.9614
                                                                        45.0004
        31.0004
 09 10 16  1 14  0.0000000  0  8G02G29G05G13G10G25G16G07
  -3162341.86347  -2438505.99646
                  21832033.9924                                   21832028.3134
                                                                        47.7504
        36.7504
 -20847949.15248 -16230732.68446
                  22008878.3284                                   22008875.3134
                                                                        50.2504
        38.7504
 -23598719.98048 -18374247.14847
                  20826169.6564                                   20826166.1054
                                                                        51.7504
        42.5004
  -6374908.97347  -4937880.26644
                  22342068.3674                                   22342064.4884
                                                                        44.2504
        28.5004
 -27411746.89848 -21344413.12546
                  20407528.6884                                   20407524.9104
                                                                        52.5004
        41.5004
 -11879676.97747  -9221757.25645
                  22442838.8594                                   22442835.2114
                                                                        44.7504
        31.0004
  -1863907.03147  -1422006.17244
                  23492445.3284                                   23492441.2344
                                                                        42.0004
        25.5004
  -4844966.26247  -3738693.04344
                  22846028.8834                                   22846024.6254
                                                                        43.2504
        29.0004
 09 10 16  1 14 30.0000000  0  8G02G29G05G13G10G25G16G07
  -3150467.66447  -2429253.38346
                  21834293.6644                                   21834287.8134
                                                                        47.7504
        36.0004
 -20903651.97348 -16274137.47746
                  21998278.4064                                   21998275.1454
                                                                        50.0004
        38.7504
 -23720034.75448 -18468778.14147
                  20803084.2194                                   20803080.5124
                                                                        51.5004
        42.5004
  -6367656.86747  -4932229.28544
                  22343448.5864                                   22343444.4884
                                                                        44.0004
        28.2504
 -27511559.78548 -21422189.39146
                  20388534.9694                                   20388531.1764
                                                                        52.2504
        41.2504
 -11957454.48847  -9282363.11745
                  22428038.2664                                   22428034.3364
                                                                        45.5004
        31.0004
  -1945895.71947  -1485893.43744
                  23476843.9614                                   23476839.6454
                                                                        42.2504
        24.2504
  -4980237.96547  -3844099.52745
                  22820287.8674                                   22820283.7074
                                                                        44.0004
        30.0004
 09 10 16  1 15  0.0000000  0  8G02G29G05G13G10G25G16G07
  -3138184.36747  -2419681.98846
                  21836631.0704                                   21836625.6214
                                                                        47.2504
        36.0004
 -20958741.55948 -16317064.41046
                  21987795.2664                                   21987792.2934
                                                                        50.0004
        39.0004
 -23840845.27048 -18562916.19547
                  20780094.7274                                   20780091.1644
                                                                        52.0004
        42.5004
  -6359958.43047  -4926230.49244
                  22344913.3914                                   22344909.6334
                                                                        44.5004
        28.0004
 -27610798.28948 -21499518.09046
                  20369650.4064                                   20369646.8594
                                                                        52.2504
        41.2504
 -12034631.21147  -9342500.82445
                  22413351.8444                                   22413348.3324
                                                                        45.0004
        30.0004
  -2027260.38346  -1549294.47344
                  23461360.1254                                   23461356.5904
                                                                        41.0004
        26.5004
  -5114982.43047  -3949095.21944
                  22794646.6724                                   22794642.5314
                                                                        43.0004
        29.2504
 09 10 16  1 15 30.0000000  0  8G02G29G05G13G10G25G16G07
  -3125494.98447  -2409794.16846
                  21839045.7424                                   21839040.2774
                                                                        47.0004
        36.5004
 -21013218.62148 -16359514.07446
                  21977428.8284                                   21977425.7074
                                                                        50.2504
        38.5004
 -23961150.00448 -18656660.13347
                  20757201.6334                                   20757197.5984
                                                                        52.0004
        42.5004
  -6351817.28147  -4919886.73444
                  22346462.9844                                   22346458.8954
                                                                        45.0004
        29.0004
 -27709461.94148 -21576398.86346
                  20350875.1254                                   20350871.6644
                                                                        51.7504
        41.5004
 -12111208.07447  -9402171.10545
                  22398779.8284                                   22398776.0554
                                                                        44.0004
        30.5004
  -2108000.58246  -1612208.91044
                  23445995.5474                                   23445992.1484
                                                                        40.5004
        24.5004
  -5249198.70747  -4053679.29344
                  22769106.5784                                   22769102.0944
                                                                        44.5004
        29.7504
 09 10 16  1 16  0.0000000  0  8G02G29G05G13G10G25G16G07
  -3112402.37547  -2399592.15246
                  21841537.3524                                   21841531.8524
                                                                        47.2504
        36.0004
 -21067084.78548 -16401487.68746
                  21967178.4064                                   21967175.1254
                                                                        50.0004
        38.0004
 -24080949.35548 -18750010.26247
                  20734404.8204                                   20734400.5634
                                                                        53.0004
        42.2504
  -6343236.05947  -4913200.05144
                  22348095.8284                                   22348091.7344
                                                                        44.5004
        29.0004
 -27807551.04348 -21652831.93046
                  20332209.4924                                   20332206.1024
                                                                        51.5004
        41.0004
 -12187185.70347  -9461374.45745
                  22384321.9454                                   22384318.0204
                                                                        45.0004
        30.5004
  -2188116.98846  -1674637.27044
                  23430750.0314                                   23430746.5164
                                                                        41.0004
        26.2504
  -5382885.21147  -4157850.57845
                  22743666.8834                                   22743662.3164
                                                                        44.0004
        30.0004
 09 10 16  1 16 30.0000000  0  8G02G29G05G13G10G25G16G07
  -3098906.61747  -2389076.00446
                  21844105.5864                                   21844099.7774
                                                                        47.5004
        36.0004
 -21120339.43448 -16442984.84446
                  21957044.1644                                   21957041.3054
                                                                        50.0004
        38.2504
 -24200240.59048 -18842964.46947
                  20711704.0474                                   20711700.0514
                                                                        52.2504
        42.5004
  -6334215.73047  -4906171.21944
                  22349812.3284                                   22349808.4964
                                                                        44.5004
        28.5004
 -27905063.29748 -21728815.49646
                  20313653.4924                                   20313649.9964
                                                                        51.2504
        41.0004
 -12262561.89147  -9520109.14845
                  22369978.1414                                   22369974.1524
                                                                        44.5004
        30.0004
  -2267607.84046  -1736578.21144
                  23415623.7504                                   23415619.6724
                                                                        41.7504
        25.0004
  -5516037.61747  -4261605.69145
                  22718328.6644                                   22718324.5314
                                                                        44.0004
        30.0004
