     2.11           OBSERVATION DATA    G (GPS)             RINEX VERSION / TYPE
teqc  2019Feb25                         20221121 12:28:10UTCPGM / RUN BY / DATE
OSX ker:10.11.6|Core i5|gcc 4.3 -m64|OSX ker:10.10+|=+      COMMENT
BIT 2 OF LLI FLAGS DATA COLLECTED UNDER A/S CONDITION       COMMENT
04712821                                                    MARKER NAME
2821                                                        MARKER NUMBER
-Unknown-           -Unknown-                               OBSERVER / AGENCY
0220400471          TRIMBLE R7          2.30                REC # / TYPE / VERS
-Unknown-           TRM39105.00     NONE                    ANT # / TYPE
  1449460.7878 -1709240.5840  5952443.2521                  APPROX POSITION XYZ
        0.0000        0.0000        0.0000                  ANTENNA: DELTA H/E/N
     1     1                                                WAVELENGTH FACT L1/2
    20    L1    L2    L5    L6    L7    L8    C1    P1    C2# / TYPES OF OBSERV
          P2    C5    C6    C7    C8    S1    S2    S5    S6# / TYPES OF OBSERV
          S7    S8                                          # / TYPES OF OBSERV
    30.0000                                                 INTERVAL
    15                                                      LEAP SECONDS
Forced Modulo Decimation to 30 seconds                      COMMENT
 SNR is mapped to RINEX snr flag value [0-9]                COMMENT
  L1 & L2: min(max(int(snr_dBHz/6), 0), 9)                  COMMENT
teqc edited: Beidou # 1 - 37 excluded                       COMMENT
  2009    10     9    23    10    0.0000000     GPS         TIME OF FIRST OBS
                                                            END OF HEADER
 09 10  9 23 10  0.0000000  0  8G02G04G12G13G20G23G30G31
   -263983.73458   -136198.34856
                  21465887.6564                                   21465882.1954
                                                                        53.0004
        41.5004
   -132342.74658    -71590.38757
                  20594690.6414                                   20594687.4574
                                                                        51.0004
        42.2504
    -39033.62157    -21262.38355
                  23281311.0944                                   23281306.8634
                                                                        45.7504
        33.0004
   -300964.87557   -155933.16055
                  22799826.0634                                   22799822.2304
                                                                        47.5004
        30.7504
     17679.48456      6612.44554
                  23477600.6484                                   23477596.5824
                                                                        41.5004
        25.2504
   -176754.25058    -91806.69155
                  21920430.7034                                   21920424.2814
                                                                        48.5004
        35.5004
   -128379.31657    -66792.41855
                  22586526.7344                                   22586524.3404
                                                                        46.2504
        32.0004
   -133721.66057    -69534.02354
                  23704476.9614                                   23704472.5004
                                                                        42.5004
        28.2504
 09 10  9 23 10 30.0000000  0  8G02G04G12G13G20G23G30G31
   -428374.02348   -264294.67646
                  21434605.3134                                   21434599.5084
                                                                        53.0004
        41.0004
   -216418.07048   -137103.62947
                  20578691.4534                                   20578688.2734
                                                                        51.5004
        42.5004
    -66001.96947    -42276.68745
                  23276179.2584                                   23276175.0634
                                                                        46.5004
        33.0004
   -487952.36348   -301637.68445
                  22764243.4924                                   22764239.6334
                                                                        48.0004
        31.0004
     25566.29346     12757.96144
                  23479101.3284                                   23479096.9344
                                                                        41.5004
        25.7504
   -288029.66848   -178514.81245
                  21899256.0634                                   21899249.7154
                                                                        49.5004
        35.5004
   -209591.43447   -130074.60245
                  22571072.3834                                   22571069.7384
                                                                        47.5004
        31.0004
   -218284.09847   -135426.84444
                  23688385.2664                                   23688380.8284
                                                                        43.5004
        28.0004
 09 10  9 23 11  0.0000000  0  8G02G04G12G13G20G23G30G31
   -593099.85548   -392652.46546
                  21403259.0164                                   21403253.2934
                                                                        53.0004
        40.7504
   -300678.87148   -202761.39547
                  20562657.1414                                   20562653.9804
                                                                        51.5004
        42.0004
    -93249.48847    -63508.53145
                  23270993.9304                                   23270990.0394
                                                                        46.5004
        33.7504
   -675283.96147   -447610.36345
                  22728595.3364                                   22728591.8524
                                                                        46.2504
        30.5004
     32948.56346     18510.38744
                  23480506.5474                                   23480501.6884
                                                                        41.5004
        24.0004
   -399428.31248   -265318.96945
                  21878057.4064                                   21878051.2304
                                                                        49.2504
        35.0004
   -290879.59447   -193416.02345
                  22555603.5314                                   22555601.3204
                                                                        47.0004
        31.7504
   -303000.46547   -201439.61744
                  23672263.9454                                   23672259.7934
                                                                        43.2504
        29.2504
 09 10  9 23 11 30.0000000  0  8G02G04G12G13G20G23G30G31
   -757870.99648   -521045.56646
                  21371904.1484                                   21371898.8754
                                                                        53.5004
        41.5004
   -384837.17248   -268339.27047
                  20546642.4614                                   20546638.8754
                                                                        50.0004
        42.5004
   -120490.73847    -84735.50045
                  23265810.3204                                   23265806.2424
                                                                        46.5004
        33.2504
   -862668.04747   -593623.91045
                  22692937.5864                                   22692933.6334
                                                                        47.2504
        30.0004
     40112.59446     24092.73843
                  23481869.4924                                   23481865.0944
                                                                        40.7504
        22.7504
   -510661.19548   -351993.94945
                  21856890.2114                                   21856884.4844
                                                                        49.5004
        35.2504
   -371956.23447   -256592.63345
                  22540175.5944                                   22540172.6374
                                                                        43.0004
        30.5004
   -387582.68447   -267347.84844
                  23656168.7034                                   23656164.6174
                                                                        43.2504
        29.0004
 09 10  9 23 12  0.0000000  0  8G02G04G12G13G20G23G30G31
   -922538.14848   -649357.63746
                  21340568.7114                                   21340563.1804
                                                                        53.0004
        40.5004
   -468745.94948   -333722.73847
                  20530675.0004                                   20530671.8524
                                                                        52.2504
        42.5004
   -147580.05547   -105844.06645
                  23260655.0864                                   23260651.8204
                                                                        46.7504
        33.5004
  -1049954.80547   -739561.65245
                  22657298.0164                                   22657293.8094
                                                                        47.0004
        30.7504
     47203.09446     29617.81343
                  23483218.3984                                   23483214.1724
                                                                        40.5004
        22.5004
   -621580.77048   -438424.80146
                  21835783.1954                                   21835777.2774
                                                                        49.5004
        36.0004
   -452674.64147   -319490.11345
                  22524815.4144                                   22524812.3674
                                                                        47.5004
        31.0004
   -471883.85947   -333037.08244
                  23640126.8364                                   23640122.5824
                                                                        43.7504
        28.5004
 09 10  9 23 12 30.0000000  0  8G02G04G12G13G20G23G30G31
  -1087010.86348   -777518.19146
                  21309270.4064                                   21309265.2304
                                                                        52.5004
        41.2504
   -552316.87148   -398842.93047
                  20514772.0394                                   20514768.7814
                                                                        52.5004
        42.0004
   -174432.04747   -126767.72745
                  23255545.7814                                   23255541.8284
                                                                        45.5004
        33.2504
  -1237052.47747   -885352.08245
                  22621695.0084                                   22621690.6094
                                                                        46.2504
        30.7504
     54306.64546     35153.00843
                  23484569.6954                                   23484566.1334
                                                                        39.5004
        22.5004
   -732097.55548   -524541.77746
                  21814752.3134                                   21814746.3164
                                                                        49.5004
        36.0004
   -532946.99647   -382040.00445
                  22509539.7034                                   22509537.3134
                                                                        47.2504
        30.7504
   -555815.89547   -398438.68745
                  23624155.0554                                   23624151.1174
                                                                        44.2504
        30.2504
 09 10  9 23 13  0.0000000  0  8G02G04G12G13G20G23G30G31
  -1251224.47748   -905476.84846
                  21278021.8914                                   21278016.4964
                                                                        52.0004
        41.5004
   -635487.76248   -463651.42247
                  20498944.9844                                   20498941.3714
                                                                        51.2504
        42.7504
   -200985.98447   -147459.12145
                  23250492.4304                                   23250488.8094
                                                                        46.5004
        33.5004
  -1423895.64547  -1030944.19945
                  22586139.1804                                   22586135.3324
                                                                        47.0004
        30.2504
     61483.55146     40745.36744
                  23485936.2664                                   23485931.9454
                                                                        41.5004
        25.7504
   -842148.44947   -610295.73845
                  21793810.8524                                   21793804.5434
                                                                        47.5004
        35.2504
   -612711.25047   -444193.97745
                  22494361.3914                                   22494358.3364
                                                                        47.5004
        31.0004
   -639316.05147   -463503.75845
                  23608265.6174                                   23608261.6884
                                                                        44.0004
        30.0004
 09 10  9 23 13 30.0000000  0  8G02G04G12G13G20G23G30G31
  -1415137.58648  -1033201.34046
                  21246830.1644                                   21246824.5044
                                                                        51.7504
        40.5004
   -718219.53948   -528117.74647
                  20483201.6954                                   20483198.2304
                                                                        52.0004
        42.0004
   -227204.91047   -167889.47745
                  23245502.9924                                   23245499.5784
                                                                        45.7504
        34.2504
  -1610441.87947  -1176304.93445
                  22550641.5234                                   22550636.8134
                                                                        47.2504
        30.7504
     68770.46946     46423.45744
                  23487322.8364                                   23487318.5784
                                                                        41.7504
        25.7504
   -951693.71948   -695655.71145
                  21772965.1954                                   21772958.6334
                                                                        49.5004
        35.5004
   -691929.11747   -505922.18745
                  22479286.5084                                   22479283.7934
                                                                        47.0004
        31.5004
   -722346.05147   -528202.48844
                  23592465.7194                                   23592461.4884
                                                                        44.5004
        29.0004
 09 10  9 23 14  0.0000000  0  8G02G04G12G13G20G23G30G31
  -1578726.07848  -1160672.89146
                  21215700.4614                                   21215695.0784
                                                                        52.5004
        41.0004
   -800490.12148   -592224.68747
                  20467546.3054                                   20467543.0864
                                                                        52.2504
        42.2504
   -253069.06247   -188043.37545
                  23240581.5784                                   23240577.9024
                                                                        45.7504
        33.5004
  -1796665.48047  -1321414.18445
                  22515203.8674                                   22515200.2034
                                                                        46.5004
        32.0004
     76188.24647     52203.52344
                  23488734.8594                                   23488730.2034
                                                                        43.7504
        25.2504
  -1060709.78148   -780603.30945
                  21752219.7664                                   21752213.5394
                                                                        50.0004
        35.7504
   -770578.62547   -567207.53945
                  22464320.2034                                   22464317.3714
                                                                        47.0004
        30.7504
   -804883.43047   -592517.35944
                  23576759.2034                                   23576755.1374
                                                                        44.2504
        29.0004
 09 10  9 23 14 30.0000000  0  8G02G04G12G13G20G23G30G31
  -1741957.41448  -1287866.14146
                  21184638.6954                                   21184633.0204
                                                                        52.5004
        41.0004
   -882269.30948   -655948.74247
                  20451984.1564                                   20451980.7934
                                                                        52.7504
        42.2504
   -278549.96147   -207898.63345
                  23235732.7664                                   23235728.7074
                                                                        47.0004
        34.0004
  -1982533.18047  -1466246.10545
                  22479834.3364                                   22479830.1684
                                                                        47.0004
        32.2504
     83764.91047     58107.41043
                  23490175.6174                                   23490171.9494
                                                                        42.5004
        22.7504
  -1169165.78148   -865114.48445
                  21731581.1644                                   21731575.0044
                                                                        50.0004
        35.5004
   -848629.67647   -628026.54345
                  22449467.2274                                   22449464.7424
                                                                        47.7504
        30.2504
   -886897.99247   -656424.81644
                  23561152.0784                                   23561147.9304
                                                                        43.2504
        28.5004
 09 10  9 23 15  0.0000000  0  8G02G04G12G13G20G23G30G31
  -1904810.46948  -1414764.62546
                  21153648.5314                                   21153643.0984
                                                                        52.5004
        41.5004
   -963538.73048   -719275.56647
                  20436518.9614                                   20436515.9384
                                                                        52.2504
        42.2504
   -303631.41047   -227442.62145
                  23230959.9304                                   23230956.1954
                                                                        46.5004
        33.0004
  -2168023.05147  -1610783.66045
                  22444536.6174                                   22444532.9884
                                                                        47.2504
        31.0004
     91516.98846     64147.95343
                  23491651.0784                                   23491647.3204
                                                                        39.2504
        21.5004
  -1277042.32448   -949174.13345
                  21711053.0004                                   21711047.0124
                                                                        50.0004
        35.7504
   -926064.63347   -688365.46945
                  22434732.0234                                   22434729.0904
                                                                        45.2504
        30.5004
   -968371.77747   -719910.90244
                  23545647.7194                                   23545644.6524
                                                                        43.2504
        29.0004
 09 10  9 23 15 30.0000000  0  8G02G04G12G13G20G23G30G31
  -2067266.09448  -1541353.42646
                  21122734.4064                                   21122728.8244
                                                                        52.0004
        41.0004
  -1044281.22348   -782191.78947
                  20421154.2814                                   20421150.9654
                                                                        51.0004
        42.2504
   -328298.30547   -246663.59445
                  23226265.9304                                   23226261.8794
                                                                        47.2504
        32.7504
  -2353114.78547  -1755010.95345
                  22409314.8364                                   22409311.0124
                                                                        47.5004
        30.2504
     99459.59846     70336.99243
                  23493162.1094                                   23493157.7194
                                                                        38.7504
        21.0004
  -1384321.53548  -1032768.35245
                  21690638.6334                                   21690632.1254
                                                                        48.0004
        35.5004
  -1002866.90247   -748211.40245
                  22420117.6804                                   22420114.1454
                                                                        47.0004
        30.2504
  -1049287.65247   -782962.24244
                  23530249.7974                                   23530246.6914
                                                                        43.0004
        27.5004
 09 10  9 23 16  0.0000000  0  8G02G04G12G13G20G23G30G31
  -2229307.65248  -1667619.57046
                  21091899.0084                                   21091893.1094
                                                                        52.2504
        41.7504
  -1124482.64148   -844686.39547
                  20405892.3204                                   20405889.4144
                                                                        52.5004
        42.0004
   -352538.05947   -265551.71945
                  23221653.1724                                   23221649.0704
                                                                        46.7504
        32.2504
  -2537791.00847  -1898914.50045
                  22374172.3834                                   22374168.5744
                                                                        47.2504
        31.5004
    107604.93446     76683.98043
                  23494712.4384                                   23494708.0514
                                                                        39.0004
        21.5004
  -1490988.58648  -1115885.53545
                  21670340.7424                                   21670334.4184
                                                                        50.2504
        35.7504
  -1079022.35247   -807553.30945
                  22405625.4144                                   22405622.4614
                                                                        47.0004
        31.2504
  -1129631.59047   -845567.92244
                  23514961.6094                                   23514957.6454
                                                                        42.0004
        29.0004
 09 10  9 23 16 30.0000000  0  8G02G04G12G13G20G23G30G31
   -815499.57048   -565950.94146
                  21360937.5084                                   21360931.7624
                                                                        52.2504
        41.5004
    371287.31648    320848.64146
                  20690527.9304                                   20690524.4384
                                                                        53.0004
        41.7504
   1199075.20747    943497.57045
                  23516915.4694                                   23516911.2734
                                                                        46.7504
        31.5004
  -1146614.55547   -814880.88745
                  22638904.5704                                   22638900.0984
                                                                        47.5004
        30.7504
   1691378.91446   1310793.57844
                  23796095.2894                                   23796090.8674
                                                                        40.5004
        24.5004
    -21611.25048     29083.81646
                  21949953.8204                                   21949947.5474
                                                                        49.5004
        36.0004
    420898.75847    361216.37545
                  22691051.0474                                   22691047.7664
                                                                        46.5004
        30.0004
    366026.81347    319880.16844
                  23799575.6724                                   23799571.9344
                                                                        43.0004
        27.7504
 09 10  9 23 17  0.0000000  0  8G02G04G12G13G20G23G30G31
   -976679.09048   -691545.37546
                  21330266.2974                                   21330260.6724
                                                                        51.5004
        41.5004
    292195.14148    259218.37547
                  20675477.1644                                   20675473.8634
                                                                        51.7504
        42.0004
   1175709.71147    925290.69545
                  23512469.3364                                   23512464.7234
                                                                        46.0004
        31.7504
  -1330422.48047   -958107.85245
                  22603926.7814                                   22603923.2424
                                                                        47.5004
        32.2504
   1699952.11746   1317473.97344
                  23797726.1094                                   23797722.3874
                                                                        40.7504
        26.0004
   -127023.82848    -53055.86745
                  21929894.3364                                   21929888.1334
                                                                        50.2504
        35.5004
    346062.30547    302902.25045
                  22676810.2034                                   22676807.3014
                                                                        44.5004
        30.0004
    286853.61347    258186.76644
                  23784509.3054                                   23784505.8914
                                                                        43.5004
        27.5004
 09 10  9 23 17 30.0000000  0  8G02G04G12G13G20G23G30G31
  -1137410.51248   -816790.64146
                  21299679.9144                                   21299674.5824
                                                                        51.0004
        41.2504
    213670.94548    198030.69147
                  20660534.4614                                   20660531.0474
                                                                        51.5004
        42.0004
   1152792.06647    907432.78545
                  23508107.7664                                   23508104.1094
                                                                        46.7504
        31.2504
  -1513778.02047  -1100982.29345
                  22569034.9224                                   22569031.5554
                                                                        47.5004
        31.7504
   1708749.72347   1324329.22344
                  23799400.6484                                   23799396.2934
                                                                        42.0004
        25.5004
   -231794.63748   -134695.47345
                  21909957.1644                                   21909951.0784
                                                                        49.2504
        35.7504
    271898.32047    245112.13745
                  22662697.2114                                   22662694.1524
                                                                        44.5004
        30.7504
    208279.10947    196959.87144
                  23769557.4064                                   23769553.5234
                                                                        43.0004
        28.5004
 09 10  9 23 18  0.0000000  0  8G02G04G12G13G20G23G30G31
  -1297685.09448   -941679.93046
                  21269180.5634                                   21269175.2934
                                                                        51.5004
        41.0004
    135720.88748    137290.38747
                  20645701.0474                                   20645697.4654
                                                                        53.0004
        42.5004
   1130326.23047    889926.92245
                  23503832.3134                                   23503829.4304
                                                                        46.5004
        32.5004
  -1696671.23847  -1243496.47745
                  22534231.9384                                   22534228.0434
                                                                        47.2504
        31.7504
   1717776.20746   1331362.81644
                  23801117.9144                                   23801114.5084
                                                                        40.7504
        24.2504
   -335916.58648   -215829.47345
                  21890143.1484                                   21890137.2384
                                                                        48.5004
        35.5004
    198412.42247    187850.39345
                  22648713.2114                                   22648709.9964
                                                                        46.7504
        31.0004
    130309.05147    136203.91444
                  23754719.9614                                   23754716.8134
                                                                        43.5004
        28.7504
 09 10  9 23 18 30.0000000  0  8G02G04G12G13G20G23G30G31
  -1457495.34048  -1066207.38347
                  21238769.6414                                   21238764.3244
                                                                        51.2504
        42.0004
     58350.60248     77001.84846
                  20630977.9224                                   20630974.7344
                                                                        52.5004
        41.7504
   1108315.74247    872775.86345
                  23499644.4844                                   23499640.5744
                                                                        46.5004
        33.2504
  -1879093.29348  -1385643.47745
                  22499518.4144                                   22499513.8014
                                                                        48.0004
        32.5004
   1727035.42246   1338577.75043
                  23802879.8284                                   23802876.0004
                                                                        39.2504
        21.7504
   -439383.09848   -296452.73845
                  21870454.2274                                   21870448.2384
                                                                        48.5004
        35.5004
    125609.50047    131120.84845
                  22634859.0704                                   22634855.6414
                                                                        46.7504
        30.5004
     52948.87947     75923.25844
                  23739998.8594                                   23739994.7384
                                                                        43.0004
        28.5004
 09 10  9 23 19  0.0000000  0  8G02G04G12G13G20G23G30G31
  -1616833.39148  -1190366.90247
                  21208448.7194                                   21208443.5354
                                                                        50.7504
        42.0004
    -18434.96148     17168.93846
                  20616366.1484                                   20616363.1214
                                                                        53.5004
        41.7504
   1086763.74647    855982.09045
                  23495543.3914                                   23495539.7074
                                                                        47.7504
        33.5004
  -2061036.07448  -1527417.05545
                  22464895.5634                                   22464891.2274
                                                                        48.0004
        31.5004
   1736530.87946   1345976.76643
                  23804686.4694                                   23804682.6724
                                                                        39.0004
        20.0004
   -542188.56248   -376560.91445
                  21850891.2274                                   21850885.1844
                                                                        48.7504
        35.5004
     53494.28947     74927.17245
                  22621136.2114                                   22621133.1254
                                                                        45.5004
        30.5004
    -23796.21147     16121.90644
                  23725394.3914                                   23725391.0474
                                                                        44.0004
        28.0004
 09 10  9 23 19 30.0000000  0  8G02G04G12G13G20G23G30G31
  -1775689.55948  -1314150.93746
                  21178219.4224                                   21178213.8954
                                                                        51.0004
        41.2504
    -94628.28948    -42202.48047
                  20601867.0634                                   20601864.0784
                                                                        52.7504
        42.5004
   1065675.54748    839549.68445
                  23491530.7274                                   23491526.9774
                                                                        48.0004
        33.2504
  -2242488.64548  -1668808.65245
                  22430365.9774                                   22430362.1914
                                                                        48.0004
        31.5004
   1746268.17246   1353564.27043
                  23806539.2504                                   23806535.4104
                                                                        40.5004
        19.5004
   -644324.76647   -456147.56245
                  21831455.2424                                   21831449.1764
                                                                        47.7504
        35.5004
    -17926.27747     19274.76645
                  22607545.5784                                   22607542.4494
                                                                        45.5004
        30.7504
    -99919.33647    -43194.83244
                  23710908.9454                                   23710905.1804
                                                                        43.5004
        28.7504
 09 10  9 23 20  0.0000000  0  8G02G04G12G13G20G23G30G31
  -1934056.58648  -1437553.82446
                  21148083.6094                                   21148078.1214
                                                                        52.0004
        41.7504
   -170224.43048   -101108.55947
                  20587481.6954                                   20587478.5124
                                                                        53.5004
        42.5004
   1045054.48048    823481.32445
                  23487606.5084                                   23487602.8674
                                                                        49.0004
        34.0004
  -2423442.23047  -1809811.43045
                  22395932.1884                                   22395928.0704
                                                                        47.5004
        32.0004
   1756250.79747   1361342.96943
                  23808439.4614                                   23808435.0044
                                                                        43.5004
        22.0004
   -745785.57048   -535207.93745
                  21812147.8834                                   21812141.4924
                                                                        49.2504
        35.7504
    -88647.57447    -35832.73845
                  22594087.8984                                   22594084.2504
                                                                        45.2504
        31.0004
   -175415.12547   -102022.72744
                  23696542.9454                                   23696539.3244
                                                                        44.7504
        29.0004
 09 10  9 23 20 30.0000000  0  8G02G04G12G13G20G23G30G31
  -2091934.65248  -1560575.69146
                  21118040.1644                                   21118034.9574
                                                                        51.5004
        41.5004
   -245226.12948   -159551.44547
                  20573209.2894                                   20573206.1254
                                                                        53.7504
        42.0004
   1024895.37147    807772.91845
                  23483769.9064                                   23483766.5744
                                                                        47.5004
        32.5004
  -2603896.75048  -1950425.31245
                  22361592.2504                                   22361588.9884
                                                                        48.2504
        31.5004
   1766473.78547   1369308.93444
                  23810385.4454                                   23810381.4104
                                                                        43.7504
        24.0004
   -846573.46548   -613743.95746
                  21792968.4694                                   21792962.3164
                                                                        49.0004
        36.0004
   -158673.37947    -90398.31245
                  22580762.0474                                   22580758.1804
                                                                        46.2504
        30.5004
   -250287.04747   -160364.48844
                  23682295.2894                                   23682291.5474
                                                                        44.5004
        29.5004
 09 10  9 23 21  0.0000000  0  8G02G04G12G13G20G23G30G31
  -2249318.79748  -1683212.68447
                  21088090.9774                                   21088085.6994
                                                                        51.7504
        42.0004
   -319630.97348   -217529.24246
                  20559050.7114                                   20559047.3594
                                                                        53.5004
        41.7504
   1005198.93447    792425.05145
                  23480021.7344                                   23480017.8204
                                                                        47.5004
        32.2504
  -2783846.02348  -2090645.51245
                  22327349.3444                                   22327345.6454
                                                                        49.0004
        32.2504
   1776938.32847   1377463.09044
                  23812376.9774                                   23812373.1764
                                                                        45.0004
        26.0004
   -946684.97348   -691752.93045
                  21773918.1024                                   21773912.0864
                                                                        49.0004
        35.5004
   -228001.75447   -144420.41045
                  22567569.6644                                   22567566.0784
                                                                        45.2504
        31.0004
   -324532.82847   -218218.34444
                  23668167.0394                                   23668162.3554
                                                                        44.5004
        29.5004
 09 10  9 23 21 30.0000000  0  8G02G04G12G13G20G23G30G31
  -2406204.22348  -1805461.06646
                  21058236.3914                                   21058231.1454
                                                                        50.7504
        41.7504
   -393436.55148   -275040.08647
                  20545005.9304                                   20545002.7464
                                                                        53.7504
        42.5004
    985965.50847    777437.97345
                  23476361.9304                                   23476358.5084
                                                                        47.7504
        32.5004
  -2963284.22348  -2230467.46945
                  22293203.3284                                   22293198.9964
                                                                        48.5004
        32.2504
   1787645.43047   1385806.26243
                  23814413.9454                                   23814410.1644
                                                                        42.0004
        22.2504
  -1046116.82447   -769232.30546
                  21754996.7814                                   21754991.0124
                                                                        47.5004
        36.5004
   -296630.76647   -197897.56645
                  22554509.5394                                   22554506.5354
                                                                        45.5004
        30.0004
   -398149.92247   -275582.30944
                  23654157.9224                                   23654154.3284
                                                                        44.5004
        28.2504
 09 10  9 23 22  0.0000000  0  8G02G04G12G13G20G23G30G31
  -2562588.98048  -1927319.31246
                  21028477.4384                                   21028472.3094
                                                                        51.5004
        41.7504
   -466643.36748   -332084.36347
                  20531075.1484                                   20531072.0474
                                                                        52.7504
        42.5004
    967192.46947    762809.61345
                  23472789.6094                                   23472785.9454
                                                                        47.0004
        31.5004
  -3142208.91847  -2369889.31645
                  22259154.9534                                   22259151.2664
                                                                        47.7504
        32.5004
   1798592.59846   1394336.41443
                  23816495.5234                                   23816493.4804
                                                                        38.5004
        19.2504
  -1144868.85548   -846181.93045
                  21736205.0704                                   21736198.7154
                                                                        49.2504
        35.5004
   -364561.36347   -250830.50445
                  22541582.9454                                   22541579.4384
                                                                        44.5004
        31.0004
   -471139.17247   -332457.04744
                  23640268.6484                                   23640264.2424
                                                                        45.0004
        29.5004
 09 10  9 23 22 30.0000000  0  8G02G04G12G13G20G23G30G31
  -2718469.04748  -2048784.29347
                  20998814.3134                                   20998808.7814
                                                                        52.0004
        42.0004
   -539249.66448   -388660.68747
                  20517258.5164                                   20517255.6094
                                                                        53.5004
        42.0004
    948880.11347    748540.21145
                  23469304.6724                                   23469301.2734
                                                                        47.0004
        30.5004
  -3320614.60948  -2508906.69545
                  22225205.2114                                   22225201.2814
                                                                        48.0004
        32.0004
   1809779.76646   1403053.66843
                  23818626.0234                                   23818622.2464
                                                                        41.2504
        21.5004
  -1242938.63748   -922599.94146
                  21717542.7504                                   21717537.0394
                                                                        48.5004
        36.0004
   -431792.18447   -303218.15645
                  22528789.6804                                   22528786.4534
                                                                        45.7504
        30.2504
   -543499.29347   -388841.56644
                  23626499.3594                                   23626494.9614
                                                                        44.5004
        28.2504
 09 10  9 23 23  0.0000000  0  8G02G04G12G13G20G23G30G31
  -2873841.86348  -2169854.01646
                  20969248.2894                                   20969242.7544
                                                                        51.7504
        41.5004
   -611255.42248   -444769.07047
                  20503556.0314                                   20503552.8364
                                                                        53.5004
        42.0004
    931025.59447    734627.59045
                  23465907.5634                                   23465903.7154
                                                                        47.5004
        30.7504
  -3498497.61347  -2647516.79345
                  22191355.7584                                   22191351.4344
                                                                        47.7504
        32.5004
   1821206.05947   1411957.24243
                  23820800.2504                                   23820796.2854
                                                                        42.5004
        22.0004
  -1340324.95348   -998485.38746
                  21699010.7734                                   21699004.8204
                                                                        48.7504
        36.0004
   -498324.24647   -355061.33645
                  22516128.5234                                   22516125.6374
                                                                        45.7504
        31.5004
   -615230.21547   -444735.80544
                  23612849.0704                                   23612844.8324
                                                                        44.0004
        28.2504
 09 10  9 23 23 30.0000000  0  8G02G04G12G13G20G23G30G31
  -3028705.13348  -2290526.68447
                  20939778.3284                                   20939772.9224
                                                                        51.7504
        42.0004
   -682661.00848   -500409.78947
                  20489968.1564                                   20489964.9804
                                                                        52.7504
        42.0004
    913627.75047    721070.83645
                  23462596.8364                                   23462592.7424
                                                                        47.7504
        32.2504
  -3675855.08648  -2785717.42245
                  22157605.6414                                   22157601.3714
                                                                        48.7504
        31.7504
   1832869.05947   1421045.26243
                  23823019.8674                                   23823015.3984
                                                                        44.0004
        22.2504
  -1437028.10248  -1073838.48845
                  21680608.6954                                   21680602.9654
                                                                        48.7504
        35.0004
   -564157.99647   -406360.35945
                  22503600.4694                                   22503597.9304
                                                                        45.0004
        30.0004
   -686332.60947   -500140.28544
                  23599318.3134                                   23599314.8244
                                                                        45.0004
        28.5004
 09 10  9 23 24  0.0000000  0  8G02G04G12G13G20G23G30G31
  -3183055.41448  -2410799.62947
                  20910406.7034                                   20910401.3914
                                                                        52.0004
        42.2504
   -753465.46548   -555582.09447
                  20476494.5234                                   20476491.5634
                                                                        53.2504
        42.0004
    896685.32447    707868.91445
                  23459372.5944                                   23459368.7274
                                                                        47.7504
        32.5004
  -3852682.43448  -2923504.92645
                  22123956.4694                                   22123952.2304
                                                                        48.7504
        32.0004
   1844768.59046   1430317.66843
                  23825284.0474                                   23825279.7544
                                                                        41.2504
        21.0004
  -1533045.71148  -1148657.38345
                  21662337.2894                                   21662331.2304
                                                                        48.0004
        35.5004
   -629293.22747   -457115.09445
                  22491205.7974                                   22491203.2584
                                                                        45.0004
        31.0004
   -756805.50047   -555054.23444
                  23585908.0164                                   23585904.0634
                                                                        44.5004
        28.7504
 09 10  9 23 24 30.0000000  0  8G02G04G12G13G20G23G30G31
  -3336888.64848  -2530669.67646
                  20881133.0784                                   20881127.6564
                                                                        52.0004
        41.7504
   -823667.23048   -610284.77047
                  20463135.6644                                   20463132.4224
                                                                        53.2504
        42.2504
    880197.88347    695021.55945
                  23456235.8054                                   23456231.0944
                                                                        47.5004
        32.5004
  -4028975.44148  -3060876.06645
                  22090408.7814                                   22090404.3524
                                                                        48.5004
        32.5004
   1856904.49646   1439774.18043
                  23827592.8984                                   23827589.7774
                                                                        39.5004
        20.7504
  -1628376.24648  -1222940.90645
                  21644196.6334                                   21644190.5004
                                                                        49.0004
        35.7504
   -693728.79747   -507324.64544
                  22478944.3134                                   22478941.1994
                                                                        45.5004
        29.7504
   -826647.58247   -609476.64844
                  23572617.7814                                   23572613.7194
                                                                        44.5004
        29.0004
 09 10  9 23 25  0.0000000  0  8G02G04G12G13G20G23G30G31
  -1914775.77048  -1422529.77047
                  21151752.2814                                   21151746.4454
                                                                        52.0004
        42.0004
    682157.71548    563085.31647
                  20749684.4774                                   20749681.4734
                                                                        53.0004
        42.0004
   2439584.94547   1910128.35245
                  23752977.4064                                   23752973.2154
                                                                        47.0004
        33.0004
  -2629302.30148  -1970221.66445
                  22356757.7034                                   22356753.4264
                                                                        48.7504
        32.5004
   3444696.70746   2677014.80943
                  24129739.4304                                   24129736.2774
                                                                        39.0004
        20.7504
   -147593.48048    -69084.21145
                  21925980.1484                                   21925974.3164
                                                                        49.0004
        35.5004
    817957.71147    670612.88345
                  22766608.6024                                   22766605.9414
                                                                        44.5004
        30.5004
    679564.55547    564195.14144
                  23859240.3674                                   23859236.0784
                                                                        45.0004
        28.5004
 09 10  9 23 25 30.0000000  0  8G02G04G12G13G20G23G30G31
  -2067567.72348  -1541588.43747
                  21122676.7344                                   21122671.1214
                                                                        52.0004
        42.0004
    613160.88748    509321.55947
                  20736554.7664                                   20736552.0554
                                                                        52.7504
        42.5004
   2424000.75447   1897984.82045
                  23750010.8914                                   23750007.4414
                                                                        47.0004
        31.7504
  -2804515.49248  -2106751.38745
                  22323415.7734                                   22323411.7424
                                                                        48.0004
        32.0004
   3457300.59846   2686836.01643
                  24132138.5084                                   24132135.3324
                                                                        41.0004
        21.7504
   -241547.21948   -142294.93045
                  21908101.0004                                   21908095.4614
                                                                        49.2504
        35.5004
    754918.47747    621491.39145
                  22754612.6254                                   22754609.9654
                                                                        45.5004
        31.2504
    610982.52747    510754.60244
                  23846189.5164                                   23846185.4064
                                                                        43.7504
        28.5004
 09 10  9 23 26  0.0000000  0  8G02G04G12G13G20G23G30G31
  -2219836.56248  -1660239.47747
                  21093701.1484                                   21093695.7034
                                                                        51.5004
        42.2504
    544765.58648    456026.52047
                  20723539.5084                                   20723536.3954
                                                                        52.7504
        42.5004
   2408864.35947   1886190.19945
                  23747130.4614                                   23747127.6214
                                                                        45.7504
        31.5004
  -2979184.79348  -2242857.32045
                  22290176.8204                                   22290173.4184
                                                                        48.5004
        32.5004
   3470135.27746   2696837.02343
                  24134581.1174                                   24134577.5704
                                                                        40.0004
        22.0004
   -334812.61348   -214969.27045
                  21890353.2274                                   21890347.0354
                                                                        49.0004
        35.7504
    692575.51647    572912.46145
                  22742749.2894                                   22742746.8834
                                                                        45.2504
        31.0004
    543029.30147    457804.02044
                  23833258.6804                                   23833254.2774
                                                                        45.0004
        27.7504
 09 10  9 23 26 30.0000000  0  8G02G04G12G13G20G23G30G31
  -2371588.46148  -1778487.71547
                  21064823.7734                                   21064817.8284
                                                                        52.0004
        42.2504
    476963.05148    403193.37147
                  20710637.0084                                   20710634.0164
                                                                        52.7504
        42.5004
   2394165.07047   1874736.16045
                  23744333.3364                                   23744330.3484
                                                                        46.0004
        31.0004
  -3153315.08648  -2378543.23445
                  22257041.6564                                   22257037.5634
                                                                        49.2504
        33.0004
   3483190.87146   2707010.20343
                  24137065.2584                                   24137062.0864
                                                                        39.5004
        21.2504
   -427397.59848   -287113.41446
                  21872735.4454                                   21872729.2504
                                                                        48.5004
        36.5004
    630919.21547    524868.58645
                  22731016.4064                                   22731013.8364
                                                                        45.0004
        30.5004
    475695.83647    405336.37544
                  23820444.6484                                   23820441.4494
                                                                        45.2504
        28.0004
 09 10  9 23 27  0.0000000  0  8G02G04G12G13G20G23G30G31
  -2522815.52748  -1896326.98047
                  21036046.2504                                   21036040.8594
                                                                        52.5004
        42.0004
    409758.27348    350826.00446
                  20697848.5234                                   20697845.4924
                                                                        52.5004
        41.7504
   2379906.17247   1863625.29345
                  23741620.0394                                   23741616.3874
                                                                        44.5004
        30.0004
  -3326898.20748  -2513802.78145
                  22224009.8914                                   22224005.5944
                                                                        49.5004
        33.0004
   3496470.69146   2717358.12943
                  24139592.6804                                   24139588.7154
                                                                        40.5004
        19.7504
   -519296.55948   -358722.99646
                  21855247.1884                                   21855241.2734
                                                                        48.7504
        36.2504
    569954.63347    477363.71545
                  22719415.6804                                   22719412.3674
                                                                        44.7504
        31.0004
    408987.13747    353355.56344
                  23807751.3444                                   23807746.7624
                                                                        44.7504
        27.2504
 09 10  9 23 27 30.0000000  0  8G02G04G12G13G20G23G30G31
  -2673514.51648  -2013754.76247
                  21007368.8834                                   21007363.7584
                                                                        52.7504
        42.0004
    343152.09448    298925.08647
                  20685174.0474                                   20685170.6884
                                                                        53.5004
        42.0004
   2366086.88347   1852857.00445
                  23738990.6414                                   23738986.4694
                                                                        46.2504
        30.5004
  -3499930.16048  -2648632.85945
                  22191082.5234                                   22191078.6414
                                                                        49.5004
        32.2504
   3509974.03146   2727880.24243
                  24142161.9454                                   24142158.6644
                                                                        40.7504
        20.7504
   -610507.94548   -429796.79745
                  21837890.2584                                   21837884.3324
                                                                        50.2504
        35.7504
    509681.61747    430397.73045
                  22707946.1334                                   22707942.5634
                                                                        45.7504
        30.2504
    342903.69147    301861.95744
                  23795176.0474                                   23795171.7544
                                                                        44.7504
        27.5004
 09 10  9 23 28  0.0000000  0  8G02G04G12G13G20G23G30G31
  -2823685.34448  -2130770.98047
                  20978792.3674                                   20978786.8594
                                                                        52.5004
        42.2504
    277142.16048    247488.77347
                  20672612.6024                                   20672609.9694
                                                                        53.2504
        42.5004
   2352702.75047   1842427.78945
                  23736443.7114                                   23736439.5004
                                                                        45.7504
        30.2504
  -3672409.48848  -2783032.31245
                  22158261.0234                                   22158256.9924
                                                                        49.5004
        32.5004
   3523697.59846   2738573.88343
                  24144773.5864                                   24144769.5744
                                                                        40.2504
        20.5004
   -701033.50848   -500336.18745
                  21820663.8134                                   21820657.7894
                                                                        49.5004
        35.0004
    450096.79747    383967.99645
                  22696607.0704                                   22696604.1054
                                                                        47.0004
        30.5004
    277442.45047    250853.21744
                  23782719.8134                                   23782714.4534
                                                                        44.2504
        26.2504
 09 10  9 23 28 30.0000000  0  8G02G04G12G13G20G23G30G31
  -2973326.38748  -2247374.38347
                  20950316.4844                                   20950310.9184
                                                                        52.2504
        42.0004
    211727.55948    196516.35246
                  20660164.7424                                   20660161.5784
                                                                        52.5004
        41.7504
   2339750.56647   1832335.16445
                  23733979.2034                                   23733975.1024
                                                                        46.2504
        30.0004
  -3844333.51648  -2916999.07045
                  22125544.7114                                   22125540.7584
                                                                        49.2504
        33.2504
   3537638.94546   2749437.26243
                  24147426.2974                                   24147423.1684
                                                                        40.2504
        21.2504
   -790873.31648   -570341.23445
                  21803567.4534                                   21803562.1334
                                                                        49.5004
        35.0004
    391198.35247    338073.09445
                  22685399.0944                                   22685395.8484
                                                                        45.5004
        31.0004
    212602.26247    200328.40244
                  23770380.5474                                   23770375.9454
                                                                        43.0004
        27.7504
 09 10  9 23 29  0.0000000  0  8G02G04G12G13G20G23G30G31
  -3122434.58648  -2363562.59047
                  20921942.4144                                   20921936.9614
                                                                        52.7504
        42.5004
    146908.91848    146008.31647
                  20647830.3284                                   20647827.1214
                                                                        53.5004
        42.0004
   2327229.60947   1822578.55545
                  23731596.2974                                   23731592.2814
                                                                        46.5004
        31.0004
  -4015699.07448  -3050530.67245
                  22092934.8984                                   22092930.8594
                                                                        49.7504
        32.7504
   3551797.00446   2760469.46543
                  24150120.2814                                   24150117.1524
                                                                        40.5004
        21.2504
   -880026.65648   -639811.39146
                  21786602.0474                                   21786596.2734
                                                                        50.7504
        36.0004
    332987.00047    292713.59045
                  22674321.8444                                   22674319.0744
                                                                        46.2504
        30.0004
    148383.71947    150287.99244
                  23758159.7504                                   23758155.7194
                                                                        44.5004
        27.5004
 09 10  9 23 29 30.0000000  0  8G02G04G12G13G20G23G30G31
  -3271008.32848  -2479334.33647
                  20893669.5394                                   20893664.1094
                                                                        52.5004
        42.2504
     82685.04748     95963.74247
                  20635608.4844                                   20635605.4454
                                                                        53.2504
        42.0004
   2315136.46147   1813155.32045
                  23729294.7114                                   23729291.0354
                                                                        45.7504
        30.5004
  -4186502.69548  -3183624.37545
                  22060432.1804                                   22060428.2274
                                                                        49.5004
        33.5004
   3566169.66446   2771668.94143
                  24152856.2894                                   24152852.5164
                                                                        41.7504
        22.7504
   -968493.62148   -708746.71145
                  21769768.1094                                   21769761.8484
                                                                        49.7504
        35.0004
    275460.17647    247887.48045
                  22663375.1484                                   22663371.8794
                                                                        45.0004
        31.2504
     84785.36747    100730.82044
                  23746057.4144                                   23746053.0664
                                                                        44.0004
        27.0004
 09 10  9 23 30  0.0000000  0  8G02G04G12G13G20G23G30G31
  -3419052.04348  -2594693.07847
                  20865497.7664                                   20865492.4774
                                                                        52.7504
        42.2504
     19049.09848     46377.28547
                  20623499.2504                                   20623495.6884
                                                                        53.5004
        42.0004
   2303463.17247   1804059.22345
                  23727073.4304                                   23727070.4534
                                                                        46.2504
        31.0004
  -4356748.68048  -3316283.57445
                  22028035.6254                                   22028031.1844
                                                                        49.7504
        33.0004
   3580748.54746   2783029.10543
                  24155629.9774                                   24155626.5944
                                                                        41.0004
        21.5004
  -1056280.64148   -777152.19145
                  21753062.6334                                   21753056.3444
                                                                        49.5004
        34.7504
    218611.14147    203589.52345
                  22652556.8834                                   22652554.3754
                                                                        45.7504
        30.5004
     21800.22747     51651.50444
                  23734071.9144                                   23734067.5164
                                                                        43.0004
        26.0004
 09 10  9 23 30 30.0000000  0  8G02G04G12G13G20G23G30G31
  -3566560.29348  -2709634.56247
                  20837428.0474                                   20837422.3324
                                                                        52.2504
        42.0004
    -43996.48848     -2749.14847
                  20611502.1254                                   20611498.6954
                                                                        53.5004
        42.5004
   2292209.62947   1795290.18845
                  23724932.2664                                   23724928.7974
                                                                        45.5004
        31.2504
  -4526430.40648  -3448503.09045
                  21995745.9454                                   21995742.1414
                                                                        49.7504
        33.2504
   3595535.14146   2794551.09043
                  24158443.1414                                   24158440.4024
                                                                        38.0004
        18.5004
  -1143384.68748   -845025.47345
                  21736487.3444                                   21736481.1644
                                                                        50.2504
        35.5004
    162440.68447    159820.33245
                  22641867.9614                                   22641865.6414
                                                                        44.7504
        30.2504
    -40570.05147      3051.27744
                  23722203.0084                                   23722198.9104
                                                                        44.0004
        27.2504
 09 10  9 23 31  0.0000000  0  8G02G04G12G13G20G23G30G31
  -3713530.41848  -2824156.73447
                  20809460.5634                                   20809454.8054
                                                                        52.5004
        42.2504
   -106451.05148    -51415.03547
                  20599617.1884                                   20599614.1564
                                                                        52.7504
        42.0004
   2281374.70747   1786847.35945
                  23722870.3594                                   23722866.9184
                                                                        45.7504
        31.0004
  -4695544.18448  -3580280.04345
                  21963564.9454                                   21963560.8954
                                                                        49.7504
        33.5004
   3610528.37546   2806234.15243
                  24161297.3204                                   24161293.7074
                                                                        40.0004
        19.7504
  -1229804.55148   -912365.62545
                  21720042.4384                                   21720036.5164
                                                                        49.5004
        35.7504
    106948.77347    116579.87945
                  22631307.9454                                   22631305.7734
                                                                        45.5004
        30.5004
   -102324.71147    -45069.23844
                  23710451.8284                                   23710447.6134
                                                                        43.5004
        28.5004
 09 10  9 23 31 30.0000000  0  8G02G04G12G13G20G23G30G31
  -3859962.55948  -2938259.69147
                  20781595.5164                                   20781589.8714
                                                                        52.2504
        42.0004
   -168317.72748    -99622.84047
                  20587844.4694                                   20587841.3444
                                                                        53.2504
        42.0004
   2270953.93447   1778727.25044
                  23720886.9924                                   23720884.0784
                                                                        44.2504
        29.5004
  -4864089.81248  -3711614.27745
                  21931491.3834                                   21931487.2894
                                                                        48.7504
        34.0004
   3625724.50846   2818075.25043
                  24164188.9694                                   24164185.3244
                                                                        40.7504
        18.5004
  -1315542.41048   -979174.34445
                  21703726.9534                                   21703720.8244
                                                                        50.5004
        35.5004
     52132.32447     73865.76645
                  22620876.7344                                   22620874.0434
                                                                        45.5004
        30.2504
   -163467.16447    -92712.71944
                  23698816.2424                                   23698812.4924
                                                                        44.2504
        25.2504
 09 10  9 23 32  0.0000000  0  8G02G04G12G13G20G23G30G31
  -4005857.80948  -3051944.29347
                  20753832.4614                                   20753827.0044
                                                                        52.5004
        42.2504
   -229600.10248   -147375.34446
                  20576182.7194                                   20576179.6134
                                                                        53.2504
        41.7504
   2260941.34047   1770925.21545
                  23718982.3754                                   23718978.8554
                                                                        45.0004
        30.5004
  -5032067.18748  -3842505.71945
                  21899526.8134                                   21899522.9694
                                                                        49.2504
        33.2504
   3641118.34846   2830070.43443
                  24167117.9694                                   24167114.6954
                                                                        40.2504
        21.2504
  -1400601.58648  -1045454.22345
                  21687540.3364                                   21687534.6954
                                                                        50.0004
        35.5004
     -2013.68447     31674.07045
                  22610573.5554                                   22610570.2814
                                                                        45.7504
        31.0004
   -224001.38347   -139882.26244
                  23687296.5394                                   23687293.0594
                                                                        44.0004
        27.5004
 09 10  9 23 32 30.0000000  0  8G02G04G12G13G20G23G30G31
  -4151215.48048  -3165210.00847
                  20726172.0394                                   20726166.3204
                                                                        52.2504
        42.2504
   -290299.67248   -194673.70746
                  20564632.0234                                   20564628.7624
                                                                        53.7504
        41.7504
   2251333.37947   1763438.48445
                  23717154.3984                                   23717150.0124
                                                                        46.0004
        30.2504
  -5199474.57848  -3972953.02045
                  21867670.0164                                   21867665.9104
                                                                        49.2504
        34.0004
   3656707.61346   2842217.91843
                  24170085.4064                                   24170081.3444
                                                                        41.5004
        20.5004
  -1484982.89548  -1111205.91045
                  21671483.2344                                   21671477.4224
                                                                        50.0004
        35.5004
    -55491.64147     -9997.05545
                  22600396.8364                                   22600393.7344
                                                                        45.2504
        30.2504
   -283929.89146   -186579.82044
                  23675892.4064                                   23675889.4024
                                                                        40.7504
        27.0004
 09 10  9 23 33  0.0000000  0  8G02G04G12G13G20G23G30G31
  -2720608.31648  -2050451.17647
                  20998407.2814                                   20998401.7344
                                                                        52.5004
        42.2504
   1225004.93848    986083.12546
                  20852984.9454                                   20852981.7734
                                                                        53.0004
        41.5004
   3817548.69147   2983865.98044
                  24015194.5164                                   24015190.9064
                                                                        45.2504
        29.0004
  -3790883.61748  -2875349.66045
                  22135716.2344                                   22135711.5784
                                                                        49.5004
        33.7504
   5247909.42646   4082115.43443
                  24472880.7194                                   24472876.3524
                                                                        40.2504
        20.0004
      6736.22348     51172.62945
                  21955348.2814                                   21955342.0354
                                                                        49.7504
        35.7504
   1467119.59047   1176453.25845
                  22890140.0084                                   22890136.6914
                                                                        44.0004
        30.0004
   1232169.26246    994796.11744
                  23964397.0784                                   23964393.6484
                                                                        40.5004
        26.2504
 09 10  9 23 33 30.0000000  0  7G02G04G12G13G23G30G31
  -2864887.94948  -2162876.85547
                  20970951.9614                                   20970946.7504
                                                                        53.0004
        42.7504
   1165465.30148    939688.59047
                  20841654.7894                                   20841651.5784
                                                                        53.5004
        42.0004
   3808740.05547   2977002.10945
                  24013518.5944                                   24013514.3244
                                                                        45.5004
        30.0004
  -3957145.89148  -3004904.68445
                  22104077.4454                                   22104073.0784
                                                                        49.5004
        34.0004
    -76293.25848    -13525.66045
                  21939548.0164                                   21939542.4344
                                                                        49.7504
        35.7504
   1414970.61347   1135817.71145
                  22880216.6254                                   22880213.4494
                                                                        46.2504
        30.0004
   1173447.10547    949038.56344
                  23953222.5394                                   23953219.0044
                                                                        43.0004
        28.0004
 09 10  9 23 34  0.0000000  0  7G02G04G12G13G23G30G31
  -3008627.93748  -2274882.03547
                  20943598.6804                                   20943593.6524
                                                                        52.2504
        42.2504
   1106502.38749    893743.45747
                  20830434.4924                                   20830431.4964
                                                                        54.0004
        42.0004
   3800325.44547   2970445.25845
                  24011917.3444                                   24011913.5004
                                                                        45.5004
        30.5004
  -4122833.76648  -3134012.11745
                  22072547.7194                                   22072543.9494
                                                                        49.2504
        33.5004
   -158649.52348    -77699.37945
                  21923876.3364                                   21923870.2154
                                                                        49.2504
        35.0004
   1363481.75847   1095696.53144
                  22870418.5164                                   22870415.1024
                                                                        44.0004
        29.0004
   1115324.34047    903748.07844
                  23942162.6484                                   23942158.8554
                                                                        44.2504
        29.5004
 09 10  9 23 34 30.0000000  0  7G02G04G12G13G23G30G31
  -3151821.51248  -2386461.44147
                  20916350.3674                                   20916344.5514
                                                                        52.2504
        42.5004
   1048120.66848    848251.21146
                  20819325.1564                                   20819322.0084
                                                                        53.5004
        41.7504
   3792306.57047   2964196.77744
                  24010390.8284                                   24010386.9144
                                                                        44.5004
        29.5004
  -4287939.52748  -3262665.93445
                  22041129.5864                                   22041125.1724
                                                                        49.0004
        34.2504
   -240327.36348   -141344.44145
                  21908333.3674                                   21908327.6954
                                                                        49.0004
        35.5004
   1312655.98847   1056092.03944
                  22860746.0784                                   22860743.5004
                                                                        45.2504
        29.7504
   1057804.62947    858927.50844
                  23931216.7274                                   23931213.2664
                                                                        44.5004
        28.2504
 09 10  9 23 35  0.0000000  0  7G02G04G12G13G23G30G31
  -3294459.50048  -2497607.92647
                  20889206.7664                                   20889201.2854
                                                                        51.2504
        42.7504
    990326.26648    803216.60946
                  20808326.9844                                   20808323.9454
                                                                        53.5004
        41.7504
   3784688.50047   2958260.60544
                  24008941.5554                                   24008937.9144
                                                                        43.7504
        29.2504
  -4452453.27048  -3390858.44945
                  22009823.2194                                   22009819.2544
                                                                        50.5004
        34.2504
   -321320.11748   -204455.68445
                  21892920.8364                                   21892914.8554
                                                                        48.0004
        35.0004
   1262499.49647   1017009.04345
                  22851201.9454                                   22851199.1484
                                                                        44.0004
        30.5004
   1000894.12947    814581.63744
                  23920387.4144                                   23920383.7344
                                                                        44.5004
        28.7504
 09 10  9 23 35 30.0000000  0  8G02G04G12G13G29G23G30G31
  -3436541.64848  -2608321.27347
                  20862169.5784                                   20862164.4924
                                                                        51.7504
        42.7504
    933117.16048    758638.09047
                  20797440.5314                                   20797437.5354
                                                                        53.5004
        42.0004
   3777467.06647   2952633.49645
                  24007567.1254                                   24007563.5234
                                                                        44.5004
        30.2504
  -4616373.87948  -3518588.79745
                  21978630.4304                                   21978626.0434
                                                                        50.5004
        33.5004
   4480584.74657   3506829.79754
                  24445286.7504                                   24445284.3404
                                                                        42.5004
        25.2504
   -401629.52348   -267034.43445
                  21877638.6564                                   21877632.7114
                                                                        49.0004
        34.7504
   1213008.73847    978444.81645
                  22841784.7894                                   22841781.5394
                                                                        45.0004
        30.2504
    944590.17247    770708.40644
                  23909673.6254                                   23909669.2704
                                                                        44.5004
        28.5004
 09 10  9 23 36  0.0000000  0  8G02G04G12G13G29G23G30G31
  -3578075.77048  -2718607.60547
                  20835236.5944                                   20835230.8634
                                                                        51.5004
        42.5004
    876482.57848    714507.24647
                  20786663.2424                                   20786660.1914
                                                                        53.0004
        42.0004
   3770630.36747   2947306.19145
                  24006266.0944                                   24006262.9104
                                                                        45.0004
        30.0004
  -4779708.54348  -3645862.55545
                  21947548.9064                                   21947544.6254
                                                                        50.5004
        34.5004
   4282648.69547   3352593.98444
                  24407621.1174                                   24407618.3204
                                                                        43.0004
        27.5004
   -481265.66848   -329088.58645
                  21862484.0554                                   21862478.3164
                                                                        48.0004
        35.2504
   1164172.49647    940390.60944
                  22832491.3914                                   22832488.9924
                                                                        44.2504
        29.7504
    888882.01647    727299.41844
                  23899072.5474                                   23899068.4414
                                                                        43.0004
        28.0004
 09 10  9 23 36 30.0000000  0  8G02G04G12G13G29G23G30G31
  -3719073.44148  -2828475.90647
                  20808405.6094                                   20808399.9804
                                                                        51.5004
        42.2504
    820408.56348    670813.21547
                  20775992.8284                                   20775989.6174
                                                                        53.2504
        42.0004
   3764162.22347   2942266.05545
                  24005035.7344                                   24005032.1844
                                                                        44.0004
        30.2504
  -4942467.93048  -3772688.04345
                  21916576.9064                                   21916572.6604
                                                                        50.2504
        34.5004
   4084976.30146   3198563.63344
                  24370005.0164                                   24370002.4534
                                                                        40.5004
        26.7504
   -560242.18448   -390628.73445
                  21847455.4924                                   21847449.2424
                                                                        48.2504
        35.5004
   1115975.68047    902834.65645
                  22823319.4384                                   22823317.1024
                                                                        43.7504
        30.0004
    833755.10547    684343.36744
                  23888582.0234                                   23888578.0354
                                                                        42.0004
        29.0004
 09 10  9 23 37  0.0000000  0  8G02G04G12G13G29G23G30G31
  -3859535.12148  -2937926.55947
                  20781676.6884                                   20781670.9924
                                                                        51.5004
        42.5004
    764891.82848    627553.43447
                  20765428.4144                                   20765425.2934
                                                                        53.0004
        42.2504
   3758057.52747   2937509.10945
                  24003874.1564                                   24003870.7704
                                                                        45.7504
        31.0004
  -5104651.55548  -3899064.90245
                  21885714.2034                                   21885710.3134
                                                                        50.2504
        34.5004
   3887567.85546   3044739.00043
                  24332437.5704                                   24332436.9144
                                                                        37.5004
        23.7504
   -638561.76648   -451656.96945
                  21832551.8984                                   21832546.2664
                                                                        48.5004
        35.2504
   1068414.15247    865773.71944
                  22814268.6724                                   22814265.8674
                                                                        43.5004
        29.5004
    779205.73447    641837.34044
                  23878201.6024                                   23878198.0474
                                                                        43.7504
        28.0004
 09 10  9 23 37 30.0000000  0  8G02G04G12G13G29G23G30G31
  -3999456.10548  -3046955.89847
                  20755050.8834                                   20755045.1564
                                                                        51.5004
        42.7504
    709934.78948    584729.76646
                  20754970.1334                                   20754967.4574
                                                                        53.7504
        41.7504
   3752317.05147   2933035.97744
                  24002781.6414                                   24002778.2814
                                                                        45.0004
        29.5004
  -5266253.89848  -4024988.82045
                  21854962.3364                                   21854958.5084
                                                                        50.5004
        34.5004
   3690429.75446   2891125.01644
                  24294924.7584                                   24294922.6024
                                                                        39.2504
        26.2504
   -716221.42248   -512170.99245
                  21817773.7584                                   21817768.2034
                                                                        48.7504
        35.7504
   1021489.58647    829209.12144
                  22805338.8834                                   22805336.4144
                                                                        44.5004
        29.5004
    725235.77747    599782.79744
                  23867931.4384                                   23867927.7154
                                                                        44.5004
        27.7504
 09 10  9 23 38  0.0000000  0  8G02G04G12G13G29G23G30G31
  -4138832.23048  -3155560.65647
                  20728528.1724                                   20728523.3834
                                                                        50.5004
        42.7504
    655538.87948    542343.34046
                  20744619.1024                                   20744616.0474
                                                                        53.7504
        41.5004
   3746940.46147   2928846.43844
                  24001758.4924                                   24001754.4694
                                                                        45.7504
        29.5004
  -5427269.74248  -4150455.69945
                  21824322.2274                                   21824318.2234
                                                                        49.7504
        34.7504
   3493566.98446   2737725.52744
                  24257463.5394                                   24257460.8014
                                                                        41.7504
        27.0004
   -793219.08248   -572169.14845
                  21803121.7664                                   21803115.7464
                                                                        48.7504
        35.0004
    975202.45347    793141.22744
                  22796531.3204                                   22796528.4694
                                                                        44.0004
        29.5004
    671846.46947    558180.72344
                  23857771.1484                                   23857768.0164
                                                                        43.7504
        27.7504
 09 10  9 23 38 30.0000000  0  8G02G04G12G13G29G23G30G31
  -4277657.05548  -3263735.84447
                  20702110.5784                                   20702105.0124
                                                                        51.5004
        42.5004
    601707.66848    500396.94146
                  20734375.1174                                   20734372.1484
                                                                        53.5004
        41.7504
   3741929.96147   2924942.13744
                  24000805.1644                                   24000801.1604
                                                                        45.0004
        28.0004
  -5587692.33648  -4275460.31245
                  21793794.6254                                   21793790.3634
                                                                        49.7504
        34.0004
   3296986.93847   2584546.30544
                  24220054.9614                                   24220052.6764
                                                                        42.0004
        27.0004
   -869551.05948   -631648.61745
                  21788596.3134                                   21788590.3094
                                                                        49.2504
        35.0004
    929555.96947    757572.55144
                  22787845.4614                                   22787842.2974
                                                                        44.0004
        29.2504
    619041.12547    517033.67244
                  23847722.9534                                   23847719.5204
                                                                        43.7504
        27.0004
 09 10  9 23 39  0.0000000  0  8G02G04G12G13G29G23G30G31
  -4415932.30548  -3371482.78947
                  20675797.8914                                   20675792.1564
                                                                        51.2504
        42.5004
    548436.95748    458887.30547
                  20724238.3524                                   20724235.4964
                                                                        53.2504
        42.0004
   3737279.44547   2921318.30544
                  23999919.3284                                   23999916.6484
                                                                        43.0004
        27.0004
  -5747522.33648  -4400003.15645
                  21763379.8914                                   21763375.9844
                                                                        49.2504
        34.5004
   3100689.01246   2431586.92244
                  24182701.0314                                   24182698.1524
                                                                        41.7504
        25.5004
   -945221.33248   -690612.47745
                  21774196.4454                                   21774190.9184
                                                                        48.5004
        35.5004
    884544.55147    722498.72344
                  22779280.1094                                   22779276.7344
                                                                        44.5004
        29.7504
    566815.08647    476338.04744
                  23837784.7034                                   23837781.3954
                                                                        44.2504
        28.0004
 09 10  9 23 39 30.0000000  0  8G02G04G12G13G29G23G30G31
  -4553656.70748  -3478800.50447
                  20649589.7274                                   20649583.8014
                                                                        50.7504
        43.0004
    495725.61748    417813.53147
                  20714207.8134                                   20714204.4694
                                                                        53.5004
        42.0004
   3732985.69947   2917972.48844
                  23999102.6414                                   23999099.4534
                                                                        45.2504
        28.2504
  -5906757.77348  -4524082.71145
                  21733078.6254                                   21733074.5204
                                                                        49.5004
        34.2504
   2904674.96946   2278848.71544
                  24145400.4224                                   24145397.8754
                                                                        41.5004
        26.5004
  -1020230.44548   -749061.13345
                  21759922.5554                                   21759916.5004
                                                                        48.0004
        35.7504
    840166.00047    687918.02344
                  22770834.8984                                   22770831.6094
                                                                        45.5004
        29.7504
    515166.61347    436092.48444
                  23827956.3284                                   23827952.9844
                                                                        43.5004
        27.7504
 09 10  9 23 40  0.0000000  0  9G02G04G12G13G29G10G23G30G31
  -4690828.30948  -3585687.46147
                  20623486.6724                                   20623481.4574
                                                                        51.7504
        42.7504
    443572.52048    377174.75047
                  20704283.2814                                   20704280.2934
                                                                        53.5004
        42.5004
   3729046.73447   2914903.16444
                  23998353.1954                                   23998349.7974
                                                                        44.5004
        27.2504
  -6065396.03148  -4647696.93445
                  21702890.5474                                   21702886.5204
                                                                        50.0004
        34.5004
   2708948.73446   2126334.80944
                  24108155.5704                                   24108153.0164
                                                                        39.5004
        26.0004
   4460774.91056   3492625.50854
                  24023799.6804                                   24023798.1844
                                                                        41.2504
        25.7504
  -1094578.90248   -806995.01245
                  21745774.8364                                   21745768.4494
                                                                        48.7504
        35.5004
    796418.79347    653829.29744
                  22762510.1024                                   22762506.5514
                                                                        45.2504
        29.0004
    464094.62947    396296.11744
                  23818238.0394                                   23818233.4654
                                                                        43.7504
        26.5004
 09 10  9 23 40 30.0000000  0  9G02G04G12G13G29G10G23G30G31
  -4827450.39148  -3692146.21947
                  20597488.5314                                   20597482.9574
                                                                        52.2504
        42.5004
    391971.93449    336966.50046
                  20694464.2814                                   20694460.9264
                                                                        54.0004
        41.7504
   3725454.77747   2912104.22744
                  23997669.6884                                   23997666.5164
                                                                        45.2504
        28.5004
  -6223439.50448  -4770847.69145
                  21672815.7584                                   21672811.9694
                                                                        49.5004
        34.7504
   2513507.98046   1974043.38744
                  24070963.4064                                   24070961.9384
                                                                        38.5004
        25.0004
   4246777.10547   3325874.08644
                  23983077.9224                                   23983075.3444
                                                                        42.2504
        24.2504
  -1168271.93448   -864418.16846
                  21731751.6334                                   21731745.8484
                                                                        49.0004
        36.0004
    753296.00047    620227.12544
                  22754304.1804                                   22754301.1884
                                                                        45.2504
        29.7504
    413592.60947    356943.89544
                  23808628.4774                                   23808623.4804
                                                                        44.0004
        26.5004
 09 10  9 23 41  0.0000000  0  9G02G04G12G13G29G10G23G30G31
  -3388105.84848  -2570579.04347
                  20871386.6804                                   20871381.3014
                                                                        52.0004
        43.0004
   1916335.77048   1524782.47746
                  20984540.8054                                   20984537.6524
                                                                        53.2504
        41.7504
   5297617.95747   4137166.39845
                  24296842.6804                                   24296839.3914
                                                                        45.7504
        30.7504
  -4805469.25048  -3665935.79345
                  21942646.6174                                   21942642.9344
                                                                        49.5004
        34.7504
   3893772.29346   3049574.11344
                  24333618.9614                                   24333617.1844
                                                                        40.0004
        27.0004
   5608371.50047   4386856.81344
                  24242180.8754                                   24242177.7194
                                                                        42.5004
        25.5004
    334103.26248    306263.80145
                  22017643.7734                                   22017637.9534
                                                                        49.0004
        35.7504
   2286207.77747   1814703.82045
                  23046007.7734                                   23046004.2504
                                                                        46.0004
        30.5004
   1939071.63747   1545628.85244
                  24098916.9924                                   24098912.5204
                                                                        43.5004
        26.2504
 09 10  9 23 41 30.0000000  0  9G02G04G12G13G29G10G23G30G31
  -3523640.80948  -2676190.69547
                  20845595.0944                                   20845589.3524
                                                                        52.0004
        43.0004
   1865820.76248   1485420.12146
                  20974928.0234                                   20974924.6954
                                                                        53.2504
        41.0004
   5294695.18047   4134888.87945
                  24296286.7664                                   24296283.3554
                                                                        45.0004
        31.5004
  -4962332.41448  -3788166.81245
                  21912796.7894                                   21912792.5314
                                                                        49.5004
        34.5004
   3698893.39546   2897720.49244
                  24296535.1094                                   24296533.0514
                                                                        41.5004
        25.7504
   5394707.28547   4220365.23844
                  24201522.2274                                   24201518.7584
                                                                        45.0004
        25.7504
    261702.10947    249847.30545
                  22003866.5554                                   22003860.3984
                                                                        47.5004
        34.5004
   2244311.32447   1782057.23845
                  23038035.0704                                   23038032.1054
                                                                        45.5004
        30.2504
   1889688.28147   1507148.32844
                  24089519.1414                                   24089514.7384
                                                                        43.0004
        27.2504
 09 10  9 23 42  0.0000000  0  9G02G04G12G13G29G10G23G30G31
  -3658625.55148  -2781373.60547
                  20819908.3834                                   20819902.8364
                                                                        52.2504
        42.5004
   1815851.19148   1446482.79346
                  20965419.1334                                   20965415.9264
                                                                        53.5004
        41.5004
   5292107.17647   4132872.21945
                  24295794.0474                                   24295791.1024
                                                                        44.2504
        30.7504
  -5118597.71548  -3909931.96545
                  21883060.1254                                   21883056.2544
                                                                        49.0004
        34.7504
   3504304.11347   2746092.52344
                  24259506.5164                                   24259503.7194
                                                                        42.5004
        26.2504
   5181217.61347   4054009.62943
                  24160896.0704                                   24160892.6054
                                                                        42.7504
        22.7504
    189950.56648    193937.00045
                  21990212.7344                                   21990206.3674
                                                                        48.5004
        35.5004
   2203029.44147   1749889.55145
                  23030178.9454                                   23030176.1294
                                                                        46.2504
        30.0004
   1840867.18447   1469105.92644
                  24080228.6884                                   24080224.7344
                                                                        42.0004
        25.7504
 09 10  9 23 42 30.0000000  0  9G02G04G12G13G29G10G23G30G31
  -3793055.67248  -2886124.35547
                  20794327.2424                                   20794321.7544
                                                                        52.2504
        42.5004
   1766428.43848   1407971.57846
                  20956014.3674                                   20956011.0944
                                                                        53.2504
        41.5004
   5289853.89547   4131116.37944
                  24295365.2114                                   24295362.3324
                                                                        44.0004
        28.5004
  -5274260.44148  -4031227.58245
                  21853438.7114                                   21853434.7774
                                                                        49.7504
        35.5004
   3310009.48047   2594694.14544
                  24222533.1094                                   24222530.4144
                                                                        43.0004
        28.0004
   4967907.51646   3887794.02044
                  24120304.0234                                   24120301.1804
                                                                        41.2504
        25.5004
    118850.15248    138534.07845
                  21976682.5164                                   21976676.6844
                                                                        49.2504
        35.0004
   2162362.84047   1718201.30545
                  23022440.3134                                   23022437.0744
                                                                        44.5004
        30.0004
   1792608.77047   1431501.94944
                  24071045.5314                                   24071041.5824
                                                                        42.2504
        24.2504
 09 10  9 23 43  0.0000000  0  9G02G04G12G13G29G10G23G30G31
  -3926930.30548  -2990442.25047
                  20768851.3524                                   20768845.8284
                                                                        52.0004
        42.7504
   1717551.06348   1369885.30946
                  20946713.1484                                   20946710.0704
                                                                        53.0004
        41.2504
   5287931.86747   4129618.66844
                  24294999.1334                                   24294996.7854
                                                                        42.5004
        27.7504
  -5429318.52048  -4152052.03945
                  21823932.1724                                   21823928.0004
                                                                        49.7504
        35.5004
   3116011.75047   2443527.11344
                  24185615.8754                                   24185613.1414
                                                                        42.5004
        25.2504
   4754778.71546   3721719.76644
                  24079747.5394                                   24079744.4844
                                                                        41.7504
        27.5004
     48399.57048     83637.51645
                  21963276.3984                                   21963270.5274
                                                                        48.5004
        35.0004
   2122308.91847   1686990.46944
                  23014818.2974                                   23014815.7344
                                                                        44.5004
        29.0004
   1744910.94947   1394334.81644
                  24061968.9774                                   24061965.1294
                                                                        43.2504
        26.5004
 09 10  9 23 43 30.0000000  0  9G02G04G12G13G29G10G23G30G31
  -4060245.34448  -3094324.09847
                  20743482.7424                                   20743477.2274
                                                                        51.2504
        42.5004
   1669220.55548   1332225.16846
                  20937516.3444                                   20937513.0744
                                                                        53.0004
        41.5004
   5286341.09747   4128379.05244
                  24294696.5944                                   24294693.4844
                                                                        42.0004
        27.0004
  -5583767.27048  -4272401.69945
                  21794541.3754                                   21794537.6684
                                                                        50.5004
        35.0004
   2922315.89146   2292595.32444
                  24148756.8914                                   24148754.1374
                                                                        41.0004
        25.2504
   4541836.35247   3555790.73844
                  24039225.0864                                   24039222.8134
                                                                        42.2504
        27.2504
    -21399.27048     29248.80145
                  21949994.3284                                   21949987.9534
                                                                        49.0004
        35.2504
   2082867.75047   1656257.10945
                  23007312.8594                                   23007310.3054
                                                                        44.0004
        30.2504
   1697774.64147   1357605.22344
                  24052998.8754                                   24052995.4844
                                                                        42.5004
        27.0004
 09 10  9 23 44  0.0000000  0  9G02G04G12G13G29G10G23G30G31
  -4192998.84048  -3197768.38347
                  20718220.3674                                   20718215.1174
                                                                        51.7504
        42.5004
   1621436.34848   1294990.71546
                  20928423.3834                                   20928420.1214
                                                                        53.5004
        41.5004
   5285079.82047   4127396.19944
                  24294457.0084                                   24294453.3954
                                                                        43.2504
        26.5004
  -5737603.79748  -4392274.31645
                  21765267.3594                                   21765263.2304
                                                                        50.0004
        34.7504
   2728925.63746   2141901.64844
                  24111956.1484                                   24111953.0474
                                                                        41.7504
        25.2504
   4329083.26247   3390009.19944
                  23998740.1644                                   23998737.0084
                                                                        44.7504
        29.2504
    -90546.30548    -24631.99645
                  21936835.8134                                   21936829.5784
                                                                        49.2504
        35.0004
   2044038.38747   1626000.46144
                  22999923.7504                                   22999920.7074
                                                                        46.0004
        29.0004
   1651199.25047   1321312.69144
                  24044136.6094                                   24044132.8404
                                                                        43.5004
        27.2504
 09 10  9 23 44 30.0000000  0  9G02G04G12G13G29G10G23G30G31
  -4325190.90248  -3300775.19547
                  20693065.2114                                   20693059.3914
                                                                        52.2504
        42.5004
   1574195.34848   1258179.53146
                  20919433.6174                                   20919430.9734
                                                                        52.5004
        41.7504
   5284143.03147   4126666.25044
                  24294278.7734                                   24294274.4734
                                                                        44.5004
        26.2504
  -5890827.55948  -4511669.44945
                  21736109.8134                                   21736105.6914
                                                                        49.2504
        35.5004
   2535841.77047   1991446.73844
                  24075213.6414                                   24075211.1454
                                                                        43.2504
        28.0004
   4116520.14147   3224375.64544
                  23958290.8594                                   23958287.5744
                                                                        44.0004
        27.7504
   -159044.55548    -78007.26245
                  21923800.7274                                   21923794.8094
                                                                        49.2504
        35.0004
   2005816.71147   1596217.34045
                  22992650.6724                                   22992647.7304
                                                                        44.5004
        30.0004
   1605181.26247   1285454.52744
                  24035379.6414                                   24035375.5004
                                                                        42.7504
        28.0004
 09 10  9 23 45  0.0000000  0  9G02G04G12G13G29G10G23G30G31
  -4456819.68048  -3403343.06647
                  20668017.1564                                   20668011.5004
                                                                        52.2504
        42.7504
   1527496.93848   1221791.16846
                  20910547.2194                                   20910543.8054
                                                                        53.0004
        41.5004
   5283528.50847   4126187.43444
                  24294161.8834                                   24294157.5634
                                                                        43.5004
        28.0004
  -6043436.03948  -4630585.15245
                  21707069.3594                                   21707065.4774
                                                                        49.5004
        35.0004
   2343067.45747   1841233.05544
                  24038529.0234                                   24038527.3014
                                                                        42.2504
        27.5004
   3904149.46947   3058892.02044
                  23917878.0554                                   23917874.5664
                                                                        44.2504
        25.7504
   -226894.34448   -130877.23845
                  21910889.8364                                   21910883.4964
                                                                        50.0004
        35.5004
   1968200.82047   1566906.23844
                  22985492.6484                                   22985489.4694
                                                                        45.7504
        29.5004
   1559719.37147   1250029.68844
                  24026728.6174                                   24026724.1994
                                                                        42.0004
        27.5004
 09 10  9 23 45 30.0000000  0  9G02G04G12G13G29G10G23G30G31
  -4587879.55548  -3505467.64547
                  20643077.0394                                   20643071.6804
                                                                        52.2504
        43.5004
   1481344.42248   1185828.16446
                  20901764.8984                                   20901761.6134
                                                                        52.5004
        41.7504
   5283237.67647   4125960.80144
                  24294106.8524                                   24294102.7814
                                                                        44.2504
        28.5004
  -6195422.89148  -4749016.43745
                  21678147.0394                                   21678142.8794
                                                                        49.7504
        35.5004
   2150609.42646   1691265.84844
                  24001906.1884                                   24001904.1804
                                                                        39.5004
        27.0004
   3691978.16846   2893563.74643
                  23877501.7424                                   23877498.9804
                                                                        41.7504
        23.0004
   -294092.12148   -183239.13345
                  21898102.3444                                   21898096.3054
                                                                        49.7504
        34.7504
   1931192.86347   1538068.87144
                  22978450.5004                                   22978447.4804
                                                                        45.5004
        29.7504
   1514816.10246   1215040.12544
                  24018184.0164                                   24018179.9844
                                                                        41.0004
        28.2504
 09 10  9 23 46  0.0000000  0  9G02G04G12G13G29G10G23G30G31
  -4718372.11348  -3607150.15647
                  20618245.3364                                   20618239.6454
                                                                        51.7504
        43.0004
   1435732.93848   1150286.74246
                  20893084.8364                                   20893081.9414
                                                                        52.5004
        41.7504
   5283264.91047   4125981.98444
                  24294111.8284                                   24294108.3284
                                                                        43.2504
        27.7504
  -6346789.58648  -4866964.51645
                  21649342.9924                                   21649338.9654
                                                                        49.5004
        35.0004
   1958467.37546   1541544.84044
                  23965342.6954                                   23965340.2624
                                                                        41.0004
        28.5004
   3480005.19546   2728390.07044
                  23837164.6174                                   23837162.1914
                                                                        40.7504
        24.5004
   -360642.28148   -235096.39845
                  21885438.2894                                   21885432.4804
                                                                        49.5004
        33.7504
   1894787.60247   1509701.12144
                  22971522.9064                                   22971519.2154
                                                                        45.7504
        28.0004
   1470466.40647   1180481.90244
                  24009743.5784                                   24009740.1764
                                                                        43.2504
        26.5004
 09 10  9 23 46 30.0000000  0  9G02G04G12G13G29G10G23G30G31
  -4848304.10548  -3708395.87147
                  20593520.3914                                   20593514.3094
                                                                        52.0004
        43.2504
   1390653.47748   1115159.87946
                  20884506.9224                                   20884503.6214
                                                                        52.7504
        41.2504
   5283598.83647   4126242.14844
                  24294174.6334                                   24294171.9454
                                                                        42.5004
        29.2504
  -6497541.43048  -4984433.48845
                  21620656.0004                                   21620651.7774
                                                                        50.0004
        35.2504
   1766635.90646   1392065.83244
                  23928838.7584                                   23928836.0124
                                                                        41.2504
        27.7504
   3268224.79347   2563366.43044
                  23796864.9694                                   23796862.3554
                                                                        43.0004
        27.5004
   -426553.34448   -286455.67645
                  21872895.9064                                   21872889.6214
                                                                        49.7504
        34.7504
   1858974.82447   1481795.05544
                  22964707.7344                                   22964704.0274
                                                                        46.5004
        28.2504
   1426660.89147   1146347.75044
                  24001407.5864                                   24001404.4694
                                                                        43.7504
        28.5004
 09 10  9 23 47  0.0000000  0  9G02G04G12G13G29G10G23G30G31
  -4977669.63348  -3809200.17247
                  20568902.6724                                   20568897.2464
                                                                        52.0004
        42.7504
   1346109.82448   1080450.53946
                  20876030.3054                                   20876027.3674
                                                                        53.0004
        41.0004
   5284241.56647   4126742.94144
                  24294297.3134                                   24294294.1994
                                                                        42.7504
        28.2504
  -6647671.46548  -5101417.92645
                  21592087.2344                                   21592083.3014
                                                                        49.2504
        35.7504
   1575122.16846   1242834.41444
                  23892394.3134                                   23892391.5084
                                                                        41.2504
        27.2504
   3056644.17647   2398498.45744
                  23756602.7344                                   23756599.9614
                                                                        43.0004
        28.5004
   -491821.90648   -337314.29345
                  21860475.7584                                   21860469.3834
                                                                        49.7504
        34.0004
   1823756.66047   1454352.35244
                  22958005.8524                                   22958002.6604
                                                                        45.0004
        28.5004
   1383402.23047   1112639.72744
                  23993176.3984                                   23993172.4574
                                                                        42.5004
        28.0004
 09 10  9 23 47 30.0000000  0  9G02G04G12G13G29G10G23G30G31
  -5106468.59848  -3909563.01247
                  20544393.0004                                   20544387.7544
                                                                        52.5004
        42.7504
   1302098.66848   1046156.13346
                  20867655.1884                                   20867652.5354
                                                                        53.0004
        41.2504
   5285188.98847   4127481.11744
                  24294477.6334                                   24294474.7114
                                                                        43.0004
        28.0004
  -6797179.55948  -5217917.72346
                  21563636.9304                                   21563632.9494
                                                                        50.0004
        36.0004
   1383927.82446   1093851.86744
                  23856011.3834                                   23856008.4924
                                                                        41.2504
        28.2504
   2845263.71147   2233786.45344
                  23716378.4304                                   23716375.4264
                                                                        42.7504
        28.7504
   -556450.42648   -387674.18445
                  21848177.1174                                   21848170.8954
                                                                        49.0004
        33.7504
   1789129.51647   1427370.15244
                  22951416.7344                                   22951413.2234
                                                                        45.5004
        29.0004
   1340687.90247   1079355.82844
                  23985047.9224                                   23985044.2304
                                                                        43.2504
        27.0004
 09 10  9 23 48  0.0000000  0  9G02G04G12G13G29G10G23G30G31
  -5234701.19148  -4009484.51247
                  20519991.1564                                   20519985.6254
                                                                        53.0004
        43.5004
   1258617.26648   1012274.52046
                  20859380.8524                                   20859377.8244
                                                                        52.0004
        41.2504
   5286436.57847   4128453.23444
                  24294714.6254                                   24294712.0274
                                                                        43.7504
        26.7504
  -6946065.33248  -5333932.60546
                  21535305.0704                                   21535300.4414
                                                                        50.5004
        36.0004
   1193053.37546    945118.60944
                  23819688.5164                                   23819686.4454
                                                                        39.7504
        27.2504
   2634085.00447   2069231.68444
                  23676191.9144                                   23676189.0274
                                                                        42.7504
        28.5004
   -620441.59048   -437537.42245
                  21836000.1174                                   21835993.9224
                                                                        49.2504
        34.0004
   1755089.60947   1400845.51244
                  22944938.7034                                   22944935.3984
                                                                        44.2504
        27.5004
   1298513.74247   1046492.85244
                  23977022.1414                                   23977018.3754
                                                                        42.5004
        25.5004
 09 10  9 23 48 30.0000000  0  9G02G04G12G13G29G10G23G30G31
  -5362363.95348  -4108961.99647
                  20495697.6254                                   20495692.3484
                                                                        52.2504
        42.7504
   1215666.57848    978806.44546
                  20851207.6724                                   20851204.5084
                                                                        52.5004
        41.7504
   5287983.87947   4129658.91444
                  24295010.2034                                   24295005.9924
                                                                        43.7504
        27.5004
  -7094324.37948  -5449459.13746
                  21507091.9614                                   21507087.8594
                                                                        50.2504
        36.0004
   1002504.03546    796638.69144
                  23783428.6644                                   23783425.6524
                                                                        40.0004
        27.0004
   2423111.65647   1904836.90244
                  23636045.7504                                   23636042.4924
                                                                        43.0004
        27.0004
   -683794.28948   -486903.17245
                  21823944.5944                                   21823938.1214
                                                                        49.5004
        34.0004
   1721636.78947   1374778.37544
                  22938572.9144                                   22938569.9024
                                                                        44.5004
        27.5004
   1256880.76247   1014051.55144
                  23969099.7664                                   23969096.1604
                                                                        42.2504
        26.7504
 09 10  9 23 49  0.0000000  0  9G02G04G12G13G29G10G23G30G31
  -5489457.93048  -4207996.26647
                  20471512.8204                                   20471507.1564
                                                                        52.5004
        43.0004
   1173243.05548    945749.14846
                  20843134.9064                                   20843131.7704
                                                                        52.0004
        41.5004
   5289825.04347   4131093.60244
                  24295360.2504                                   24295356.8014
                                                                        44.2504
        27.2504
  -7241957.45748  -5564497.89845
                  21478998.0634                                   21478994.7544
                                                                        49.7504
        35.5004
    812279.62146    648411.93844
                  23747230.2344                                   23747226.8794
                                                                        41.0004
        27.2504
   2212344.00847   1740602.36744
                  23595936.8914                                   23595934.7894
                                                                        42.0004
        27.0004
   -746511.79748   -535773.94545
                  21812009.5944                                   21812003.6094
                                                                        48.7504
        35.0004
   1688766.06347   1349164.82444
                  22932318.5004                                   22932314.7424
                                                                        45.2504
        28.7504
   1215783.97346    982028.06644
                  23961279.1414                                   23961275.7854
                                                                        41.5004
        26.2504
 09 10  9 23 49 30.0000000  0  9G02G04G12G13G29G10G23G30G31
  -4040558.10948  -3078983.43047
                  20747229.1414                                   20747223.5664
                                                                        52.5004
        43.0004
   2706766.18848   2140702.24246
                  21134954.5554                                   21134951.3634
                                                                        52.5004
        41.2504
   6867377.19147   5360354.98444
                  24595558.1254                                   24595554.9494
                                                                        43.5004
        27.2504
  -5813537.66448  -4451443.51245
                  21750817.6024                                   21750813.5944
                                                                        50.0004
        35.0004
   2197809.12547   1728045.32044
                  24010888.3364                                   24010884.0554
                                                                        42.7504
        27.0004
   3577211.12147   2804135.18844
                  23855663.2424                                   23855659.9064
                                                                        42.5004
        27.0004
    766826.66848    643450.83645
                  22099988.7274                                   22099982.1994
                                                                        48.7504
        34.5004
   3231896.13747   2551603.80544
                  23225965.5474                                   23225962.9384
                                                                        45.0004
        28.7504
   2750643.37947   2178022.40644
                  24253353.3594                                   24253349.6954
                                                                        42.5004
        25.2504
 09 10  9 23 50  0.0000000  0  9G02G04G12G13G29G10G23G30G31
  -4166511.83648  -3177129.19547
                  20723261.0314                                   20723255.8914
                                                                        52.5004
        42.7504
   2665391.85548   2108462.50046
                  21127081.7114                                   21127078.3984
                                                                        52.5004
        41.5004
   6869797.82046   5362241.19144
                  24596018.8834                                   24596015.2974
                                                                        41.7504
        26.5004
  -5959913.23448  -4565502.40245
                  21722963.1804                                   21722959.5274
                                                                        50.0004
        35.7504
   2008242.42647   1580331.00444
                  23974814.5634                                   23974811.5864
                                                                        43.0004
        28.5004
   3366860.84847   2640225.93044
                  23815634.1334                                   23815631.3284
                                                                        42.2504
        27.5004
    705375.28948    595566.62545
                  22088294.7814                                   22088288.9024
                                                                        49.2504
        34.2504
   3200182.41047   2526891.79344
                  23219931.2664                                   23219928.2274
                                                                        45.2504
        29.5004
   2710613.72347   2146830.46944
                  24245736.0394                                   24245732.3714
                                                                        42.7504
        27.0004
 09 10  9 23 50 30.0000000  0  9G02G04G12G13G29G10G23G30G31
  -4291893.43448  -3274829.14847
                  20699401.5164                                   20699396.0044
                                                                        52.5004
        43.0004
   2624539.90248   2076629.80946
                  21119307.5084                                   21119304.5594
                                                                        52.0004
        41.2504
   6872503.57446   5364349.53544
                  24596534.4694                                   24596530.5394
                                                                        41.0004
        27.0004
  -6105657.32048  -4679069.21545
                  21695228.6414                                   21695225.0514
                                                                        50.2504
        35.5004
   1819008.16847   1432875.76245
                  23938804.4614                                   23938801.8594
                                                                        43.2504
        30.5004
   3156722.46147   2476481.75044
                  23775646.5004                                   23775643.7424
                                                                        43.5004
        28.0004
    644555.37548    548174.48045
                  22076720.9064                                   22076714.8244
                                                                        49.2504
        34.5004
   3169043.05947   2502627.32845
                  23214005.4304                                   23214002.7114
                                                                        45.2504
        30.5004
   2671114.78946   2116052.09444
                  24238219.8674                                   24238215.7624
                                                                        41.2504
        26.0004
 09 10  9 23 51  0.0000000  0  9G02G04G12G13G29G10G23G30G31
  -4416702.19548  -3372082.72747
                  20675651.2034                                   20675645.6844
                                                                        52.7504
        43.0004
   2584208.55548   2045202.78546
                  21111633.0234                                   21111629.4224
                                                                        52.5004
        41.2504
   6875491.05946   5366677.39144
                  24597101.8754                                   24597099.6214
                                                                        40.7504
        26.7504
  -6250768.33648  -4792142.73046
                  21667615.4534                                   21667611.2544
                                                                        50.7504
        36.5004
   1630108.36747   1285681.17244
                  23902857.7424                                   23902855.2544
                                                                        43.0004
        29.7504
   2946797.74247   2312904.07044
                  23735699.7734                                   23735696.3914
                                                                        44.5004
        28.2504
    584365.00448    501272.88345
                  22065267.0634                                   22065261.2424
                                                                        49.2504
        34.0004
   3138475.12947   2478808.14844
                  23208189.0004                                   23208185.8164
                                                                        45.7504
        29.5004
   2632143.87147   2085685.15244
                  24230804.4774                                   24230799.7234
                                                                        42.5004
        28.5004
 09 10  9 23 51 30.0000000  0  9G02G04G12G13G29G10G23G30G31
  -4540937.79348  -3468889.69147
                  20652010.0004                                   20652004.6024
                                                                        52.2504
        43.5004
   2544395.75848   2014179.82446
                  21104056.8754                                   21104053.6524
                                                                        52.2504
        41.5004
   6878757.15646   5369222.35944
                  24597724.0634                                   24597720.7234
                                                                        41.5004
        27.0004
  -6395245.27348  -4904722.16046
                  21640122.3914                                   21640118.1374
                                                                        50.7504
        36.5004
   1441545.15247   1138748.83644
                  23866975.1804                                   23866973.0124
                                                                        42.5004
        29.7504
   2737088.51247   2149494.28144
                  23695792.7274                                   23695790.1884
                                                                        44.5004
        29.2504
    524802.09048    454860.23045
                  22053933.1174                                   22053927.1564
                                                                        49.0004
        35.2504
   3108475.55547   2455431.84044
                  23202480.1174                                   23202477.5744
                                                                        46.0004
        29.2504
   2593698.56646   2055727.78544
                  24223487.7034                                   24223483.8014
                                                                        41.2504
        26.2504
 09 10  9 23 52  0.0000000  0  8G02G04G13G29G10G23G30G31
  -4664599.48448  -3565249.44947
                  20628477.8364                                   20628472.6334
                                                                        52.5004
        43.0004
   2505099.32848   1983559.23046
                  21096578.9534                                   21096575.9774
                                                                        52.7504
        41.2504
  -6539087.41848  -5016806.93746
                  21612750.0314                                   21612746.1764
                                                                        50.2504
        36.2504
   1253320.54746    992080.37944
                  23831156.2974                                   23831155.2114
                                                                        41.0004
        27.2504
   2527596.01247   1986253.36744
                  23655927.7424                                   23655924.3634
                                                                        43.5004
        27.7504
    465864.91848    408935.15645
                  22042717.3134                                   22042711.4804
                                                                        49.0004
        34.2504
   3079041.60547   2432496.28145
                  23196878.8054                                   23196876.0514
                                                                        44.5004
        30.0004
   2555776.37946   2026178.02044
                  24216271.2664                                   24216267.8244
                                                                        40.5004
        26.0004
 09 10  9 23 52 30.0000000  0  8G02G04G13G29G10G23G30G31
  -4787685.37548  -3661160.53147
                  20605055.5784                                   20605050.1524
                                                                        52.2504
        43.0004
   2466318.83248   1953340.66446
                  21089199.2974                                   21089196.2234
                                                                        52.2504
        41.0004
  -6682291.39848  -5128394.44946
                  21585499.1024                                   21585494.8954
                                                                        50.7504
        36.0004
   1065437.69147    845678.24244
                  23795403.5004                                   23795402.0594
                                                                        42.7504
        27.5004
   2318323.43847   1823183.87144
                  23616104.5634                                   23616101.6764
                                                                        42.0004
        29.5004
    407553.23448    363497.47345
                  22031621.1024                                   22031615.6294
                                                                        48.7504
        35.0004
   3050170.99647   2409999.68844
                  23191384.9844                                   23191382.3524
                                                                        44.5004
        29.7504
   2518375.94546   1997034.81344
                  24209154.4924                                   24209150.7344
                                                                        39.7504
        27.0004
 09 10  9 23 53  0.0000000  0  8G02G04G13G29G10G23G30G31
  -4910190.66048  -3756619.19547
                  20581743.5394                                   20581738.0664
                                                                        52.0004
        43.2504
   2428056.19948   1923525.61346
                  21081917.9384                                   21081914.7424
                                                                        52.2504
        41.2504
  -6824852.44148  -5239480.97746
                  21558370.6174                                   21558367.0274
                                                                        51.0004
        36.5004
    877902.97347    699547.32444
                  23759717.2344                                   23759714.9184
                                                                        44.5004
        29.0004
   2109276.82047   1660290.46144
                  23576324.4614                                   23576321.3984
                                                                        42.0004
        28.2504
    349868.82848    318548.58245
                  22020644.5704                                   22020638.3794
                                                                        49.5004
        34.2504
   3021865.21947   2387943.19944
                  23185998.1804                                   23185996.0394
                                                                        44.0004
        28.5004
   2481498.81646   1968299.39144
                  24202136.9534                                   24202133.0864
                                                                        41.5004
        24.5004
 09 10  9 23 53 30.0000000  0  8G02G04G13G29G10G23G30G31
  -5032107.10548  -3851619.02747
                  20558543.5634                                   20558538.3594
                                                                        52.5004
        43.2504
   2390317.21948   1894118.60546
                  21074736.0864                                   21074733.7504
                                                                        52.7504
        41.0004
  -6966761.37148  -5350059.39546
                  21531366.5084                                   21531362.6214
                                                                        50.7504
        36.0004
    690726.52047    553695.57044
                  23724099.4144                                   23724095.9774
                                                                        46.0004
        29.5004
   1900465.52747   1497580.38344
                  23536588.8364                                   23536585.5664
                                                                        42.5004
        28.2504
    292818.04748    274093.42245
                  22009787.8594                                   22009782.1174
                                                                        48.7504
        35.0004
   2994128.93047   2366330.50444
                  23180720.0944                                   23180717.4924
                                                                        44.2504
        27.5004
   2445150.35947   1939975.88744
                  24195220.6094                                   24195216.3204
                                                                        42.0004
        25.0004
 09 10  9 23 54  0.0000000  0  8G02G04G13G29G10G23G30G31
  -5153436.62148  -3946161.50047
                  20535455.5164                                   20535450.0864
                                                                        53.2504
        43.0004
   2353097.71548   1865116.38346
                  21067653.9694                                   21067650.7734
                                                                        53.0004
        40.7504
  -7108019.23448  -5460130.46946
                  21504485.6804                                   21504481.5824
                                                                        51.0004
        36.0004
    503907.19547    408122.10244
                  23688548.6174                                   23688545.4774
                                                                        46.2504
        29.7504
   1691888.85947   1335053.10244
                  23496898.2344                                   23496894.9024
                                                                        43.2504
        29.7504
    236396.50048    230128.56645
                  21999051.0944                                   21999045.1644
                                                                        49.5004
        35.0004
   2966956.11747   2345156.84044
                  23175549.6174                                   23175546.5084
                                                                        44.2504
        28.2504
   2409325.58647   1912060.48844
                  24188403.4454                                   24188398.7074
                                                                        42.5004
        25.5004
 09 10  9 23 54 30.0000000  0  9G02G04G05G13G29G10G23G30G31
  -5274183.55548  -4040250.02347
                  20512478.0784                                   20512472.5984
                                                                        52.5004
        43.7504
   2316390.37548   1836513.26246
                  21060668.4694                                   21060665.7344
                                                                        53.0004
        41.0004
   7617198.80156   5980144.13354
                  24300133.0394                                   24300130.8754
                                                                        40.7504
        27.5004
  -7248630.48448  -5569697.68046
                  21477728.3524                                   21477724.5554
                                                                        51.0004
        36.5004
    317442.45347    262824.88744
                  23653066.3054                                   23653062.7934
                                                                        47.0004
        29.2504
   1483543.66447   1172706.21544
                  23457250.8054                                   23457248.2304
                                                                        42.0004
        29.5004
    180597.08248    186648.49245
                  21988432.9774                                   21988426.9064
                                                                        49.2504
        34.0004
   2940339.30147   2324416.46144
                  23170484.7504                                   23170481.7234
                                                                        44.5004
        27.0004
   2374016.95747   1884547.26644
                  24181683.8594                                   24181679.7384
                                                                        42.5004
        25.2504
 09 10  9 23 55  0.0000000  0  9G02G04G05G13G29G10G23G30G31
  -5394354.44948  -4133889.68747
                  20489610.2974                                   20489604.8134
                                                                        52.7504
        43.2504
   2280185.94548   1808302.01246
                  21053779.1804                                   21053776.2584
                                                                        53.2504
        41.0004
   7407747.45746   5816935.41044
                  24260276.8594                                   24260273.7854
                                                                        41.5004
        27.7504
  -7388600.85948  -5678765.50446
                  21451092.8444                                   21451088.7814
                                                                        51.0004
        36.5004
    131327.37947    117800.18444
                  23617648.8134                                   23617645.9574
                                                                        44.5004
        27.2504
   1275424.70747   1010535.62944
                  23417647.0864                                   23417644.6484
                                                                        42.0004
        29.7504
    125411.06648    143646.40645
                  21977931.1094                                   21977925.0634
                                                                        50.0004
        34.2504
   2914268.10547   2304101.23844
                  23165524.0474                                   23165520.1724
                                                                        44.2504
        28.0004
   2339214.86347   1857428.73444
                  24175061.3444                                   24175057.2774
                                                                        42.7504
        27.2504
 09 10  9 23 55 30.0000000  0  9G02G04G05G13G29G10G23G30G31
  -5513958.29748  -4227087.49247
                  20466850.3984                                   20466845.0904
                                                                        52.2504
        43.5004
   2244473.27348   1780473.94946
                  21046983.3834                                   21046979.9144
                                                                        53.0004
        40.2504
   7198432.44147   5653832.85244
                  24220445.8674                                   24220442.5704
                                                                        44.5004
        28.5004
  -7527938.41048  -5787340.21146
                  21424577.6954                                   21424574.0234
                                                                        51.5004
        36.2504
    -54445.92247    -26958.19144
                  23582296.9694                                   23582294.5084
                                                                        43.7504
        28.2504
   1067523.89546    848535.04344
                  23378085.1094                                   23378082.1994
                                                                        41.5004
        29.5004
     70827.03948    101113.39545
                  21967544.1884                                   21967538.3554
                                                                        49.2504
        33.5004
   2888729.50047   2284201.01244
                  23160664.1954                                   23160660.8984
                                                                        44.5004
        28.0004
   2304906.66847   1830695.04744
                  24168532.8754                                   24168529.0394
                                                                        43.0004
        26.7504
 09 10  9 23 56  0.0000000  0  9G02G04G05G13G29G10G23G30G31
  -5632994.07048  -4319842.64147
                  20444198.7034                                   20444193.2424
                                                                        52.5004
        43.2504
   2209250.50448   1753027.64146
                  21040280.5084                                   21040277.1334
                                                                        52.7504
        41.0004
   6989255.89547   5490838.12544
                  24180640.9304                                   24180636.3914
                                                                        45.5004
        27.2504
  -7666641.86348  -5895420.81646
                  21398183.7194                                   21398179.9064
                                                                        51.5004
        36.5004
   -239874.56247   -171447.99244
                  23547011.3754                                   23547008.6914
                                                                        43.2504
        28.2504
    859843.53947    686706.23445
                  23338564.7034                                   23338561.9454
                                                                        42.7504
        30.0004
     16843.32448     59048.17245
                  21957271.1174                                   21957265.5744
                                                                        49.5004
        33.2504
   2863721.09847   2264713.94144
                  23155904.8754                                   23155901.6604
                                                                        44.2504
        27.7504
   2271090.87147   1804345.05544
                  24162097.6484                                   24162093.8484
                                                                        42.7504
        27.2504
 09 10  9 23 56 30.0000000  0  9G02G04G05G13G29G10G23G30G31
  -5751457.40648  -4412151.73847
                  20421655.8834                                   20421650.4884
                                                                        52.5004
        43.2504
   2174519.51648   1725964.52346
                  21033671.5314                                   21033668.3954
                                                                        52.5004
        40.5004
   6780223.21547   5327955.56344
                  24140862.9614                                   24140859.4964
                                                                        44.7504
        28.5004
  -7804706.31248  -6003003.50046
                  21371910.4844                                   21371906.7734
                                                                        51.0004
        36.2504
   -424952.94547   -315664.84445
                  23511792.3444                                   23511789.6174
                                                                        44.7504
        30.2504
    652389.32047    525053.62944
                  23299087.9144                                   23299084.6684
                                                                        44.0004
        29.2504
    -36538.20748     17452.17645
                  21947113.0554                                   21947106.9454
                                                                        49.5004
        33.2504
   2839243.42247   2245640.43044
                  23151246.9844                                   23151243.4534
                                                                        45.0004
        28.0004
   2237768.30147   1778379.39844
                  24155757.1724                                   24155753.0984
                                                                        42.7504
        27.0004
 09 10  9 23 57  0.0000000  0  9G02G04G05G13G29G10G23G30G31
  -5869344.74648  -4504012.00447
                  20399222.5084                                   20399217.6484
                                                                        52.5004
        43.5004
   2140281.48048   1699285.53946
                  21027156.1254                                   21027153.6724
                                                                        52.5004
        40.7504
   6571338.33647   5165188.16044
                  24101113.3444                                   24101109.7854
                                                                        42.5004
        27.0004
  -7942127.44148  -6110084.89146
                  21345759.9064                                   21345756.4384
                                                                        51.0004
        36.5004
   -609675.82847   -459604.73444
                  23476640.9694                                   23476637.4734
                                                                        45.7504
        29.2504
    445165.66847    363580.64844
                  23259654.5554                                   23259650.7034
                                                                        44.7504
        28.5004
    -89316.00848    -23673.39145
                  21937069.7814                                   21937063.8984
                                                                        49.5004
        33.5004
   2815296.08647   2226980.13344
                  23146689.8054                                   23146687.1764
                                                                        44.2504
        28.7504
   2204939.87546   1752798.75044
                  24149509.4454                                   24149506.0784
                                                                        40.5004
        27.7504
 09 10  9 23 57 30.0000000  0  9G02G04G05G13G29G10G23G30G31
  -5986652.91448  -4595420.96547
                  20376899.1804                                   20376894.3404
                                                                        53.0004
        43.5004
   2106536.67248   1672990.87546
                  21020735.0164                                   21020731.6524
                                                                        53.0004
        40.7504
   6362605.94546   5002539.58644
                  24061391.8834                                   24061389.5124
                                                                        41.2504
        28.2504
  -8078901.88748  -6216662.38346
                  21319733.0634                                   21319728.6454
                                                                        51.5004
        36.0004
   -794038.37547   -603263.85544
                  23441557.2664                                   23441554.2774
                                                                        45.0004
        28.5004
    238177.31347    202291.05944
                  23220265.7034                                   23220262.0864
                                                                        45.5004
        28.5004
   -141490.15248    -64328.55945
                  21927141.6484                                   21927135.8594
                                                                        49.5004
        34.0004
   2791879.19147   2208733.17644
                  23142233.8914                                   23142231.0474
                                                                        44.2504
        28.0004
   2172605.11746   1727602.80944
                  24143356.4224                                   24143353.7274
                                                                        40.0004
        26.0004
 09 10  9 23 58  0.0000000  0  9G02G04G05G13G29G10G23G30G31
  -4527955.33648  -3458773.50447
                  20654480.4304                                   20654475.1684
                                                                        53.0004
        43.5004
   3648706.52748   2874681.67646
                  21314200.1254                                   21314196.5044
                                                                        53.5004
        40.5004
   7729456.64546   6067618.11344
                  24321495.2424                                   24321492.6804
                                                                        41.7504
        29.5004
  -6639601.37148  -5095129.52346
                  21593622.8834                                   21593618.9774
                                                                        51.5004
        36.0004
    597389.70347    480965.83244
                  23706337.4224                                   23706334.3094
                                                                        45.0004
        28.2504
   1606855.03947   1268793.19144
                  23480716.3754                                   23480713.1334
                                                                        46.0004
        28.7504
   1382361.99248   1123088.69545
                  22217121.0314                                   22217115.1954
                                                                        50.0004
        33.5004
   4344412.14547   3418499.07044
                  23437671.0784                                   23437668.0944
                                                                        43.5004
        27.7504
   3716185.00446   2930392.31344
                  24437090.1094                                   24437086.2734
                                                                        41.7504
        25.7504
 09 10  9 23 58 30.0000000  0  9G02G04G05G13G29G10G23G30G31
  -4644097.69148  -3549274.03547
                  20632379.2734                                   20632374.0084
                                                                        52.5004
        43.5004
   3615948.61348   2849156.02746
                  21307966.1724                                   21307963.0434
                                                                        51.7504
        40.5004
   7521039.73047   5905215.36345
                  24281835.4304                                   24281832.3554
                                                                        42.5004
        31.5004
  -6775072.41048  -5200691.37146
                  21567843.2194                                   21567839.3984
                                                                        51.2504
        36.2504
    413759.66847    337877.50844
                  23671393.9534                                   23671391.0274
                                                                        44.5004
        29.2504
   1400348.52347   1107879.04744
                  23441419.2814                                   23441416.5984
                                                                        43.2504
        29.5004
   1331396.25048   1083375.14145
                  22207422.7504                                   22207416.6094
                                                                        49.5004
        34.2504
   4322051.83647   3401075.42644
                  23433415.8204                                   23433413.0204
                                                                        44.2504
        28.5004
   3684836.21546   2905964.64544
                  24431125.0944                                   24431120.6254
                                                                        41.7504
        26.7504
 09 10  9 23 59  0.0000000  0  9G02G04G05G13G29G10G23G30G31
  -4759655.35948  -3639318.97747
                  20610389.4924                                   20610384.0234
                                                                        51.5004
        43.5004
   3583681.86348   2824013.09446
                  21301826.2584                                   21301823.2464
                                                                        51.5004
        40.0004
   7312783.54347   5742937.83245
                  24242206.0634                                   24242202.0044
                                                                        43.0004
        30.7504
  -6909889.60548  -5305743.73046
                  21542188.6954                                   21542184.6454
                                                                        51.2504
        36.7504
    230500.08247    195077.85244
                  23636520.3134                                   23636517.8984
                                                                        44.0004
        29.0004
   1194086.46147    947155.43044
                  23402168.6564                                   23402166.3134
                                                                        44.5004
        29.5004
   1281032.50448   1044130.67245
                  22197838.5474                                   22197833.0394
                                                                        49.5004
        32.7504
   4300216.22347   3384060.62944
                  23429260.6724                                   23429257.7774
                                                                        43.7504
        28.0004
   3653977.64846   2881919.02044
                  24425252.3834                                   24425249.0634
                                                                        39.5004
        24.0004
 09 10  9 23 59 30.0000000  0  9G02G04G05G13G29G10G23G30G31
  -4874627.73048  -3728907.83647
                  20588510.9454                                   20588505.2304
                                                                        51.5004
        43.7504
   3551904.75448   2799251.68846
                  21295779.3134                                   21295776.2504
                                                                        52.0004
        40.2504
   7104690.76646   5580787.66044
                  24202605.9694                                   24202603.5704
                                                                        41.2504
        28.7504
  -7044051.48048  -5410285.45746
                  21516658.5084                                   21516654.7234
                                                                        51.5004
        36.2504
     47613.62547     52568.96145
                  23601718.6174                                   23601716.5204
                                                                        43.5004
        30.2504
    988071.23047    786624.10245
                  23362965.7664                                   23362963.0434
                                                                        44.0004
        31.5004
   1231269.20348   1005354.07045
                  22188368.8984                                   22188363.0354
                                                                        49.2504
        33.2504
   4278902.33647   3367452.40244
                  23425205.1804                                   23425201.9534
                                                                        43.7504
        28.0004
   3623606.67646   2858253.31643
                  24419472.2734                                   24419469.1294
                                                                        41.5004
        23.7504
