     2.11           OBSERVATION DATA    G (GPS)             RINEX VERSION / TYPE
teqc  2019Feb25                         20221121 12:28:20UTCPGM / RUN BY / DATE
OSX ker:10.11.6|Core i5|gcc 4.3 -m64|OSX ker:10.10+|=+      COMMENT
BIT 2 OF LLI FLAGS DATA COLLECTED UNDER A/S CONDITION       COMMENT
04712870                                                    MARKER NAME
2870                                                        MARKER NUMBER
-Unknown-           -Unknown-                               OBSERVER / AGENCY
0220400471          TRIMBLE R7          2.30                REC # / TYPE / VERS
-Unknown-           TRM39105.00     NONE                    ANT # / TYPE
  1449460.7064 -1709241.9096  5952444.3786                  APPROX POSITION XYZ
        0.0000        0.0000        0.0000                  ANTENNA: DELTA H/E/N
     1     1                                                WAVELENGTH FACT L1/2
    20    L1    L2    L5    L6    L7    L8    C1    P1    C2# / TYPES OF OBSERV
          P2    C5    C6    C7    C8    S1    S2    S5    S6# / TYPES OF OBSERV
          S7    S8                                          # / TYPES OF OBSERV
    30.0000                                                 INTERVAL
    15                                                      LEAP SECONDS
Forced Modulo Decimation to 30 seconds                      COMMENT
 SNR is mapped to RINEX snr flag value [0-9]                COMMENT
  L1 & L2: min(max(int(snr_dBHz/6), 0), 9)                  COMMENT
teqc edited: Beidou # 1 - 37 excluded                       COMMENT
  2009    10    14     0     0    0.0000000     GPS         TIME OF FIRST OBS
                                                            END OF HEADER
 09 10 14  0  0  0.0000000  0  9G02G04G05G13G29G23G30G10G25
 -11078860.87148  -8577506.07047
                  20474811.1564                                   20474806.0004
                                                                        52.5004
        43.2504
  -2596809.17648  -2000421.07046
                  21718682.4064                                   21718678.6644
                                                                        51.0004
        38.5004
  -8609326.56247  -6663368.40645
                  23428023.6334                                   23428020.1094
                                                                        44.0004
        31.2504
 -13073082.44548 -10123995.98046
                  21288207.0554                                   21288202.6804
                                                                        49.7504
        36.5004
 -14128642.83247 -10972309.41045
                  23020252.3834                                   23020248.4884
                                                                        43.2504
        32.5004
  -4677057.30147  -3613687.11745
                  22481848.6564                                   22481842.8164
                                                                        47.2504
        33.0004
  -1701594.75047  -1305058.64143
                  23900961.9694                                   23900959.7544
                                                                        43.0004
        22.5004
 -14343609.57847 -11129761.79345
                  22584694.9224                                   22584691.6334
                                                                        46.5004
        33.0004
  -2570348.32046  -1963907.56644
                  24008743.3594                                   24008740.0474
                                                                        41.2504
        24.7504
 09 10 14  0  0 30.0000000  0  9G02G04G05G13G29G23G30G10G25
 -11155409.55548  -8637154.40647
                  20460244.4534                                   20460238.6094
                                                                        52.7504
        43.0004
  -2594415.22348  -1998555.67246
                  21719137.9774                                   21719134.4384
                                                                        50.0004
        38.2504
  -8792569.32447  -6806154.94545
                  23393154.6024                                   23393150.6454
                                                                        45.2504
        33.0004
 -13165885.50448 -10196310.04346
                  21270547.2664                                   21270543.0824
                                                                        50.0004
        36.5004
 -14279024.73847 -11089490.10545
                  22991635.9064                                   22991632.3204
                                                                        44.2504
        32.2504
  -4689616.94148  -3623473.86745
                  22479458.6884                                   22479452.8984
                                                                        48.0004
        31.7504
  -1688761.57447  -1295058.77343
                  23903404.0554                                   23903401.5594
                                                                        42.7504
        21.7504
 -14521210.91447 -11268152.44145
                  22550899.0164                                   22550895.6644
                                                                        47.5004
        33.5004
  -2731520.13346  -2089495.91043
                  23978072.4694                                   23978069.4964
                                                                        40.5004
        22.7504
 09 10 14  0  1  0.0000000  0  9G02G04G05G13G29G23G30G10G25
 -11231341.81648  -8696322.41447
                  20445795.1564                                   20445789.5554
                                                                        52.5004
        43.5004
  -2591587.87548  -1996352.57046
                  21719675.8834                                   21719672.2894
                                                                        50.0004
        37.5004
  -8975567.41447  -6948750.82845
                  23358330.8984                                   23358326.8954
                                                                        45.5004
        33.7504
 -13257989.46148 -10268079.37946
                  21253020.5784                                   21253015.7114
                                                                        50.0004
        36.5004
 -14428936.35547 -11206304.34845
                  22963108.5314                                   22963104.4774
                                                                        43.7504
        33.0004
  -4701632.81647  -3632836.89145
                  22477172.1414                                   22477165.9774
                                                                        47.2504
        30.7504
  -1675503.80947  -1284728.04743
                  23905927.7274                                   23905923.7734
                                                                        42.5004
        22.7504
 -14698471.78547 -11406277.80945
                  22517167.1644                                   22517163.6954
                                                                        46.5004
        34.0004
  -2892333.57846  -2214805.02043
                  23947471.3594                                   23947468.1134
                                                                        41.2504
        22.7504
 09 10 14  0  1 30.0000000  0  9G02G04G05G13G29G23G30G10G25
 -11306660.02048  -8755011.90647
                  20431462.6174                                   20431456.7974
                                                                        52.5004
        42.5004
  -2588331.33248  -1993815.07846
                  21720295.8284                                   21720291.9494
                                                                        50.5004
        37.5004
  -9158320.92247  -7091156.14145
                  23323554.4774                                   23323550.8484
                                                                        45.0004
        33.0004
 -13349395.50448 -10339304.85546
                  21235626.4614                                   21235621.8794
                                                                        50.5004
        36.5004
 -14578377.67647 -11322752.14545
                  22934670.3754                                   22934666.9414
                                                                        43.7504
        32.0004
  -4713109.51247  -3641779.72345
                  22474988.3134                                   22474981.9614
                                                                        47.5004
        31.7504
  -1661826.77047  -1274070.57443
                  23908530.5554                                   23908526.7074
                                                                        43.7504
        23.5004
 -14875392.55147 -11544138.12545
                  22483499.9224                                   22483497.0234
                                                                        46.5004
        33.5004
  -3052788.04346  -2339834.49643
                  23916937.6564                                   23916934.3134
                                                                        41.2504
        22.5004
 09 10 14  0  2  0.0000000  0  9G02G04G05G13G29G23G30G10G25
 -11381362.58648  -8813221.64547
                  20417247.2584                                   20417241.3444
                                                                        52.7504
        42.7504
  -2584646.34448  -1990943.68446
                  21720996.8364                                   21720993.6524
                                                                        50.7504
        37.5004
  -9340826.95747  -7233368.63745
                  23288823.7974                                   23288820.0314
                                                                        45.0004
        33.2504
 -13440102.62548 -10409985.72346
                  21218365.1644                                   21218360.8094
                                                                        50.0004
        37.0004
 -14727344.95747 -11438830.54745
                  22906323.4694                                   22906319.5824
                                                                        44.0004
        32.0004
  -4724048.40247  -3650303.53545
                  22472906.5474                                   22472900.4344
                                                                        47.0004
        31.2504
  -1647732.62947  -1263088.13343
                  23911212.2274                                   23911208.8914
                                                                        44.0004
        22.7504
 -15051970.16447 -11681731.02745
                  22449898.6804                                   22449895.4184
                                                                        44.7504
        33.7504
  -3212879.62947  -2464581.16443
                  23886473.3914                                   23886469.3164
                                                                        42.5004
        22.5004
 09 10 14  0  2 30.0000000  0  9G02G04G05G13G29G23G30G10G25
 -11455449.37148  -8870951.47347
                  20403148.8204                                   20403143.1334
                                                                        52.5004
        42.5004
  -2580534.88348  -1987739.98046
                  21721779.3754                                   21721776.2734
                                                                        50.0004
        37.7504
  -9523083.38747  -7375386.62945
                  23254141.2504                                   23254137.8324
                                                                        44.5004
        30.5004
 -13530110.30148 -10480121.56246
                  21201237.5164                                   21201232.9184
                                                                        50.0004
        37.0004
 -14875836.30947 -11554538.09445
                  22878066.2034                                   22878062.4734
                                                                        43.2504
        31.7504
  -4734451.84847  -3658410.09445
                  22470926.5634                                   22470920.5824
                                                                        46.5004
        31.0004
  -1633224.50847  -1251783.14844
                  23913973.0474                                   23913969.8554
                                                                        42.2504
        24.5004
 -15228202.48447 -11819054.87145
                  22416362.5784                                   22416359.3874
                                                                        46.2504
        33.7504
  -3372605.91447  -2589043.18043
                  23856078.4144                                   23856074.6134
                                                                        42.7504
        22.0004
 09 10 14  0  3  0.0000000  0  9G02G04G05G13G29G23G30G10G25
 -11528921.86748  -8928202.76647
                  20389167.4454                                   20389161.6914
                                                                        52.0004
        42.5004
  -2576000.22748  -1984206.44146
                  21722642.6564                                   21722638.9494
                                                                        50.0004
        37.5004
  -9705089.86747  -7517209.85545
                  23219506.7504                                   23219503.0744
                                                                        45.2504
        31.0004
 -13619419.62948 -10549713.23446
                  21184242.6024                                   21184238.5394
                                                                        49.2504
        37.0004
 -15023850.15247 -11669873.52345
                  22849899.5784                                   22849896.1954
                                                                        43.0004
        32.0004
  -4744323.07447  -3666101.94545
                  22469048.0704                                   22469041.8404
                                                                        46.2504
        30.2504
  -1618306.41046  -1240158.68443
                  23916811.6564                                   23916809.2734
                                                                        41.5004
        22.5004
 -15404088.31647 -11956108.79745
                  22382892.7274                                   22382889.0124
                                                                        47.2504
        35.0004
  -3531965.34447  -2713219.34843
                  23825753.3754                                   23825749.6414
                                                                        42.5004
        22.5004
 09 10 14  0  3 30.0000000  0  9G02G04G05G13G29G23G30G10G25
 -11601779.42248  -8984974.96147
                  20375303.0084                                   20375297.1024
                                                                        52.2504
        42.5004
  -2571043.98848  -1980344.42646
                  21723585.3364                                   21723582.2624
                                                                        50.0004
        38.0004
  -9886843.36747  -7658835.96945
                  23184920.8984                                   23184916.9534
                                                                        47.0004
        33.0004
 -13708029.80548 -10618760.12946
                  21167380.5944                                   21167376.2114
                                                                        49.2504
        37.2504
 -15171384.19547 -11784835.07845
                  22821824.7424                                   22821821.8094
                                                                        44.2504
        32.0004
  -4753664.14847  -3673380.68745
                  22467270.6094                                   22467265.1024
                                                                        46.0004
        30.7504
  -1602981.68746  -1228217.36343
                  23919728.3834                                   23919725.1174
                                                                        41.5004
        22.7504
 -15579625.36747 -12092890.96545
                  22349489.3444                                   22349485.9144
                                                                        46.5004
        33.7504
  -3690955.00446  -2837107.39544
                  23795498.9694                                   23795495.0354
                                                                        41.5004
        24.5004
 09 10 14  0  4  0.0000000  0  9G02G04G05G13G29G23G30G10G25
 -11674021.66048  -9041267.63747
                  20361556.0864                                   20361550.2274
                                                                        52.5004
        42.7504
  -2565668.47348  -1976155.73046
                  21724608.6484                                   21724604.7344
                                                                        49.0004
        37.5004
 -10068343.01247  -7800264.27745
                  23150382.7734                                   23150378.3524
                                                                        47.0004
        32.7504
 -13795940.62148 -10687262.06246
                  21150651.2814                                   21150647.0784
                                                                        49.0004
        36.7504
 -15318436.53147 -11899421.26245
                  22793841.7584                                   22793838.3554
                                                                        44.2504
        33.0004
  -4762477.27347  -3680248.05545
                  22465593.7734                                   22465587.8364
                                                                        47.5004
        31.7504
  -1587253.47746  -1215961.66044
                  23922720.8754                                   23922718.3324
                                                                        41.5004
        24.7504
 -15754811.57447 -12229399.68045
                  22316152.5004                                   22316148.8204
                                                                        46.2504
        34.2504
  -3849572.40246  -2960705.31643
                  23765314.6644                                   23765311.6644
                                                                        40.0004
        22.5004
 09 10 14  0  4 30.0000000  0  9G02G04G05G13G29G23G30G10G25
 -11745650.00848  -9097081.98847
                  20347925.3524                                   20347919.5394
                                                                        51.7504
        42.2504
  -2559876.59048  -1971642.57846
                  21725710.2734                                   21725707.1094
                                                                        48.7504
        37.5004
 -10249587.57847  -7941493.80945
                  23115893.1954                                   23115888.8364
                                                                        47.0004
        34.2504
 -13883153.03548 -10755219.79746
                  21134055.5704                                   21134051.1214
                                                                        49.5004
        37.2504
 -15465006.23047 -12013631.40245
                  22765950.4774                                   22765946.9774
                                                                        44.2504
        33.7504
  -4770765.91447  -3686706.72745
                  22464017.2034                                   22464010.4614
                                                                        46.5004
        31.5004
  -1571126.59046  -1203395.30943
                  23925789.7814                                   23925787.3094
                                                                        41.2504
        22.2504
 -15929645.76247 -12365634.07845
                  22282882.7974                                   22282878.8364
                                                                        46.0004
        33.5004
  -4007815.97346  -3084011.94144
                  23735201.8594                                   23735198.5904
                                                                        39.7504
        24.0004
 09 10 14  0  5  0.0000000  0  9G02G04G05G13G29G23G30G10G25
 -11816664.44948  -9152417.86347
                  20334412.0634                                   20334406.2154
                                                                        52.2504
        42.7504
  -2553671.07048  -1966807.15246
                  21726891.5164                                   21726887.7424
                                                                        49.7504
        37.2504
 -10430575.50847  -8082523.32445
                  23081451.5234                                   23081448.3554
                                                                        47.2504
        33.5004
 -13969667.37148 -10822633.55546
                  21117592.5084                                   21117588.3794
                                                                        49.5004
        36.5004
 -15611091.75847 -12127464.28145
                  22738151.6954                                   22738148.1994
                                                                        45.0004
        33.7504
  -4778533.06647  -3692759.04345
                  22462538.5394                                   22462532.5394
                                                                        46.5004
        31.5004
  -1554604.10247  -1190520.66043
                  23928934.2894                                   23928930.8364
                                                                        42.0004
        23.2504
 -16104126.71547 -12501593.21545
                  22249679.4454                                   22249676.6454
                                                                        46.5004
        34.0004
  -4165683.84446  -3207025.82843
                  23705160.8284                                   23705157.2894
                                                                        41.2504
        22.5004
 09 10 14  0  5 30.0000000  0  9G02G04G05G13G29G23G30G10G25
 -11887066.84848  -9207276.85947
                  20321014.7034                                   20321009.0944
                                                                        51.7504
        42.7504
  -2547055.56248  -1961652.25046
                  21728150.2734                                   21728146.5434
                                                                        48.5004
        36.5004
 -10611306.73847  -8223352.82445
                  23047059.3754                                   23047055.9804
                                                                        45.7504
        32.2504
 -14055485.34848 -10889504.70346
                  21101262.0234                                   21101257.5864
                                                                        49.2504
        37.2504
 -15756692.03147 -12240919.02345
                  22710444.9924                                   22710441.2034
                                                                        44.7504
        34.2504
  -4785782.64147  -3698408.05945
                  22461159.3444                                   22461153.1644
                                                                        47.2504
        31.2504
  -1537691.35547  -1177341.87544
                  23932152.9534                                   23932149.3324
                                                                        42.5004
        25.5004
 -16278254.04747 -12637276.87545
                  22216544.3284                                   22216541.3244
                                                                        46.2504
        34.5004
  -4323174.73846  -3329745.95744
                  23675190.8674                                   23675187.8164
                                                                        40.2504
        24.5004
 09 10 14  0  6  0.0000000  0  9G02G04G05G13G29G23G30G10G25
 -11956857.44148  -9261659.18447
                  20307734.0474                                   20307728.1684
                                                                        51.0004
        42.5004
  -2540032.07048  -1956179.38746
                  21729486.6954                                   21729483.5354
                                                                        48.7504
        37.7504
 -10791779.50447  -8363980.94945
                  23012716.9224                                   23012713.1564
                                                                        46.5004
        33.0004
 -14140606.09448 -10955832.55146
                  21085064.0164                                   21085059.8594
                                                                        49.7504
        36.7504
 -15901805.08647 -12353994.11345
                  22682830.6804                                   22682827.2504
                                                                        45.7504
        33.5004
  -4792517.19947  -3703655.77045
                  22459877.5554                                   22459871.5124
                                                                        46.5004
        30.7504
  -1520391.73047  -1163861.60943
                  23935444.5944                                   23935441.7384
                                                                        43.5004
        23.0004
 -16452025.68747 -12772683.36745
                  22183477.0394                                   22183473.6914
                                                                        46.5004
        34.7504
  -4480286.44947  -3452170.63744
                  23645293.5784                                   23645290.1644
                                                                        42.2504
        24.0004
 09 10 14  0  6 30.0000000  0  9G02G04G05G13G29G23G30G10G25
 -10450614.25448  -8087963.25047
                  20594362.6484                                   20594357.0664
                                                                        52.0004
        42.0004
   -957183.42248   -722790.82846
                  22030693.2814                                   22030689.6294
                                                                        50.0004
        37.5004
  -9396566.23047  -7276801.78545
                  23278217.4454                                   23278213.3754
                                                                        46.5004
        34.0004
 -12649607.68048  -9794015.60546
                  21368791.2894                                   21368787.3054
                                                                        49.0004
        36.7504
 -14471004.79347 -11239084.78145
                  22955103.1024                                   22955099.7424
                                                                        44.5004
        33.0004
  -3223319.18747  -2480904.07845
                  22758485.7814                                   22758479.6414
                                                                        46.2504
        31.2504
     72710.27047     77516.58243
                  24238601.8284                                   24238598.7504
                                                                        42.5004
        22.2504
 -15050014.09047 -11680206.77045
                  22450271.0234                                   22450267.7894
                                                                        46.7504
        34.7504
  -3061591.50046  -2346694.05944
                  23915262.6414                                   23915258.4924
                                                                        41.7504
        26.5004
 09 10 14  0  7  0.0000000  0  9G02G04G05G13G29G23G30G10G25
 -10519184.08648  -8141394.35247
                  20581314.1884                                   20581308.6454
                                                                        51.7504
        42.0004
   -949353.83248   -716689.88746
                  22032182.7584                                   22032179.3524
                                                                        49.2504
        37.2504
  -9576519.34447  -7417025.06245
                  23243973.6724                                   23243969.5864
                                                                        47.2504
        33.2504
 -12733337.81248  -9859259.86746
                  21352858.5394                                   21352853.7504
                                                                        49.5004
        36.0004
 -14615140.62547 -11351398.41045
                  22927674.7814                                   22927670.5864
                                                                        44.7504
        31.5004
  -3229033.60947  -2485356.88345
                  22757398.2584                                   22757392.5354
                                                                        46.0004
        30.0004
     90770.43447     91589.44543
                  24242038.3984                                   24242034.6454
                                                                        42.5004
        22.7504
 -15223071.18047 -11815056.40245
                  22417339.5864                                   22417335.5314
                                                                        47.5004
        34.5004
  -3217940.20346  -2468524.20343
                  23885510.5634                                   23885505.8094
                                                                        41.7504
        22.5004
 09 10 14  0  7 30.0000000  0  9G02G04G05G13G29G23G30G10G25
 -10587141.72348  -8194348.35947
                  20568382.2584                                   20568376.4494
                                                                        51.2504
        42.7504
   -941122.16448   -710275.60946
                  22033749.0234                                   22033746.0744
                                                                        49.7504
        36.7504
  -9756208.46547  -7557042.62145
                  23209780.4304                                   23209775.7074
                                                                        47.5004
        34.2504
 -12816370.71148  -9923960.83246
                  21337057.8134                                   21337053.0554
                                                                        50.7504
        37.0004
 -14758782.83647 -11463327.40245
                  22900340.3284                                   22900336.5824
                                                                        44.2504
        32.0004
  -3234239.73047  -2489413.60545
                  22756407.4064                                   22756401.6454
                                                                        45.2504
        30.0004
    109207.84846    105956.27043
                  24245546.3674                                   24245544.1334
                                                                        41.5004
        21.7504
 -15395766.13747 -11949623.84445
                  22384476.3914                                   22384472.9614
                                                                        47.5004
        34.7504
  -3373901.71947  -2590052.61743
                  23855832.0394                                   23855827.7974
                                                                        42.0004
        22.5004
 09 10 14  0  8  0.0000000  0  9G02G04G05G13G29G23G30G10G25
 -10654489.69548  -8246827.31247
                  20555566.4534                                   20555560.6484
                                                                        51.5004
        42.2504
   -932493.17248   -703551.72746
                  22035391.3364                                   22035388.0944
                                                                        49.5004
        36.7504
  -9935633.42247  -7696854.27745
                  23175636.1254                                   23175632.5044
                                                                        47.5004
        33.0004
 -12898708.68048  -9988120.30946
                  21321389.2814                                   21321384.9844
                                                                        49.7504
        37.0004
 -14901931.79747 -11574872.04345
                  22873099.9774                                   22873096.0274
                                                                        44.5004
        32.2504
  -3238942.41447  -2493078.01645
                  22755513.0554                                   22755506.5474
                                                                        46.0004
        30.2504
    128016.72746    120612.48843
                  24249125.6954                                   24249123.4694
                                                                        40.7504
        22.5004
 -15568099.37148 -12083909.47745
                  22351682.1564                                   22351678.8204
                                                                        48.0004
        34.5004
  -3529475.71546  -2711279.03944
                  23826226.5234                                   23826223.2974
                                                                        40.2504
        24.5004
 09 10 14  0  8 30.0000000  0  9G02G04G05G13G29G23G30G10G25
 -10721227.78548  -8298831.03147
                  20542866.6254                                   20542861.2114
                                                                        51.0004
        42.5004
   -923468.50048   -696519.52046
                  22037108.6644                                   22037105.0944
                                                                        49.5004
        37.5004
 -10114792.53947  -7836458.89545
                  23141543.3134                                   23141539.9844
                                                                        47.2504
        34.0004
 -12980351.73448 -10051738.26646
                  21305853.3674                                   21305848.6134
                                                                        50.2504
        37.2504
 -15044584.95347 -11686030.34445
                  22845954.5784                                   22845950.4344
                                                                        45.0004
        32.5004
  -3243143.85547  -2496351.84444
                  22754713.5394                                   22754706.8794
                                                                        47.0004
        29.7504
    147194.39546    135556.02343
                  24252775.0944                                   24252772.8484
                                                                        41.0004
        21.5004
 -15740068.82447 -12217911.64845
                  22318957.9924                                   22318953.8634
                                                                        47.5004
        34.5004
  -3684659.89846  -2832201.70344
                  23796695.4064                                   23796692.6374
                                                                        40.2504
        25.0004
 09 10 14  0  9  0.0000000  0  9G02G04G05G13G29G23G30G10G25
 -10787354.90648  -8350358.64547
                  20530283.0474                                   20530277.7034
                                                                        52.0004
        42.7504
   -914049.05948   -689179.67246
                  22038900.8674                                   22038897.8484
                                                                        49.5004
        37.0004
 -10293682.39147  -7975853.60945
                  23107501.6644                                   23107497.9844
                                                                        47.0004
        33.5004
 -13061298.00048 -10114813.26646
                  21290449.0944                                   21290445.0784
                                                                        50.0004
        37.0004
 -15186739.11347 -11796799.80945
                  22818903.2344                                   22818899.5664
                                                                        45.0004
        34.0004
  -3246845.53947  -2499236.27344
                  22754009.1884                                   22754002.7704
                                                                        45.7504
        29.5004
    166738.32046    150785.00044
                  24256494.4694                                   24256492.2974
                                                                        41.7504
        24.2504
 -15911670.91047 -12351627.66845
                  22286302.5704                                   22286299.5084
                                                                        47.5004
        35.0004
  -3839450.29746  -2952817.49643
                  23767240.1254                                   23767237.0634
                                                                        41.0004
        23.7504
 09 10 14  0  9 30.0000000  0  9G02G04G05G13G29G23G30G10G25
 -10852873.11348  -8401411.83247
                  20517815.2584                                   20517809.9844
                                                                        51.7504
        42.5004
   -904238.78548   -681535.30546
                  22040767.8914                                   22040764.6024
                                                                        49.7504
        36.7504
 -10472302.69947  -8115038.27045
                  23073511.8204                                   23073507.8284
                                                                        47.7504
        33.7504
 -13141549.74648 -10177347.11346
                  21275177.8674                                   21275173.5784
                                                                        50.0004
        36.0004
 -15328394.04347 -11907180.27045
                  22791947.1954                                   22791943.3284
                                                                        46.2504
        33.2504
  -3250051.04347  -2501734.05945
                  22753398.7894                                   22753392.3714
                                                                        47.0004
        30.2504
    186643.64847    166295.60544
                  24260282.4534                                   24260280.0474
                                                                        43.5004
        25.5004
 -16082905.08647 -12485056.88345
                  22253718.3674                                   22253714.3324
                                                                        47.2504
        34.7504
  -3993846.14146  -3073125.85944
                  23737859.5394                                   23737856.7774
                                                                        41.5004
        25.5004
 09 10 14  0 10  0.0000000  0  8G02G04G05G13G29G23G10G25
 -10917781.37548  -8451989.68047
                  20505463.9384                                   20505458.0044
                                                                        51.7504
        42.7504
   -894039.07848   -673587.46946
                  22042708.6174                                   22042705.6914
                                                                        49.0004
        36.5004
 -10650651.25448  -8254011.20345
                  23039572.9224                                   23039569.0314
                                                                        48.2504
        34.5004
 -13221106.20748 -10239339.16846
                  21260039.0784                                   21260034.7114
                                                                        49.2504
        36.7504
 -15469547.07847 -12017169.64845
                  22765086.4844                                   22765082.8164
                                                                        45.7504
        34.0004
  -3252762.25447  -2503846.69945
                  22752883.1334                                   22752876.7974
                                                                        46.0004
        30.0004
 -16253769.18047 -12618197.78545
                  22221203.7424                                   22221200.0944
                                                                        47.5004
        34.7504
  -4147844.08247  -3193124.15644
                  23708555.0084                                   23708551.5044
                                                                        42.5004
        25.2504
 09 10 14  0 10 30.0000000  0  8G02G04G05G13G29G23G10G25
 -10982079.25048  -8502091.91047
                  20493228.1564                                   20493222.7034
                                                                        52.2504
        42.5004
   -883451.48848   -665337.43746
                  22044723.8524                                   22044720.1484
                                                                        49.2504
        36.7504
 -10828725.34047  -8392770.23045
                  23005686.7344                                   23005682.7704
                                                                        47.7504
        34.0004
 -13299967.03548 -10300789.17646
                  21245032.3204                                   21245028.0784
                                                                        49.0004
        36.5004
 -15610195.36747 -12126765.71145
                  22738322.3284                                   22738318.6334
                                                                        45.5004
        34.2504
  -3254981.33247  -2505575.83245
                  22752460.8834                                   22752454.5234
                                                                        45.2504
        30.5004
 -16424260.30147 -12751047.99646
                  22188760.4614                                   22188757.3674
                                                                        46.7504
        36.0004
  -4301441.43047  -3312810.32444
                  23679326.5944                                   23679322.4884
                                                                        43.2504
        26.0004
 09 10 14  0 11  0.0000000  0  8G02G04G05G13G29G23G10G25
 -11045764.50448  -8551716.72347
                  20481109.3204                                   20481103.6214
                                                                        52.0004
        43.0004
   -872475.39148   -656784.63346
                  22046812.5314                                   22046808.6914
                                                                        49.7504
        36.7504
 -11006520.35947  -8531311.77045
                  22971853.3054                                   22971849.8364
                                                                        47.0004
        34.2504
 -13378129.90648 -10361695.31646
                  21230158.2734                                   21230154.0554
                                                                        49.5004
        37.2504
 -15750334.21947 -12235964.80945
                  22711654.7814                                   22711651.4064
                                                                        46.2504
        33.7504
  -3256708.19147  -2506921.44544
                  22752131.9844                                   22752125.8094
                                                                        44.2504
        28.7504
 -16594374.02347 -12883604.16845
                  22156389.1334                                   22156385.4734
                                                                        47.2504
        35.5004
  -4454632.67647  -3432180.09444
                  23650174.9774                                   23650171.0514
                                                                        43.0004
        26.7504
 09 10 14  0 11 30.0000000  0  8G02G04G05G13G29G23G10G25
 -11108838.02348  -8600864.89847
                  20469106.8594                                   20469101.3164
                                                                        52.2504
        43.0004
   -861113.27048   -647931.01646
                  22048974.4924                                   22048971.2274
                                                                        48.2504
        36.5004
 -11184035.16847  -8669634.99245
                  22938073.1484                                   22938069.5864
                                                                        47.5004
        34.0004
 -13455594.88748 -10422057.65646
                  21215417.5004                                   21215412.9414
                                                                        49.0004
        37.2504
 -15889962.09047 -12344765.74645
                  22685084.5234                                   22685080.8484
                                                                        46.0004
        34.0004
  -3257945.32447  -2507885.44145
                  22751896.9534                                   22751890.6564
                                                                        44.2504
        30.0004
 -16764108.54347 -13015864.83245
                  22124089.4614                                   22124085.9844
                                                                        46.5004
        35.5004
  -4607415.93447  -3551231.93444
                  23621101.3134                                   23621097.3594
                                                                        43.0004
        25.0004
 09 10 14  0 12  0.0000000  0  8G02G04G05G13G29G23G10G25
 -11171301.81248  -8649537.97347
                  20457220.7734                                   20457214.6764
                                                                        53.0004
        43.0004
   -849369.23048   -638779.83246
                  22051209.2974                                   22051205.6644
                                                                        49.2504
        36.0004
 -11361269.57047  -8807739.71945
                  22904346.7584                                   22904342.9534
                                                                        47.7504
        34.5004
 -13532364.16048 -10481877.87546
                  21200808.7894                                   21200804.5044
                                                                        49.0004
        36.5004
 -16029078.79347 -12453168.37145
                  22658610.9224                                   22658607.9574
                                                                        46.0004
        33.7504
  -3258697.26647  -2508471.36744
                  22751753.2274                                   22751747.4804
                                                                        45.7504
        29.5004
 -16933463.49647 -13147829.66845
                  22091862.4224                                   22091858.8754
                                                                        47.5004
        35.2504
  -4759790.72747  -3669965.52744
                  23592105.6254                                   23592101.0124
                                                                        43.5004
        25.0004
 09 10 14  0 12 30.0000000  0  8G02G04G05G13G29G23G10G25
 -11233158.11748  -8697737.71947
                  20445449.9304                                   20445443.8554
                                                                        52.7504
        42.5004
   -837247.44548   -629334.29746
                  22053515.7664                                   22053512.3984
                                                                        48.5004
        36.5004
 -11538223.92248  -8945626.19945
                  22870673.6334                                   22870670.0554
                                                                        48.0004
        34.7504
 -13608440.11348 -10541157.85546
                  21186331.8754                                   21186327.6884
                                                                        48.5004
        36.5004
 -16167684.55547 -12561172.84845
                  22632235.4064                                   22632232.1094
                                                                        44.7504
        34.5004
  -3258968.71147  -2508682.89545
                  22751701.9064                                   22751695.7934
                                                                        45.2504
        30.2504
 -17102439.42247 -13279499.22745
                  22059707.2424                                   22059703.2774
                                                                        47.0004
        34.7504
  -4911756.54746  -3788380.43444
                  23563187.0704                                   23563183.2974
                                                                        41.2504
        24.0004
 09 10 14  0 13  0.0000000  0  8G02G04G05G13G29G23G10G25
 -11294411.10248  -8745467.32447
                  20433793.7894                                   20433788.0664
                                                                        52.2504
        42.2504
   -824754.30548   -619599.39145
                  22055893.5704                                   22055890.2194
                                                                        49.0004
        35.5004
 -11714900.28148  -9083296.05545
                  22837053.0704                                   22837049.4694
                                                                        48.0004
        35.5004
 -13683827.10248 -10599901.02046
                  21171986.5474                                   21171982.0434
                                                                        49.5004
        37.2504
 -16305781.48847 -12668780.84445
                  22605956.5864                                   22605953.1414
                                                                        46.7504
        34.0004
  -3258766.21547  -2508525.10945
                  22751740.7424                                   22751734.3134
                                                                        45.0004
        30.2504
 -17271038.60547 -13410875.20745
                  22027624.0944                                   22027620.3164
                                                                        47.7504
        35.5004
  -5063315.14546  -3906477.97344
                  23534346.0394                                   23534342.9654
                                                                        41.5004
        24.0004
 09 10 14  0 13 30.0000000  0  8G02G04G05G13G29G23G10G25
 -11355063.22748  -8792728.69147
                  20422252.0554                                   20422246.2074
                                                                        52.5004
        42.7504
   -811893.75047   -609578.18446
                  22058340.4774                                   22058337.5234
                                                                        47.7504
        36.2504
 -11891299.05147  -9220749.62545
                  22803485.4534                                   22803481.7854
                                                                        47.0004
        34.5004
 -13758527.40648 -10658109.04346
                  21157771.1724                                   21157767.0084
                                                                        48.5004
        36.5004
 -16443369.90247 -12775992.59845
                  22579774.1564                                   22579770.3984
                                                                        46.5004
        33.5004
  -3258094.38747  -2508001.60245
                  22751868.3984                                   22751862.0744
                                                                        45.5004
        30.0004
 -17439260.91848 -13541957.56245
                  21995612.3364                                   21995608.8834
                                                                        48.0004
        35.7504
  -5214466.14147  -4024257.95344
                  23505583.1414                                   23505579.7154
                                                                        42.2504
        25.2504
 09 10 14  0 14  0.0000000  0  8G02G04G05G13G29G23G10G25
 -11415115.00848  -8839522.27747
                  20410824.2504                                   20410818.7384
                                                                        52.0004
        42.5004
   -798668.46147   -599272.78945
                  22060857.5634                                   22060853.9734
                                                                        47.7504
        35.5004
 -12067418.36347  -9357985.43745
                  22769970.7504                                   22769967.8364
                                                                        46.7504
        35.5004
 -13832541.60248 -10715782.43046
                  21143686.7424                                   21143682.5904
                                                                        49.0004
        36.5004
 -16580447.61747 -12882806.40645
                  22553689.3204                                   22553685.4614
                                                                        46.5004
        33.5004
  -3256955.92647  -2507114.48844
                  22752085.1024                                   22752078.7154
                                                                        45.0004
        28.7504
 -17607104.27048 -13672744.59845
                  21963672.4454                                   21963669.0004
                                                                        48.0004
        35.5004
  -5365207.39147  -4141718.64844
                  23476898.2894                                   23476894.3324
                                                                        43.0004
        25.5004
 09 10 14  0 14 30.0000000  0  8G02G04G05G13G29G23G10G25
 -11474565.23448  -8885847.15647
                  20399511.0314                                   20399505.5354
                                                                        52.0004
        42.2504
   -785078.52348   -588683.23046
                  22063443.7894                                   22063439.9104
                                                                        48.7504
        36.5004
 -12243254.67647  -9495000.71945
                  22736510.1954                                   22736506.7704
                                                                        46.0004
        35.2504
 -13905868.03548 -10772919.88746
                  21129733.2274                                   21129728.5904
                                                                        49.0004
        37.0004
 -16717011.11747 -12989219.52045
                  22527701.9774                                   22527698.4264
                                                                        46.7504
        34.2504
  -3255351.57447  -2505864.32444
                  22752390.7424                                   22752384.2504
                                                                        46.2504
        28.7504
 -17774565.10547 -13803233.53146
                  21931805.7584                                   21931802.6644
                                                                        47.7504
        36.5004
  -5515534.64547  -4258856.73044
                  23448292.1484                                   23448288.2704
                                                                        43.2504
        26.5004
 09 10 14  0 15  0.0000000  0  8G02G04G05G13G29G23G10G25
 -11533417.53548  -8931706.06247
                  20388312.1564                                   20388306.6484
                                                                        51.0004
        42.2504
   -771130.05948   -577814.32046
                  22066098.0394                                   22066094.7664
                                                                        49.2504
        36.2504
 -12418809.72747  -9631796.83245
                  22703103.2424                                   22703099.7114
                                                                        45.2504
        35.0004
 -13978510.93448 -10829524.78146
                  21115909.8834                                   21115904.9534
                                                                        51.0004
        36.7504
 -16853062.10247 -13095233.27745
                  22501812.5314                                   22501808.4534
                                                                        46.2504
        34.0004
  -3253287.25847  -2504255.76244
                  22752783.2034                                   22752776.6604
                                                                        46.0004
        28.7504
 -17941645.20348 -13933425.82846
                  21900011.9144                                   21900008.5084
                                                                        48.5004
        36.7504
  -5665449.08647  -4375673.14844
                  23419764.2504                                   23419760.4884
                                                                        42.7504
        26.5004
 09 10 14  0 15 30.0000000  0  8G02G04G05G13G29G23G10G25
 -11591673.91848  -8977100.68447
                  20377225.9774                                   20377220.4654
                                                                        51.5004
        42.5004
   -756826.33648   -566668.55146
                  22068819.8284                                   22068816.3134
                                                                        49.2504
        36.2504
 -12594083.24647  -9768373.59445
                  22669750.0004                                   22669746.2854
                                                                        47.0004
        35.2504
 -14050472.25848 -10885598.57446
                  21102215.6564                                   21102211.4924
                                                                        49.7504
        37.0004
 -16988600.19147 -13200847.37945
                  22476020.3444                                   22476016.3834
                                                                        47.0004
        34.0004
  -3250767.35947  -2502292.18044
                  22753262.4064                                   22753255.6024
                                                                        44.5004
        27.2504
 -18108343.83648 -14063320.87546
                  21868290.3284                                   21868286.6054
                                                                        48.0004
        36.0004
  -5814949.86747  -4492167.24644
                  23391315.3914                                   23391311.3984
                                                                        43.0004
        27.2504
 09 10 14  0 16  0.0000000  0  8G02G04G05G13G29G23G10G25
 -11649332.42248  -9022029.41047
                  20366254.0474                                   20366248.2854
                                                                        51.0004
        42.5004
   -742167.44548   -555246.06245
                  22071609.3054                                   22071606.2664
                                                                        49.7504
        35.7504
 -12769071.37147  -9904728.00046
                  22636450.9774                                   22636447.2304
                                                                        46.7504
        36.0004
 -14121749.63348 -10941139.37946
                  21088652.3984                                   21088648.0944
                                                                        51.0004
        36.2504
 -17123621.19547 -13306058.53145
                  22450326.8204                                   22450322.9654
                                                                        46.0004
        34.2504
  -3247792.44947  -2499974.05544
                  22753828.7194                                   22753822.1484
                                                                        45.2504
        27.5004
 -18274656.66447 -14192915.26246
                  21836641.5314                                   21836638.3554
                                                                        47.5004
        36.0004
  -5964032.36746  -4608335.39844
                  23362946.2274                                   23362942.0864
                                                                        41.2504
        26.0004
 09 10 14  0 16 30.0000000  0  8G02G04G05G13G29G23G10G25
 -11706392.45748  -9066491.78547
                  20355396.3054                                   20355390.3014
                                                                        51.7504
        42.5004
   -727154.59848   -543547.79346
                  22074465.8754                                   22074462.9104
                                                                        48.5004
        36.0004
 -12943770.57447 -10040857.21945
                  22603206.7114                                   22603203.2424
                                                                        47.0004
        35.7504
 -14192342.96548 -10996147.17246
                  21075219.0004                                   21075214.5004
                                                                        51.0004
        36.5004
 -17258122.28547 -13410864.57045
                  22424732.1174                                   22424728.4694
                                                                        47.0004
        34.0004
  -3244363.58247  -2497302.19944
                  22754481.0634                                   22754475.1214
                                                                        44.5004
        28.2504
 -18440581.34848 -14322207.23845
                  21805067.4454                                   21805063.7114
                                                                        48.2504
        35.5004
  -6112693.23446  -4724175.02344
                  23334656.2584                                   23334652.3524
                                                                        41.2504
        25.0004
 09 10 14  0 17  0.0000000  0  8G02G04G05G13G29G23G10G25
 -10187429.62548  -7882884.36347
                  20644445.1884                                   20644439.6094
                                                                        52.0004
        42.5004
    863632.35248    696026.47345
                  22377182.8054                                   22377179.0084
                                                                        49.7504
        35.5004
 -11542750.90647  -8949153.56245
                  22869811.5704                                   22869808.1484
                                                                        46.2504
        35.7504
 -12686827.84848  -9823018.47746
                  21361709.1644                                   21361704.4694
                                                                        50.2504
        36.5004
 -15816674.44947 -12287658.44145
                  22699030.4534                                   22699026.9384
                                                                        47.2504
        35.0004
  -1665061.16047  -1266676.98044
                  23055012.1804                                   23055006.5744
                                                                        45.5004
        28.0004
 -17030687.07848 -13223588.28945
                  22073361.0474                                   22073357.0274
                                                                        49.0004
        35.5004
  -4685502.59446  -3612078.38744
                  23606241.2584                                   23606237.6174
                                                                        39.7504
        24.2504
 09 10 14  0 17 30.0000000  0  8G02G04G05G13G29G23G10G25
 -10243293.50448  -7926414.60247
                  20633814.5234                                   20633809.0314
                                                                        53.0004
        42.7504
    879347.30948    708271.89545
                  22380173.2034                                   22380169.7894
                                                                        49.0004
        35.5004
 -11716867.13747  -9084828.53145
                  22836678.7894                                   22836674.8094
                                                                        47.0004
        35.5004
 -12756053.84848  -9876960.81646
                  21348535.6254                                   21348531.0234
                                                                        50.7504
        36.7504
 -15950129.55547 -12391649.43445
                  22673634.5634                                   22673631.1844
                                                                        47.0004
        35.0004
  -1660732.10547  -1263303.69544
                  23055836.2344                                   23055830.0514
                                                                        45.5004
        29.5004
 -17195828.24248 -13352269.68746
                  22041936.1174                                   22041932.2624
                                                                        49.0004
        36.0004
  -4833312.85246  -3727255.18444
                  23578114.1954                                   23578110.3674
                                                                        40.7504
        25.0004
 09 10 14  0 18  0.0000000  0  8G02G04G05G13G29G23G10G25
 -10298560.88748  -7969480.09447
                  20623297.3204                                   20623291.8094
                                                                        52.0004
        42.7504
    895409.22748    720787.68845
                  22383229.6024                                   22383226.3674
                                                                        49.2504
        35.5004
 -11890689.69547  -9220274.66446
                  22803601.1564                                   22803597.7304
                                                                        46.7504
        36.0004
 -12824597.97348  -9930371.83246
                  21335492.1094                                   21335487.9384
                                                                        51.2504
        37.0004
 -16083059.52347 -12495231.23045
                  22648338.7734                                   22648335.1334
                                                                        46.5004
        34.5004
  -1655957.62947  -1259583.31644
                  23056745.1564                                   23056738.7974
                                                                        47.0004
        29.5004
 -17360575.78948 -13480644.38746
                  22010585.1644                                   22010581.8914
                                                                        48.2504
        36.0004
  -4980694.83246  -3842098.28144
                  23550068.4384                                   23550064.0984
                                                                        41.5004
        25.2504
 09 10 14  0 18 30.0000000  0  8G02G04G05G13G29G23G10G25
 -10353230.87548  -8012080.08247
                  20612893.9774                                   20612888.1334
                                                                        52.5004
        43.0004
    911817.27048    733573.15245
                  22386351.8364                                   22386348.7074
                                                                        49.0004
        35.5004
 -12064215.48848  -9355489.55545
                  22770580.3444                                   22770576.6484
                                                                        48.0004
        35.5004
 -12892458.77348  -9983250.42646
                  21322578.6484                                   21322574.7424
                                                                        51.5004
        37.0004
 -16215461.32447 -12598401.44945
                  22623143.7814                                   22623139.9224
                                                                        45.5004
        34.2504
  -1650739.08247  -1255516.90644
                  23057737.8914                                   23057731.4924
                                                                        46.2504
        29.5004
 -17524926.41448 -13608709.80946
                  21979310.2584                                   21979307.0474
                                                                        48.2504
        37.0004
  -5127645.21947  -3956605.05944
                  23522104.5704                                   23522100.8484
                                                                        42.5004
        25.2504
 09 10 14  0 19  0.0000000  0  8G02G04G05G13G29G23G10G25
 -10407304.67648  -8054215.51647
                  20602604.3914                                   20602598.3014
                                                                        51.5004
        42.5004
    928568.27748    746625.88745
                  22389539.7114                                   22389536.4964
                                                                        49.0004
        35.0004
 -12237443.64847  -9490472.48846
                  22737616.1094                                   22737612.4964
                                                                        47.7504
        36.2504
 -12959637.95348 -10035597.83646
                  21309794.7274                                   21309790.5984
                                                                        51.0004
        36.7504
 -16347334.32847 -12701159.62145
                  22598049.2894                                   22598045.4964
                                                                        46.0004
        34.5004
  -1645079.87147  -1251107.11344
                  23058814.6024                                   23058808.2074
                                                                        45.7504
        27.7504
 -17688879.00048 -13736465.03946
                  21948111.5394                                   21948108.4184
                                                                        49.0004
        37.2504
  -5274162.55147  -4070774.44144
                  23494223.7034                                   23494219.5864
                                                                        43.5004
        26.5004
 09 10 14  0 19 30.0000000  0  8G02G04G05G13G29G23G10G25
 -10460782.40648  -8095886.47747
                  20592428.0474                                   20592422.0704
                                                                        52.5004
        42.2504
    945660.60948    759944.58645
                  22392792.2584                                   22392788.5554
                                                                        48.7504
        35.2504
 -12410371.97748  -9625221.80946
                  22704709.0634                                   22704704.9844
                                                                        48.2504
        36.5004
 -13026135.80548 -10087414.30546
                  21297140.7974                                   21297136.2464
                                                                        51.5004
        37.0004
 -16478675.95347 -12803503.73445
                  22573055.6724                                   22573052.0474
                                                                        46.2504
        34.7504
  -1638982.21147  -1246355.68744
                  23059974.9534                                   23059968.0904
                                                                        44.7504
        27.5004
 -17852431.20748 -13863908.28546
                  21916988.4144                                   21916985.2304
                                                                        49.2504
        36.7504
  -5420243.80547  -4184603.99244
                  23466425.1414                                   23466421.2384
                                                                        42.2504
        26.5004
 09 10 14  0 20  0.0000000  0  8G02G04G05G13G29G23G10G25
 -10513666.69548  -8137095.00047
                  20582364.2734                                   20582358.7464
                                                                        52.0004
        42.7504
    963089.92248    773525.85245
                  22396108.9614                                   22396105.3914
                                                                        49.2504
        35.0004
 -12583000.62948  -9759737.64546
                  22671858.6414                                   22671854.8914
                                                                        48.5004
        36.0004
 -13091954.94948 -10138701.99246
                  21284615.8284                                   21284611.0554
                                                                        51.0004
        37.0004
 -16609486.39847 -12905433.94545
                  22548163.1024                                   22548159.5004
                                                                        46.7504
        34.7504
  -1632450.84847  -1241266.31244
                  23061217.8984                                   23061211.0594
                                                                        44.5004
        26.5004
 -18015582.92248 -13991039.47746
                  21885941.6094                                   21885938.3874
                                                                        48.5004
        37.0004
  -5565889.00846  -4298093.73844
                  23438710.0554                                   23438705.6914
                                                                        41.0004
        26.2504
 09 10 14  0 20 30.0000000  0  8G02G04G05G13G29G23G10G25
 -10565956.62948  -8177840.37947
                  20572413.7894                                   20572407.7114
                                                                        52.2504
        42.5004
    980855.42648    787369.07845
                  22399489.8754                                   22399486.4144
                                                                        49.0004
        35.0004
 -12755326.10248  -9894017.24646
                  22639066.2114                                   22639062.4964
                                                                        49.5004
        36.0004
 -13157094.68448 -10189460.22346
                  21272219.7584                                   21272216.0084
                                                                        51.0004
        37.2504
 -16739762.55147 -13006947.82045
                  22523372.3984                                   22523368.9304
                                                                        45.5004
        34.7504
  -1625487.03147  -1235839.95744
                  23062543.1484                                   23062537.2584
                                                                        45.2504
        27.0004
 -18178331.69148 -14117856.68446
                  21854971.6724                                   21854967.8554
                                                                        48.5004
        37.0004
  -5711094.45746  -4411240.84444
                  23411077.1564                                   23411073.9654
                                                                        41.0004
        27.2504
 09 10 14  0 21  0.0000000  0  8G02G04G05G13G29G23G10G25
 -10617649.47748  -8218120.50447
                  20562576.6254                                   20562571.2074
                                                                        52.0004
        42.2504
    998958.65648    801475.48445
                  22402934.7734                                   22402931.2274
                                                                        49.0004
        35.5004
 -12927343.14148 -10028056.50446
                  22606332.7584                                   22606329.1134
                                                                        48.5004
        36.7504
 -13221552.21548 -10239686.85246
                  21259954.2114                                   21259950.1374
                                                                        51.0004
        37.0004
 -16869499.30547 -13108041.39145
                  22498684.5394                                   22498681.1334
                                                                        46.7504
        35.2504
  -1618089.85247  -1230075.92644
                  23063950.7894                                   23063944.0084
                                                                        45.5004
        27.7504
 -18340671.33648 -14244355.09846
                  21824079.4224                                   21824075.5944
                                                                        48.7504
        36.5004
  -5855854.37946  -4524040.76644
                  23383530.3834                                   23383527.4964
                                                                        41.5004
        26.7504
 09 10 14  0 21 30.0000000  0  8G02G04G05G13G29G23G10G25
 -10668748.50848  -8257937.93047
                  20552853.3284                                   20552847.5474
                                                                        51.7504
        42.7504
   1017394.22348    815840.85245
                  22406442.6414                                   22406439.2344
                                                                        48.2504
        34.0004
 -13099053.25047 -10161856.55146
                  22573657.4694                                   22573653.1724
                                                                        47.7504
        36.7504
 -13285330.83248 -10289384.41846
                  21247817.4694                                   21247813.0394
                                                                        50.7504
        36.5004
 -16998697.76647 -13208715.51645
                  22474098.6254                                   22474095.2034
                                                                        47.2504
        35.2504
  -1610265.02347  -1223978.66044
                  23065440.0784                                   23065433.7584
                                                                        45.7504
        28.7504
 -18502602.88348 -14370535.51246
                  21793265.0314                                   21793261.3324
                                                                        49.2504
        37.5004
  -6000169.53546  -4636494.12544
                  23356068.5314                                   23356065.1724
                                                                        41.5004
        26.7504
 09 10 14  0 22  0.0000000  0  8G02G04G05G13G29G23G10G25
 -10719252.39548  -8297291.59047
                  20543242.3364                                   20543236.5234
                                                                        51.7504
        42.5004
   1036162.06347    830465.14845
                  22410013.8754                                   22410010.4924
                                                                        47.7504
        34.0004
 -13270452.08247 -10295414.06246
                  22541040.8754                                   22541037.3554
                                                                        47.7504
        36.7504
 -13348429.65648 -10338552.36746
                  21235810.6254                                   21235805.7344
                                                                        51.0004
        37.0004
 -17127353.93747 -13308967.08245
                  22449615.9224                                   22449612.6524
                                                                        46.7504
        35.2504
  -1602012.65247  -1217548.23444
                  23067010.1024                                   23067004.4144
                                                                        44.5004
        28.7504
 -18664122.53548 -14496394.97346
                  21762528.8134                                   21762525.1214
                                                                        48.7504
        37.0004
  -6144035.30947  -4748597.30944
                  23328691.5864                                   23328688.0274
                                                                        42.2504
        25.7504
 09 10 14  0 22 30.0000000  0  8G02G04G05G13G29G23G10G25
 -10769161.27048  -8336181.61747
                  20533745.1724                                   20533739.3484
                                                                        52.5004
        42.5004
   1055260.35548    845346.91045
                  22413648.4144                                   22413644.9774
                                                                        48.0004
        34.2504
 -13441537.19148 -10428727.10946
                  22508484.9774                                   22508480.9844
                                                                        48.0004
        36.7504
 -13410848.55948 -10387190.48846
                  21223932.2504                                   21223927.7034
                                                                        50.7504
        36.5004
 -17255465.99647 -13408794.64845
                  22425237.0084                                   22425233.7234
                                                                        46.7504
        34.7504
  -1593335.26647  -1210786.62544
                  23068661.0634                                   23068655.5084
                                                                        44.7504
        27.5004
 -18825227.87148 -14621931.58646
                  21731871.4064                                   21731868.2664
                                                                        49.5004
        37.0004
  -6287449.14847  -4860348.33244
                  23301401.1644                                   23301397.2114
                                                                        42.5004
        27.0004
 09 10 14  0 23  0.0000000  0  8G02G04G05G13G29G23G10G25
 -10818478.50848  -8374610.62547
                  20524360.4384                                   20524354.7544
                                                                        51.0004
        42.0004
   1074684.45748    860482.57445
                  22417344.9144                                   22417341.4654
                                                                        48.7504
        34.0004
 -13612309.80547 -10561796.66046
                  22475987.8834                                   22475983.9184
                                                                        47.5004
        37.0004
 -13472591.11748 -10435301.54746
                  21212183.0944                                   21212178.7934
                                                                        50.7504
        36.5004
 -17383034.25047 -13508198.47345
                  22400961.7894                                   22400958.3054
                                                                        47.0004
        35.0004
  -1584238.23447  -1203698.03144
                  23070391.9774                                   23070385.7074
                                                                        42.5004
        27.0004
 -18985919.53948 -14747145.84446
                  21701292.3284                                   21701289.1764
                                                                        49.2504
        37.0004
  -6430411.62547  -4971747.62944
                  23274196.5634                                   23274193.0354
                                                                        43.0004
        27.7504
 09 10 14  0 23 30.0000000  0  8G02G04G05G13G29G23G10G25
 -10867203.67248  -8412578.27347
                  20515088.4614                                   20515082.3554
                                                                        51.2504
        42.2504
   1094432.89548    875870.91845
                  22421102.6564                                   22421099.4574
                                                                        48.0004
        34.5004
 -13782767.27747 -10694620.66046
                  22443550.7034                                   22443546.4184
                                                                        47.5004
        36.7504
 -13533657.09448 -10482885.39846
                  21200562.3134                                   21200558.3284
                                                                        49.5004
        36.7504
 -17510057.01647 -13607177.26645
                  22376790.3834                                   22376786.5124
                                                                        47.2504
        34.7504
  -1574723.20347  -1196283.72744
                  23072203.3204                                   23072196.9414
                                                                        42.0004
        28.2504
 -19146195.31248 -14872036.05146
                  21670793.2274                                   21670789.6994
                                                                        49.0004
        36.2504
  -6572919.50047  -5082792.68044
                  23247077.9304                                   23247074.4104
                                                                        43.2504
        27.2504
 09 10 14  0 24  0.0000000  0  8G02G04G05G13G29G23G10G25
 -10915337.23848  -8450084.94147
                  20505928.5004                                   20505922.9104
                                                                        51.5004
        42.0004
   1114503.82448    891510.57445
                  22424922.1024                                   22424918.6484
                                                                        48.5004
        34.5004
 -13952907.30548 -10827197.30546
                  22411174.1644                                   22411170.4064
                                                                        48.0004
        36.5004
 -13594047.34448 -10529942.71946
                  21189070.6954                                   21189066.5044
                                                                        50.2504
        36.7504
 -17636531.81247 -13705729.05145
                  22352722.8364                                   22352718.9734
                                                                        47.5004
        34.7504
  -1564792.86347  -1188545.81644
                  23074092.6954                                   23074086.2234
                                                                        45.2504
        28.0004
 -19306052.82848 -14996600.34846
                  21640373.1254                                   21640369.6294
                                                                        50.2504
        37.0004
  -6714970.64847  -5193481.89544
                  23220047.1954                                   23220042.3054
                                                                        43.0004
        26.2504
 09 10 14  0 24 30.0000000  0  8G02G04G05G13G29G23G10G25
 -10962878.02048  -8487129.71147
                  20496881.9224                                   20496876.3834
                                                                        51.5004
        42.0004
   1134896.82848    907401.21545
                  22428802.5944                                   22428799.4734
                                                                        48.7504
        34.5004
 -14122726.14148 -10959523.65646
                  22378858.3524                                   22378854.3014
                                                                        48.0004
        37.0004
 -13653760.82048 -10576472.71546
                  21177707.7504                                   21177703.4614
                                                                        50.7504
        36.5004
 -17762455.08647 -13803851.08645
                  22328760.0944                                   22328756.6684
                                                                        47.0004
        34.5004
  -1554447.62947  -1180484.59044
                  23076061.4694                                   23076055.0664
                                                                        44.2504
        27.7504
 -19465488.20348 -15120835.71146
                  21610033.4694                                   21610029.9924
                                                                        49.2504
        37.7504
  -6856560.66847  -5303811.78544
                  23193102.8594                                   23193098.4654
                                                                        44.0004
        25.5004
 09 10 14  0 25  0.0000000  0  8G02G04G05G13G29G23G10G25
 -11009828.64548  -8523714.62547
                  20487947.3674                                   20487942.0204
                                                                        51.2504
        42.0004
   1155608.00048    923539.78545
                  22432744.2504                                   22432740.6214
                                                                        48.7504
        35.0004
 -14292223.73448 -11091599.68046
                  22346604.4304                                   22346600.6524
                                                                        48.0004
        36.5004
 -13712800.03548 -10622477.29746
                  21166473.0554                                   21166468.2584
                                                                        50.7504
        36.2504
 -17887827.21548 -13901543.64545
                  22304903.2424                                   22304899.0864
                                                                        48.0004
        35.0004
  -1543692.14547  -1172103.66444
                  23078108.2894                                   23078101.5394
                                                                        44.5004
        25.7504
 -19624501.41448 -15244742.10546
                  21579774.4304                                   21579770.8954
                                                                        50.0004
        37.2504
  -6997689.27047  -5413782.11744
                  23166246.6174                                   23166242.7734
                                                                        43.2504
        26.2504
 09 10 14  0 25 30.0000000  0  8G02G04G05G13G29G23G10G25
 -11056189.38748  -8559839.87947
                  20479125.5864                                   20479119.5004
                                                                        51.5004
        42.0004
   1176635.48048    939924.82045
                  22436745.6094                                   22436742.0124
                                                                        49.0004
        34.5004
 -14461397.88747 -11223423.67646
                  22314411.5314                                   22314407.8204
                                                                        46.7504
        37.0004
 -13771165.41048 -10667956.78546
                  21155366.1804                                   21155361.9414
                                                                        50.7504
        36.5004
 -18012645.77747 -13998804.85545
                  22281151.2344                                   22281147.2704
                                                                        47.7504
        35.5004
  -1532528.68047  -1163404.87144
                  23080232.7424                                   23080225.6174
                                                                        43.7504
        26.7504
 -19783090.02348 -15368317.62946
                  21549596.3524                                   21549592.8014
                                                                        49.7504
        38.0004
  -7138353.82047  -5523390.84444
                  23139479.2814                                   23139475.4574
                                                                        42.2504
        26.7504
 09 10 14  0 26  0.0000000  0  8G02G04G05G13G29G23G10G25
 -11101963.73048  -8595508.20346
                  20470414.7424                                   20470408.7664
                                                                        51.7504
        41.5004
   1197974.38348    956552.53145
                  22440805.9064                                   22440802.7344
                                                                        48.5004
        34.7504
 -14630249.63748 -11354996.44546
                  22282280.1174                                   22282276.4844
                                                                        48.0004
        37.0004
 -13828860.58648 -10712914.05946
                  21144387.2194                                   21144382.3054
                                                                        51.0004
        36.0004
 -18136912.12548 -14095635.76645
                  22257503.6644                                   22257500.4804
                                                                        48.0004
        35.7504
  -1520962.89147  -1154392.55144
                  23082433.7584                                   23082426.7424
                                                                        44.0004
        26.5004
 -19941255.41048 -15491563.35546
                  21519498.5084                                   21519494.4574
                                                                        50.0004
        38.0004
  -7278555.09047  -5632638.50444
                  23112799.3754                                   23112796.2664
                                                                        42.2504
        25.5004
 09 10 14  0 26 30.0000000  0  8G02G04G05G13G29G23G10G25
 -11147149.35248  -8630717.77346
                  20461816.4064                                   20461810.2774
                                                                        51.5004
        41.7504
   1219625.72348    973423.69145
                  22444925.8524                                   22444922.7234
                                                                        49.0004
        33.2504
 -14798773.93448 -11486314.06646
                  22250210.9304                                   22250207.1684
                                                                        48.7504
        37.2504
 -13885883.19548 -10757347.25446
                  21133536.3914                                   21133531.9144
                                                                        50.0004
        36.0004
 -18260621.35548 -14192032.57845
                  22233962.7114                                   22233959.3364
                                                                        48.0004
        35.5004
  -1508993.92647  -1145066.07044
                  23084710.7194                                   23084704.6254
                                                                        42.5004
        26.5004
 -20098992.34848 -15614475.24246
                  21489481.9534                                   21489478.2464
                                                                        49.7504
        37.5004
  -7418287.40647  -5741520.78544
                  23086209.2194                                   23086205.4304
                                                                        43.2504
        26.5004
 09 10 14  0 27  0.0000000  0  8G02G04G05G13G29G23G10G25
 -11191748.73448  -8665470.53147
                  20453329.4534                                   20453323.8524
                                                                        52.2504
        42.5004
   1241584.81648    990534.64845
                  22449104.6564                                   22449101.4694
                                                                        48.0004
        33.5004
 -14966970.95747 -11617376.64846
                  22218204.5234                                   22218200.6764
                                                                        47.7504
        38.0004
 -13942236.68048 -10801259.05546
                  21122812.5004                                   21122808.0434
                                                                        50.2504
        36.0004
 -18383774.08648 -14287995.75045
                  22210527.2274                                   22210523.8014
                                                                        48.0004
        35.5004
  -1496626.78947  -1135429.34044
                  23087064.0944                                   23087058.4264
                                                                        43.5004
        26.5004
 -20256300.94148 -15737053.34446
                  21459547.2504                                   21459543.5514
                                                                        50.0004
        38.0004
  -7557551.36347  -5850038.14544
                  23059709.1414                                   23059705.0704
                                                                        44.5004
        26.7504
 09 10 14  0 27 30.0000000  0  9G02G04G05G13G29G23G16G10G25
  -9660340.95348  -7472165.74247
                  20744746.7344                                   20744740.8134
                                                                        52.2504
        42.0004
   2839269.50048   2235483.73845
                  22753134.7344                                   22753130.7424
                                                                        48.7504
        33.5004
 -13559412.90648 -10520578.14546
                  22486053.7974                                   22486049.3914
                                                                        49.2504
        37.0004
 -12422499.53948  -9617048.28946
                  21412008.5314                                   21412004.5004
                                                                        51.0004
        36.2504
 -16930944.62148 -13155920.85545
                  22486991.7034                                   22486987.9064
                                                                        48.7504
        35.5004
     91555.83647    102115.54344
                  23389285.4384                                   23389279.7234
                                                                        43.2504
        28.5004
   4485549.39856   3529092.59853
                  24488878.3054                                   24488874.4384
                                                                        41.0004
        22.5004
 -18837754.12548 -14631692.17646
                  21729487.8204                                   21729483.9924
                                                                        50.0004
        38.0004
  -6120919.48447  -4730584.71144
                  23333090.3674                                   23333087.1454
                                                                        44.5004
        29.0004
 09 10 14  0 28  0.0000000  0  9G02G04G05G13G29G23G16G10G25
  -9703772.74648  -7506008.67247
                  20736481.6804                                   20736475.8554
                                                                        52.5004
        42.0004
   2861836.13348   2253068.12545
                  22757428.4774                                   22757425.1524
                                                                        48.5004
        33.0004
 -13726952.07448 -10651128.12946
                  22454171.8834                                   22454167.6484
                                                                        48.5004
        37.5004
 -12477519.45748  -9659920.96146
                  21401538.9144                                   21401534.2624
                                                                        50.5004
        36.5004
 -17052982.12948 -13251015.01245
                  22463768.5634                                   22463765.0234
                                                                        48.2504
        35.7504
    104709.19947    112364.89144
                  23391788.6954                                   23391782.8554
                                                                        43.7504
        26.7504
   4341666.32046   3416975.93843
                  24461498.7664                                   24461494.3754
                                                                        40.7504
        22.0004
 -18994203.07048 -14753600.42246
                  21699716.5634                                   21699712.9574
                                                                        49.5004
        38.0004
  -6259241.63747  -4838368.18444
                  23306769.1954                                   23306765.2304
                                                                        45.5004
        28.7504
 09 10 14  0 28 30.0000000  0  9G02G04G05G13G29G23G16G10G25
  -9746627.10248  -7539401.66447
                  20728326.8754                                   20728320.8954
                                                                        53.0004
        42.0004
   2884697.95748   2270882.51645
                  22761778.8984                                   22761775.5554
                                                                        48.2504
        32.5004
 -13894164.91048 -10781423.82046
                  22422352.3204                                   22422348.1454
                                                                        49.5004
        37.2504
 -12531879.57048  -9702279.52046
                  21391194.5864                                   21391189.9774
                                                                        50.5004
        36.2504
 -17174464.31648 -13345676.44946
                  22440651.8594                                   22440647.6604
                                                                        49.5004
        36.2504
    118246.40647    122913.34844
                  23394364.6804                                   23394358.1804
                                                                        44.0004
        27.0004
   4198251.41046   3305224.09843
                  24434207.8364                                   24434203.2624
                                                                        40.5004
        20.7504
 -19150224.37148 -14875175.42246
                  21670026.3674                                   21670023.1214
                                                                        49.5004
        37.7504
  -6397095.09047  -4945786.42644
                  23280536.3754                                   23280532.1374
                                                                        45.5004
        27.5004
 09 10 14  0 29  0.0000000  0  9G02G04G05G13G29G23G16G10G25
  -9788900.50848  -7572341.98447
                  20720282.5784                                   20720276.5944
                                                                        52.7504
        42.0004
   2907857.26247   2288928.71945
                  22766185.9924                                   22766182.4884
                                                                        47.5004
        33.5004
 -14061045.16848 -10911460.36746
                  22390595.8834                                   22390591.7544
                                                                        49.0004
        36.7504
 -12585575.85948  -9744120.77046
                  21380976.1884                                   21380971.9024
                                                                        51.2504
        36.5004
 -17295385.60248 -13439900.81646
                  22417640.9454                                   22417637.2234
                                                                        48.7504
        36.2504
    132169.43847    133762.44944
                  23397014.0554                                   23397007.2734
                                                                        44.5004
        26.2504
   4055311.81346   3193842.60243
                  24407007.2974                                   24407002.0784
                                                                        39.0004
        21.2504
 -19305811.74248 -14996412.32046
                  21640418.8754                                   21640415.6524
                                                                        50.0004
        38.7504
  -6534473.25047  -5052834.34844
                  23254393.7974                                   23254390.0864
                                                                        45.2504
        27.5004
 09 10 14  0 29 30.0000000  0  9G02G04G05G13G29G23G16G10G25
  -9830590.60248  -7604827.76246
                  20712349.1174                                   20712343.1454
                                                                        51.2504
        41.7504
   2931314.98047   2307207.43045
                  22770649.8134                                   22770646.2154
                                                                        47.0004
        33.5004
 -14227587.78548 -11041233.82046
                  22358904.2504                                   22358899.8714
                                                                        49.5004
        37.2504
 -12638606.48048  -9785443.33246
                  21370885.0314                                   21370880.6294
                                                                        50.7504
        36.5004
 -17415741.24647 -13533684.42645
                  22394738.0314                                   22394734.2114
                                                                        47.7504
        35.5004
    146478.60247    144912.46544
                  23399736.7894                                   23399730.2074
                                                                        44.2504
        26.5004
   3912853.12146   3082835.87143
                  24379898.1954                                   24379893.8674
                                                                        38.0004
        18.2504
 -19460960.46548 -15117307.42646
                  21610894.9304                                   21610891.7034
                                                                        49.5004
        38.5004
  -6671370.68447  -5159507.64544
                  23228343.0704                                   23228339.0164
                                                                        44.5004
        26.7504
 09 10 14  0 30  0.0000000  0  9G02G04G05G13G29G23G16G10G25
  -9871693.46148  -7636855.95346
                  20704527.4384                                   20704521.5164
                                                                        52.5004
        41.7504
   2955073.80147   2325720.77745
                  22775170.9304                                   22775167.6994
                                                                        47.2504
        32.7504
 -14393785.66448 -11170738.66046
                  22327277.8674                                   22327273.7154
                                                                        50.0004
        38.2504
 -12690967.65248  -9826244.23846
                  21360921.4454                                   21360916.7704
                                                                        50.5004
        36.0004
 -17535524.58648 -13627022.07845
                  22371943.8284                                   22371939.9304
                                                                        49.2504
        35.7504
    161175.98047    156364.97344
                  23402534.0704                                   23402527.1604
                                                                        45.0004
        26.0004
   3770882.02046   2972209.07842
                  24352881.2034                                   24352876.9534
                                                                        40.2504
        17.7504
 -19615663.36348 -15237855.12946
                  21581456.6254                                   21581452.4844
                                                                        50.5004
        38.5004
  -6807780.62547  -5265801.08644
                  23202385.0394                                   23202381.3984
                                                                        44.7504
        27.2504
 09 10 14  0 30 30.0000000  0  9G02G04G05G13G29G23G16G10G25
  -9912209.36348  -7668426.79346
                  20696817.3984                                   20696811.9224
                                                                        52.5004
        41.7504
   2979131.88747   2344467.34445
                  22779748.8754                                   22779745.9924
                                                                        47.2504
        32.2504
 -14559636.81648 -11299973.32846
                  22295717.5084                                   22295713.3324
                                                                        49.7504
        38.0004
 -12742660.12548  -9866524.06246
                  21351084.1644                                   21351080.1724
                                                                        50.7504
        36.0004
 -17654734.01247 -13719912.52045
                  22349258.8444                                   22349255.3054
                                                                        47.7504
        35.5004
    176259.44547    168118.34444
                  23405404.3754                                   23405397.4144
                                                                        44.5004
        26.0004
   3629401.58246   2861964.56343
                  24325958.9384                                   24325954.0314
                                                                        41.2504
        19.7504
 -19769918.76248 -15358054.12546
                  21552102.6024                                   21552098.6994
                                                                        50.5004
        38.2504
  -6943700.68447  -5371712.79744
                  23176520.3674                                   23176516.4264
                                                                        43.5004
        24.0004
 09 10 14  0 31  0.0000000  0  9G02G04G05G13G29G23G16G10G25
  -9952139.30548  -7699541.02046
                  20689219.2974                                   20689213.3874
                                                                        52.5004
        41.7504
   3003486.99247   2363445.32445
                  22784383.7194                                   22784380.5204
                                                                        46.5004
        33.0004
 -14725139.70748 -11428936.59846
                  22264222.9144                                   22264219.0084
                                                                        50.0004
        37.2504
 -12793685.05148  -9906283.75046
                  21341374.5784                                   21341370.3954
                                                                        50.5004
        36.0004
 -17773367.95748 -13812354.54745
                  22326683.5314                                   22326679.5744
                                                                        48.2504
        35.0004
    191726.31347    180170.43044
                  23408347.1024                                   23408340.7114
                                                                        43.5004
        24.0004
   3488413.93446   2752104.07043
                  24299129.2274                                   24299125.3164
                                                                        41.5004
        19.0004
 -19923724.77748 -15477902.98046
                  21522834.1954                                   21522830.6564
                                                                        50.2504
        38.5004
  -7079128.72747  -5477241.12944
                  23150748.6644                                   23150745.6414
                                                                        43.7504
        26.0004
 09 10 14  0 31 30.0000000  0  9G02G04G05G13G29G23G16G10G25
  -9991485.35548  -7730200.28547
                  20681731.6954                                   20681726.0084
                                                                        52.5004
        42.0004
   3028136.18047   2382652.46945
                  22789074.4304                                   22789070.9024
                                                                        46.0004
        32.5004
 -14890293.29748 -11557627.69546
                  22232795.0554                                   22232791.2624
                                                                        50.5004
        37.7504
 -12844044.53948  -9945524.89846
                  21331791.4774                                   21331786.7814
                                                                        50.5004
        36.2504
 -17891426.09048 -13904347.89545
                  22304218.1414                                   22304214.0904
                                                                        48.0004
        35.7504
    207572.66447    192518.23844
                  23411362.3914                                   23411356.6684
                                                                        43.5004
        26.0004
   3347920.03546   2642628.30943
                  24272394.7814                                   24272389.7464
                                                                        41.0004
        18.2504
 -20077080.59848 -15597401.01246
                  21493651.4384                                   21493647.7704
                                                                        49.5004
        38.2504
  -7214063.71147  -5582385.25444
                  23125072.5864                                   23125068.0514
                                                                        45.0004
        26.0004
 09 10 14  0 32  0.0000000  0  9G02G04G05G13G29G23G16G10G25
 -10030248.81248  -7760405.58247
                  20674355.5944                                   20674349.7384
                                                                        52.2504
        42.2504
   3053076.54747   2402086.50845
                  22793820.4304                                   22793817.3404
                                                                        46.5004
        33.5004
 -15055096.21548 -11686045.53946
                  22201434.3204                                   22201430.4574
                                                                        50.5004
        38.0004
 -12893740.26648  -9984248.82446
                  21322334.5314                                   21322330.0664
                                                                        51.2504
        36.2504
 -18008906.94948 -13995891.42645
                  22281862.0864                                   22281858.3054
                                                                        48.7504
        35.7504
    223795.53147    205159.39844
                  23414450.3444                                   23414443.9574
                                                                        43.7504
        27.0004
   3207922.03947   2533538.97743
                  24245754.4614                                   24245748.6374
                                                                        43.0004
        20.0004
 -20229984.68748 -15716547.03946
                  21464555.0004                                   21464551.1954
                                                                        50.5004
        38.5004
  -7348504.12547  -5687143.99244
                  23099488.6724                                   23099484.9884
                                                                        45.7504
        27.5004
 09 10 14  0 32 30.0000000  0  9G02G04G05G13G29G23G16G10G25
 -10068428.79348  -7790156.21147
                  20667090.2344                                   20667084.2234
                                                                        52.0004
        42.0004
   3078307.64847   2421747.07845
                  22798621.5864                                   22798618.8794
                                                                        45.5004
        33.0004
 -15219545.02048 -11814187.44946
                  22170140.9534                                   22170136.8794
                                                                        49.2504
        37.2504
 -12942771.48048 -10022454.95345
                  21313004.2424                                   21312999.8634
                                                                        50.7504
        35.7504
 -18125807.96148 -14086983.14546
                  22259616.9534                                   22259613.4654
                                                                        49.2504
        36.2504
    240393.88747    218093.14844
                  23417608.4304                                   23417602.5984
                                                                        45.0004
        27.0004
   3068423.75847   2424839.03143
                  24219208.5164                                   24219203.8484
                                                                        43.0004
        19.7504
 -20382433.92648 -15835338.64546
                  21435544.6414                                   21435541.3404
                                                                        50.2504
        38.2504
  -7482446.25447  -5791514.46944
                  23074000.4924                                   23073996.2384
                                                                        46.2504
        28.5004
 09 10 14  0 33  0.0000000  0 10G02G04G05G13G29G23G16G07G10G25
 -10106028.43048  -7819454.63347
                  20659934.9844                                   20659929.0554
                                                                        51.5004
        42.0004
   3103824.85547   2441630.59845
                  22803477.7894                                   22803474.0084
                                                                        46.2504
        33.2504
 -15383640.25848 -11942053.85246
                  22138914.7424                                   22138910.4694
                                                                        49.0004
        37.7504
 -12991142.08248 -10060146.32846
                  21303799.8524                                   21303795.5824
                                                                        50.7504
        36.0004
 -18242129.89148 -14177623.62946
                  22237481.6254                                   22237477.9264
                                                                        48.7504
        36.0004
    257362.49247    231315.42644
                  23420837.6414                                   23420831.7734
                                                                        45.5004
        28.0004
   2929424.98447   2316528.28943
                  24192758.3834                                   24192753.3984
                                                                        43.2504
        21.2504
   4435092.25856   3497709.16453
                  24399752.7424                                   24399748.7114
                                                                        41.5004
        23.0004
 -20534428.70748 -15953776.12546
                  21406620.9614                                   21406617.5744
                                                                        50.0004
        38.7504
  -7615890.54347  -5895497.01644
                  23048607.3524                                   23048603.2154
                                                                        44.7504
        28.7504
 09 10 14  0 33 30.0000000  0 10G02G04G05G13G29G23G16G07G10G25
 -10143050.47748  -7848302.98446
                  20652889.9694                                   20652884.0044
                                                                        52.0004
        41.5004
   3129624.86747   2461734.48445
                  22808387.0554                                   22808383.4844
                                                                        45.5004
        32.0004
 -15547381.18048 -12069644.18046
                  22107755.9304                                   22107751.8244
                                                                        49.5004
        37.5004
 -13038854.71548 -10097325.00846
                  21294720.1024                                   21294715.7854
                                                                        50.5004
        36.5004
 -18357872.83248 -14267812.94546
                  22215456.4534                                   22215452.3324
                                                                        48.0004
        36.5004
    274697.21547    244823.00444
                  23424136.3364                                   23424129.9494
                                                                        45.0004
        25.2504
   2790926.42646   2208607.31643
                  24166403.0784                                   24166397.7114
                                                                        41.7504
        22.7504
   4260756.32047   3361863.12544
                  24366577.4454                                   24366573.8874
                                                                        43.0004
        26.5004
 -20685968.50848 -16071859.10246
                  21377783.9694                                   21377780.2734
                                                                        50.5004
        39.0004
  -7748836.49247  -5999091.23444
                  23023308.1884                                   23023304.6054
                                                                        45.0004
        29.7504
 09 10 14  0 34  0.0000000  0 10G02G04G05G13G29G23G16G07G10G25
 -10179494.23848  -7876700.70347
                  20645954.9384                                   20645949.3164
                                                                        51.2504
        42.0004
   3155706.55147   2482057.87545
                  22813350.0234                                   22813346.5394
                                                                        45.2504
        31.5004
 -15710765.09048 -12196956.32046
                  22076664.8204                                   22076661.0274
                                                                        49.2504
        38.2504
 -13085908.96948 -10133990.66046
                  21285766.2734                                   21285761.5474
                                                                        50.0004
        36.0004
 -18473033.80948 -14357548.79346
                  22193541.9774                                   22193538.0554
                                                                        49.2504
        36.2504
    292396.89547    258614.98443
                  23427504.5634                                   23427497.9574
                                                                        44.5004
        22.7504
   2652932.07846   2101079.27343
                  24140142.9384                                   24140137.5314
                                                                        41.2504
        22.0004
   4086690.39147   3226227.46944
                  24333453.8054                                   24333450.1804
                                                                        43.7504
        27.0004
 -20837050.25048 -16189585.15646
                  21349034.0164                                   21349030.6844
                                                                        50.7504
        38.2504
  -7881280.46547  -6102294.31644
                  22998104.7034                                   22998101.0594
                                                                        45.2504
        28.5004
 09 10 14  0 34 30.0000000  0 10G02G04G05G13G29G23G16G07G10G25
 -10215364.73448  -7904651.73446
                  20639128.8204                                   20639123.1764
                                                                        51.0004
        41.5004
   3182064.35247   2502596.41045
                  22818366.0554                                   22818362.7384
                                                                        45.0004
        32.2504
 -15873793.68448 -12323991.57846
                  22045641.6724                                   22045637.3404
                                                                        48.7504
        38.5004
 -13132310.05548 -10170147.35546
                  21276936.2734                                   21276931.9694
                                                                        49.7504
        36.2504
 -18587615.16448 -14446832.96946
                  22171737.6094                                   22171734.0234
                                                                        49.5004
        37.0004
    310455.12947    272686.33243
                  23430940.8524                                   23430933.9964
                                                                        43.2504
        23.2504
   2515440.05146   1993942.64543
                  24113978.9304                                   24113974.2464
                                                                        40.0004
        20.0004
   3912893.77347   3090801.66044
                  24300381.1024                                   24300377.3794
                                                                        43.0004
        26.2504
 -20987675.98848 -16306955.89546
                  21320371.1024                                   21320367.3484
                                                                        50.2504
        39.0004
  -8013224.45747  -6205107.79744
                  22972996.8984                                   22972993.3594
                                                                        44.2504
        29.0004
 09 10 14  0 35  0.0000000  0 10G02G04G05G13G29G23G16G07G10G25
 -10250657.38348  -7932152.49646
                  20632413.2274                                   20632406.9734
                                                                        51.0004
        41.7504
   3208701.05947   2523352.29345
                  22823435.2274                                   22823431.7194
                                                                        46.0004
        32.2504
 -16036459.67248 -12450744.28546
                  22014687.2814                                   22014683.0554
                                                                        48.7504
        38.5004
 -13178053.92248 -10205791.91846
                  21268231.8524                                   21268227.2624
                                                                        50.0004
        36.0004
 -18701610.20748 -14535660.27046
                  22150045.4454                                   22150041.4494
                                                                        49.7504
        36.0004
    328874.57447    287039.14543
                  23434445.2734                                   23434439.2384
                                                                        42.5004
        22.5004
   2378457.53546   1887203.00843
                  24087912.0394                                   24087907.8364
                                                                        39.2504
        20.2504
   3739374.23447   2955591.76644
                  24267361.4224                                   24267357.3324
                                                                        42.2504
        24.7504
 -21137838.38348 -16423965.55946
                  21291795.8284                                   21291792.2304
                                                                        50.5004
        38.2504
  -8144661.24247  -6307526.03144
                  22947985.0234                                   22947981.2194
                                                                        43.2504
        28.0004
 09 10 14  0 35 30.0000000  0 10G02G04G05G13G29G23G16G07G10G25
 -10285371.50448  -7959202.46147
                  20625807.3204                                   20625800.8754
                                                                        52.0004
        42.2504
   3235616.42247   2544325.30545
                  22828556.6804                                   22828553.6454
                                                                        44.5004
        32.0004
 -16198759.96548 -12577212.03946
                  21983802.0864                                   21983798.6764
                                                                        49.7504
        38.2504
 -13223140.12548 -10240924.03146
                  21259651.9064                                   21259647.3054
                                                                        49.7504
        36.2504
 -18815015.94948 -14624028.37946
                  22128465.1334                                   22128461.3404
                                                                        50.0004
        36.7504
    347654.11347    301672.54344
                  23438019.3204                                   23438012.8324
                                                                        42.5004
        25.0004
   2241988.71946   1780863.70743
                  24061942.5704                                   24061939.1054
                                                                        38.5004
        20.7504
   3566136.77346   2820601.62944
                  24234394.8984                                   24234390.9574
                                                                        41.5004
        24.2504
 -21287534.55948 -16540611.91046
                  21263309.6804                                   21263306.1914
                                                                        51.0004
        38.5004
  -8275587.11747  -6409546.18744
                  22923070.6174                                   22923066.5204
                                                                        44.0004
        27.5004
 09 10 14  0 36  0.0000000  0 10G02G04G05G13G29G23G16G07G10G25
 -10319506.63748  -7985801.23046
                  20619311.4454                                   20619305.5354
                                                                        52.2504
        41.5004
   3262809.96547   2565515.06345
                  22833731.3284                                   22833728.5204
                                                                        45.7504
        31.7504
 -16360690.54348 -12703391.70346
                  21952988.0474                                   21952984.3594
                                                                        48.5004
        38.7504
 -13267568.28548 -10275543.38345
                  21251197.5634                                   21251193.3554
                                                                        48.7504
        35.7504
 -18927829.19948 -14711934.83246
                  22106997.4304                                   22106993.7504
                                                                        50.0004
        36.5004
    366792.97747    316585.94144
                  23441661.7424                                   23441655.7974
                                                                        44.0004
        26.0004
   2106037.79746   1674927.99243
                  24036072.8444                                   24036067.9024
                                                                        37.2504
        21.0004
   3393185.82846   2685834.71943
                  24201483.0864                                   24201479.4574
                                                                        41.0004
        22.0004
 -21436760.60548 -16656891.92246
                  21234912.7894                                   21234909.6214
                                                                        50.7504
        38.5004
  -8405998.44947  -6511165.37544
                  22898254.0004                                   22898250.3094
                                                                        43.7504
        28.5004
 09 10 14  0 36 30.0000000  0 10G02G04G05G13G29G23G16G07G10G25
 -10353066.19148  -8011951.53546
                  20612925.1414                                   20612919.2624
                                                                        51.7504
        41.5004
   3290276.94947   2586917.87945
                  22838958.5394                                   22838955.3754
                                                                        46.7504
        32.2504
 -16522252.13748 -12829283.82846
                  21922243.8984                                   21922240.2154
                                                                        48.5004
        38.2504
 -13311342.22748 -10309652.93445
                  21242867.4064                                   21242863.3634
                                                                        48.7504
        34.7504
 -19040051.15248 -14799380.52746
                  22085642.3754                                   22085638.4384
                                                                        49.7504
        36.2504
    386285.74647    331775.10244
                  23445371.2424                                   23445364.8444
                                                                        44.5004
        27.2504
   1970603.99246   1569395.21143
                  24010299.7034                                   24010295.7544
                                                                        39.0004
        21.5004
   3220522.14547   2551291.67243
                  24168626.7664                                   24168622.4734
                                                                        42.2504
        22.7504
 -21585517.24648 -16772806.16846
                  21206605.7034                                   21206601.6644
                                                                        50.7504
        38.5004
  -8535895.83247  -6612384.11744
                  22873535.7344                                   22873531.5704
                                                                        44.2504
        28.0004
 09 10 14  0 37  0.0000000  0 10G02G04G05G13G29G23G16G07G10G25
 -10386047.88348  -8037651.51247
                  20606648.9224                                   20606643.1524
                                                                        52.0004
        42.0004
   3318018.53947   2608534.67645
                  22844237.6174                                   22844233.6764
                                                                        46.7504
        31.7504
 -16683440.07048 -12954884.79746
                  21891570.8754                                   21891566.3754
                                                                        49.0004
        38.2504
 -13354459.97748 -10343251.18445
                  21234662.7814                                   21234658.0514
                                                                        48.7504
        35.5004
 -19151677.30148 -14886361.95746
                  22064400.3834                                   22064396.7304
                                                                        49.0004
        36.7504
    406132.94947    347240.43844
                  23449148.2894                                   23449141.7814
                                                                        44.5004
        27.2504
   1835692.89546   1464269.68443
                  23984627.6094                                   23984623.1764
                                                                        41.2504
        22.2504
   3048151.89147   2416977.18443
                  24135826.1334                                   24135821.7304
                                                                        44.0004
        22.5004
 -21733799.59048 -16888350.85246
                  21178388.2034                                   21178384.4344
                                                                        51.2504
        39.0004
  -8665273.89147  -6713198.17244
                  22848915.8524                                   22848911.5784
                                                                        45.2504
        28.5004
 09 10 14  0 37 30.0000000  0 10G02G04G05G13G29G23G16G07G10G25
 -10418454.71148  -8062903.56646
                  20600482.1334                                   20600476.4184
                                                                        52.0004
        41.7504
   3346030.57447   2630362.23845
                  22849568.1884                                   22849564.4414
                                                                        47.7504
        31.5004
 -16844254.08648 -13080194.42246
                  21860968.9774                                   21860964.8984
                                                                        48.7504
        38.7504
 -13396924.87148 -10376340.71145
                  21226581.7504                                   21226577.5434
                                                                        48.5004
        35.2504
 -19262708.00848 -14972879.39846
                  22043272.1024                                   22043268.2734
                                                                        49.0004
        36.0004
    426330.24247    362978.57844
                  23452991.2894                                   23452985.2464
                                                                        42.0004
        26.0004
   1701304.75446   1359551.64543
                  23959054.3914                                   23959049.7464
                                                                        41.7504
        22.0004
   2876075.68047   2282891.83644
                  24103081.6024                                   24103076.5664
                                                                        43.7504
        24.5004
 -21881607.59848 -17003525.92646
                  21150261.2734                                   21150257.6524
                                                                        50.5004
        38.7504
  -8794132.75447  -6813607.66044
                  22824394.7034                                   22824390.5904
                                                                        43.5004
        28.7504
 09 10 14  0 38  0.0000000  0 10G02G04G05G13G29G23G16G07G10G25
  -8874868.96548  -6860109.46546
                  20894216.8594                                   20894210.7344
                                                                        51.5004
        41.0004
   4949728.10247   3879996.66845
                  23154741.2034                                   23154737.9734
                                                                        47.0004
        31.5004
 -15429269.18748 -11977608.78146
                  22130231.6094                                   22130227.6724
                                                                        49.0004
        38.5004
 -11863319.30148  -9181323.38745
                  21518417.1724                                   21518412.6914
                                                                        49.2504
        35.2504
 -17797720.97748 -13831331.07046
                  22322049.5864                                   22322045.9884
                                                                        48.5004
        36.5004
   2022291.95746   1606585.05943
                  23756692.0004                                   23756686.9454
                                                                        41.0004
        22.7504
   3142863.33247   2482844.04343
                  24233373.9614                                   24233368.5824
                                                                        43.0004
        22.5004
   4279719.89847   3376640.59444
                  24370186.0004                                   24370181.4104
                                                                        43.0004
        27.0004
 -20453517.01248 -15890728.05946
                  21422017.9924                                   21422014.2424
                                                                        50.0004
        39.0004
  -7347048.68447  -5686009.68444
                  23099766.0164                                   23099761.4024
                                                                        45.0004
        29.0004
 09 10 14  0 38 30.0000000  0 10G02G04G05G13G29G23G16G07G10G25
  -8906131.68748  -6884470.02046
                  20888267.8594                                   20888261.5824
                                                                        52.5004
        41.2504
   4978272.56647   3902239.09445
                  23160173.0634                                   23160169.5944
                                                                        46.0004
        31.0004
 -15589331.96548 -12102333.00846
                  22099772.5164                                   22099768.6484
                                                                        48.7504
        39.0004
 -11904485.11348  -9213400.64545
                  21510583.6094                                   21510579.5594
                                                                        49.0004
        35.0004
 -17907559.93048 -13916919.84446
                  22301148.2424                                   22301144.0784
                                                                        48.7504
        36.0004
   2043178.89146   1622860.55943
                  23760666.6024                                   23760660.6334
                                                                        39.7504
        21.5004
   3009524.85946   2378943.93443
                  24208000.6174                                   24207994.6884
                                                                        40.7504
        21.0004
   4108239.24646   3243019.30144
                  24337553.6414                                   24337550.3444
                                                                        41.5004
        25.7504
 -20600373.99248 -16005162.05146
                  21394072.0234                                   21394068.3014
                                                                        51.0004
        38.7504
  -7474865.85547  -5785607.47744
                  23075443.3284                                   23075438.4184
                                                                        43.5004
        28.5004
 09 10 14  0 39  0.0000000  0 10G02G04G05G13G29G23G16G07G10G25
  -8936821.61348  -6908384.24246
                  20882427.6334                                   20882421.3524
                                                                        51.5004
        41.5004
   5007082.44547   3924688.31645
                  23165655.4064                                   23165652.4804
                                                                        47.5004
        31.2504
 -15749013.96148 -12226760.54346
                  22069386.0704                                   22069382.0704
                                                                        49.5004
        38.5004
 -11945000.96548  -9244971.41845
                  21502873.6484                                   21502868.8554
                                                                        48.7504
        35.2504
 -18016798.41848 -14002040.73046
                  22280360.2734                                   22280356.8094
                                                                        48.2504
        37.0004
   2064409.18447   1639403.64143
                  23764707.0944                                   23764700.5354
                                                                        42.2504
        22.0004
   2876716.80546   2275457.07043
                  24182728.1804                                   24182722.6604
                                                                        40.7504
        19.2504
   3937062.88346   3109635.19544
                  24304979.9304                                   24304976.0664
                                                                        40.0004
        25.7504
 -20746750.59048 -16119221.73446
                  21366217.4144                                   21366213.9224
                                                                        50.7504
        39.5004
  -7602157.11747  -5884795.48044
                  23051220.2894                                   23051215.8754
                                                                        45.0004
        29.0004
 09 10 14  0 39 30.0000000  0 10G02G04G05G13G29G23G16G07G10G25
  -8966943.03548  -6931855.50446
                  20876695.7504                                   20876689.9494
                                                                        52.0004
        41.7504
   5036152.34847   3947340.17645
                  23171187.8054                                   23171184.0864
                                                                        47.0004
        31.2504
 -15908316.94948 -12350892.75446
                  22039072.0164                                   22039067.8284
                                                                        50.5004
        39.0004
 -11984871.72748  -9276039.55945
                  21495286.4924                                   21495282.2664
                                                                        49.5004
        35.2504
 -18125438.48448 -14086695.31646
                  22259687.1644                                   22259683.3484
                                                                        49.0004
        37.2504
   2085976.77347   1656209.59843
                  23768811.4064                                   23768804.3094
                                                                        44.0004
        22.7504
   2744437.87146   2172382.55543
                  24157555.7504                                   24157550.1764
                                                                        40.2504
        19.2504
   3766190.59446   2976488.03544
                  24272463.3594                                   24272460.0864
                                                                        40.0004
        24.2504
 -20892647.83648 -16232907.90646
                  21338453.9924                                   21338450.3834
                                                                        51.0004
        39.2504
  -7728923.77347  -5983574.69544
                  23027097.0314                                   23027093.0784
                                                                        45.2504
        28.7504
 09 10 14  0 40  0.0000000  0 10G02G04G05G13G29G23G16G07G10G25
  -8996498.28948  -6954885.58246
                  20871071.5474                                   20871065.8674
                                                                        52.0004
        41.0004
   5065478.88747   3970192.00045
                  23176768.1884                                   23176764.8634
                                                                        45.2504
        31.2504
 -16067240.03948 -12474728.93446
                  22008829.5164                                   22008825.7154
                                                                        50.2504
        38.7504
 -12024099.39148  -9306606.54745
                  21487821.4224                                   21487817.0394
                                                                        49.7504
        35.2504
 -18233480.17248 -14170883.63746
                  22239127.4384                                   22239123.5434
                                                                        49.0004
        37.0004
   2107877.59847   1673275.19544
                  23772979.4304                                   23772971.9184
                                                                        44.5004
        25.5004
   2612689.05946   2069721.16043
                  24132484.9224                                   24132480.0044
                                                                        39.0004
        19.2504
   3595624.37947   2843579.38744
                  24240006.4144                                   24240002.5084
                                                                        42.5004
        26.7504
 -21038065.27048 -16346220.17646
                  21310782.2504                                   21310778.3674
                                                                        51.5004
        39.2504
  -7855165.01247  -6081944.48444
                  23003074.2664                                   23003070.5234
                                                                        44.2504
        28.7504
 09 10 14  0 40 30.0000000  0 10G02G04G05G13G29G23G16G07G10G25
  -9025486.77348  -6977473.97346
                  20865555.1414                                   20865548.9844
                                                                        51.5004
        41.5004
   5095061.66047   3993243.48045
                  23182397.2504                                   23182394.1214
                                                                        46.0004
        31.5004
 -16225779.93448 -12598266.52046
                  21978660.6724                                   21978657.0664
                                                                        49.5004
        39.5004
 -12062684.87148  -9336673.16445
                  21480478.8834                                   21480474.6484
                                                                        50.2504
        35.0004
 -18340920.78948 -14254603.60946
                  22218682.2194                                   22218677.9494
                                                                        48.5004
        36.7504
   2130110.95347   1690599.86344
                  23777209.8364                                   23777203.7424
                                                                        44.0004
        25.5004
   2481474.05546   1967475.71143
                  24107515.2504                                   24107510.7344
                                                                        38.5004
        20.7504
   3425368.56647   2710912.53944
                  24207607.6484                                   24207603.7034
                                                                        43.5004
        26.0004
 -21182999.89848 -16459156.24646
                  21283201.9304                                   21283198.1024
                                                                        50.2504
        38.7504
  -7980877.63347  -6179902.33644
                  22979151.7114                                   22979148.1844
                                                                        43.5004
        28.7504
 09 10 14  0 41  0.0000000  0 10G02G04G05G13G29G23G16G07G10G25
  -9053912.29348  -6999623.72346
                  20860146.1884                                   20860139.8594
                                                                        51.7504
        41.5004
   5124895.94947   4016490.94945
                  23188074.5164                                   23188071.4534
                                                                        45.5004
        32.2504
 -16383937.31648 -12721506.02746
                  21948564.3204                                   21948560.3874
                                                                        49.7504
        38.2504
 -12100632.12148  -9366242.44145
                  21473258.4924                                   21473253.6334
                                                                        50.0004
        35.5004
 -18447761.72748 -14337856.28946
                  22198350.7664                                   22198347.3284
                                                                        49.0004
        37.0004
   2152671.44547   1708179.44544
                  23781502.9454                                   23781496.9384
                                                                        42.5004
        24.5004
   2350792.28146   1865645.78543
                  24082647.3914                                   24082642.9024
                                                                        38.0004
        21.0004
   3255423.46547   2578487.79344
                  24175268.0474                                   24175263.9344
                                                                        43.0004
        24.5004
 -21327452.01248 -16571716.30546
                  21255713.7274                                   21255709.7934
                                                                        51.2504
        39.0004
  -8106062.41047  -6277448.89844
                  22955329.8834                                   22955325.9064
                                                                        44.0004
        29.0004
 09 10 14  0 41 30.0000000  0 10G02G04G05G13G29G23G16G07G10G25
  -9081775.78548  -7021335.55146
                  20854843.8914                                   20854837.5904
                                                                        51.0004
        41.5004
   5154979.76647   4039932.84445
                  23193799.4924                                   23193796.3364
                                                                        46.0004
        30.7504
 -16541709.78148 -12844445.59846
                  21918541.1024                                   21918537.0204
                                                                        50.0004
        39.7504
 -12137940.44948  -9395313.86345
                  21466158.7424                                   21466154.1684
                                                                        50.0004
        35.2504
 -18554001.19148 -14420640.28546
                  22178134.6024                                   22178130.8524
                                                                        49.0004
        37.0004
   2175556.71546   1726012.06643
                  23785856.4774                                   23785852.1094
                                                                        40.5004
        22.5004
   2220646.45746   1764233.50443
                  24057880.8054                                   24057876.9574
                                                                        38.2504
        22.0004
   3085792.38747   2446307.72743
                  24142988.7504                                   24142983.9184
                                                                        42.7504
        22.5004
 -21471419.98448 -16683899.12546
                  21228317.7274                                   21228314.0904
                                                                        50.5004
        39.0004
  -8230717.11347  -6374582.40644
                  22931608.9304                                   22931605.0394
                                                                        43.2504
        28.0004
 09 10 14  0 42  0.0000000  0 10G02G04G05G13G29G23G16G07G10G25
  -9109079.46548  -7042611.13746
                  20849648.2734                                   20849642.1134
                                                                        51.5004
        41.5004
   5185310.28947   4063567.00845
                  23199571.2974                                   23199568.0394
                                                                        46.2504
        30.0004
 -16699096.75448 -12967084.77746
                  21888591.6094                                   21888587.4494
                                                                        50.0004
        39.5004
 -12174614.73448  -9423891.23045
                  21459179.6644                                   21459174.7114
                                                                        50.0004
        35.0004
 -18659639.16448 -14502955.58246
                  22158032.1094                                   22158028.2384
                                                                        49.2504
        36.7504
   2198763.21146   1744094.98843
                  23790273.5234                                   23790268.0824
                                                                        40.7504
        22.7504
   2091036.96946   1663239.11744
                  24033217.7814                                   24033213.2344
                                                                        39.2504
        24.0004
   2916477.44547   2314373.99244
                  24110768.7424                                   24110763.9964
                                                                        43.2504
        25.0004
 -21614903.09448 -16795704.12946
                  21201013.5084                                   21201009.8874
                                                                        50.0004
        40.0004
  -8354841.02047  -6471302.30944
                  22907989.2274                                   22907985.5394
                                                                        42.5004
        28.5004
 09 10 14  0 42 30.0000000  0 10G02G04G05G13G29G23G16G07G10G25
  -9135822.29748  -7063449.71146
                  20844558.9844                                   20844552.7544
                                                                        50.5004
        41.0004
   5215887.37547   4087393.30144
                  23205389.9614                                   23205386.7234
                                                                        45.7504
        29.7504
 -16856094.00448 -13089420.28946
                  21858716.4304                                   21858711.8524
                                                                        50.5004
        39.5004
 -12210654.01648  -9451973.78145
                  21452321.6724                                   21452317.2034
                                                                        48.7504
        35.2504
 -18764672.07448 -14584799.40246
                  22138045.0474                                   22138040.9884
                                                                        49.2504
        37.0004
   2222290.52047   1762427.92243
                  23794750.8834                                   23794745.1254
                                                                        42.0004
        22.5004
   1961968.77746   1562666.53944
                  24008656.7664                                   24008652.5554
                                                                        39.5004
        24.7504
   2747483.85247   2182690.68844
                  24078610.1094                                   24078605.8714
                                                                        42.5004
        26.5004
 -21757897.20748 -16907128.09046
                  21173802.7034                                   21173798.9534
                                                                        50.0004
        40.0004
  -8478430.03547  -6567605.39844
                  22884470.8674                                   22884466.8714
                                                                        43.5004
        29.2504
 09 10 14  0 43  0.0000000  0 10G02G04G05G13G29G23G16G07G10G25
  -9162009.09848  -7083855.01246
                  20839575.7344                                   20839569.7114
                                                                        51.0004
        41.2504
   5246705.62947   4111407.51245
                  23211254.4694                                   23211251.1724
                                                                        45.7504
        30.7504
 -17012703.58248 -13211453.73846
                  21828914.0234                                   21828910.3674
                                                                        50.0004
        39.2504
 -12246062.23448  -9479564.59845
                  21445583.7974                                   21445579.5354
                                                                        48.5004
        35.5004
 -18869102.56648 -14666173.80146
                  22118172.5164                                   22118169.0434
                                                                        49.2504
        36.5004
   2246132.68847   1781006.25443
                  23799288.9454                                   23799281.6954
                                                                        44.5004
        22.2504
   1833439.48046   1462513.84443
                  23984198.7584                                   23984193.6724
                                                                        39.5004
        23.0004
   2578810.90646   2051257.28144
                  24046512.4774                                   24046509.1374
                                                                        41.5004
        25.0004
 -21900404.60948 -17018172.79346
                  21146684.4144                                   21146680.6994
                                                                        49.7504
        39.5004
  -8601486.07047  -6663493.19944
                  22861053.9774                                   22861050.0234
                                                                        43.7504
        29.0004
 09 10 14  0 43 30.0000000  0 10G02G04G05G13G29G23G16G07G10G25
  -9187639.00848  -7103826.36746
                  20834698.5314                                   20834692.7974
                                                                        51.2504
        41.5004
   5277764.30547   4135609.07045
                  23217164.7114                                   23217161.7734
                                                                        46.5004
        31.5004
 -17168921.92248 -13333182.30946
                  21799186.5314                                   21799182.6174
                                                                        49.5004
        39.0004
 -12280839.74248  -9506663.95345
                  21438965.5704                                   21438961.2034
                                                                        48.0004
        35.2504
 -18972927.69548 -14747076.48046
                  22098415.5084                                   22098411.8054
                                                                        49.7504
        36.2504
   2270287.90247   1799828.53143
                  23803884.7504                                   23803877.6804
                                                                        44.2504
        22.2504
   1705452.81646   1362783.98043
                  23959843.9694                                   23959839.2424
                                                                        41.5004
        22.5004
   2410463.00446   1920077.18444
                  24014476.9534                                   24014473.6374
                                                                        41.0004
        25.7504
 -22042422.23848 -17128835.85946
                  21119659.1024                                   21119655.4534
                                                                        49.7504
        39.5004
  -8724005.83647  -6758963.15644
                  22837738.9384                                   22837735.0984
                                                                        43.0004
        29.2504
 09 10 14  0 44  0.0000000  0 10G02G04G05G13G29G23G16G07G10G25
  -9212712.89148  -7123364.44146
                  20829927.2584                                   20829921.5704
                                                                        51.0004
        41.5004
   5309062.08647   4159996.92244
                  23223120.7274                                   23223117.3164
                                                                        45.7504
        29.5004
 -17324746.70748 -13454604.19546
                  21769534.1644                                   21769530.1844
                                                                        50.0004
        39.2504
 -12314988.13348  -9533273.07845
                  21432467.5394                                   21432463.2234
                                                                        48.0004
        34.7504
 -19076146.06248 -14827506.37146
                  22078773.3134                                   22078769.8324
                                                                        49.5004
        37.5004
   2294754.91047   1818893.75843
                  23808540.5704                                   23808533.6994
                                                                        42.7504
        22.5004
   1578011.87946   1263479.36343
                  23935592.3204                                   23935587.3324
                                                                        41.7504
        22.5004
   2242444.04347   1789153.37944
                  23982504.1884                                   23982500.8284
                                                                        42.0004
        28.5004
 -22183947.19548 -17239115.01646
                  21092728.1254                                   21092724.0984
                                                                        50.0004
        39.7504
  -8845986.80947  -6854013.25444
                  22814527.2034                                   22814523.3484
                                                                        43.5004
        29.5004
 09 10 14  0 44 30.0000000  0 10G02G04G05G13G29G23G16G07G10G25
  -9237233.39548  -7142471.35246
                  20825261.2034                                   20825255.2814
                                                                        52.0004
        41.5004
   5340595.65647   4184568.50444
                  23229120.8204                                   23229117.6644
                                                                        45.0004
        29.5004
 -17480176.86348 -13575718.58646
                  21739956.5944                                   21739953.2464
                                                                        49.5004
        39.7504
 -12348509.97348  -9559393.99645
                  21426088.6564                                   21426083.9384
                                                                        48.2504
        34.7504
 -19178757.60248 -14907463.39846
                  22059247.3364                                   22059243.5744
                                                                        49.7504
        37.2504
   2319529.50846   1838198.64143
                  23813255.4774                                   23813248.8134
                                                                        41.5004
        22.7504
   1451117.17247   1164600.37543
                  23911445.1094                                   23911440.1954
                                                                        42.2504
        22.2504
   2074755.38347   1658486.94944
                  23950593.9924                                   23950590.3484
                                                                        43.0004
        29.0004
 -22324979.06648 -17349009.96146
                  21065890.4224                                   21065886.6684
                                                                        50.0004
        38.7504
  -8967428.57047  -6948643.16444
                  22791417.4614                                   22791413.4104
                                                                        44.5004
        29.7504
 09 10 14  0 45  0.0000000  0 10G02G04G05G13G29G23G16G07G10G25
  -9261202.61348  -7161148.67646
                  20820699.9924                                   20820693.9184
                                                                        51.7504
        41.2504
   5372361.85547   4209321.32844
                  23235166.3054                                   23235162.8954
                                                                        45.0004
        29.7504
 -17635211.66848 -13696524.89546
                  21710454.5704                                   21710450.7424
                                                                        49.5004
        39.5004
 -12381407.02747  -9585028.07045
                  21419828.4774                                   21419823.7704
                                                                        47.7504
        34.7504
 -19280762.15648 -14986947.45746
                  22039836.5314                                   22039832.4844
                                                                        50.0004
        36.7504
   2344608.23846   1857740.45744
                  23818027.5554                                   23818020.8954
                                                                        41.7504
        25.2504
   1324769.48046   1066147.60543
                  23887402.6174                                   23887396.7074
                                                                        41.5004
        22.0004
   1907399.18447   1528079.56344
                  23918747.6644                                   23918743.3594
                                                                        44.0004
        26.0004
 -22465517.38348 -17458520.32446
                  21039146.7344                                   21039142.7934
                                                                        49.2504
        39.2504
  -9088330.53547  -7042852.46944
                  22768410.8204                                   22768406.9184
                                                                        45.2504
        28.2504
 09 10 14  0 45 30.0000000  0 10G02G04G05G13G29G23G16G07G10G25
  -9284618.56248  -7179394.87546
                  20816244.0944                                   20816238.4224
                                                                        51.7504
        41.0004
   5404361.88347   4234256.38345
                  23241255.0704                                   23241252.4694
                                                                        46.0004
        30.2504
 -17789846.57448 -13817019.63346
                  21681028.6254                                   21681024.7384
                                                                        50.0004
        39.7504
 -12413678.30947  -9610174.51645
                  21413687.1174                                   21413682.6054
                                                                        47.0004
        34.0004
 -19382155.73448 -15065955.45346
                  22020541.7274                                   22020537.7814
                                                                        50.0004
        36.7504
   2369991.54346   1877519.58243
                  23822857.1954                                   23822851.7704
                                                                        40.2504
        23.7504
   1198974.04746    968125.19543
                  23863463.9774                                   23863458.3634
                                                                        41.7504
        21.5004
   1740381.54747   1397935.97744
                  23886964.4384                                   23886960.9884
                                                                        42.5004
        26.7504
 -22605557.26648 -17567642.28146
                  21012498.1724                                   21012494.6564
                                                                        49.5004
        40.0004
  -9208687.60247  -7136637.19944
                  22745507.3754                                   22745503.1174
                                                                        44.5004
        29.7504
 09 10 14  0 46  0.0000000  0 10G02G04G05G13G29G23G16G07G10G25
  -9307486.31648  -7197213.89846
                  20811892.5704                                   20811886.5474
                                                                        51.5004
        41.0004
   5436589.84447   4259369.07445
                  23247388.9454                                   23247384.7274
                                                                        46.2504
        30.0004
 -17944083.07048 -13937203.91046
                  21651678.6254                                   21651674.2424
                                                                        50.0004
        40.0004
 -12445329.50847  -9634837.79345
                  21407664.1334                                   21407660.0474
                                                                        47.2504
        35.2504
 -19482940.83648 -15144489.29746
                  22001363.1414                                   22001359.1564
                                                                        49.7504
        37.2504
   2395673.08647   1897531.12143
                  23827744.5474                                   23827739.3204
                                                                        43.2504
        23.0004
   1073729.08246    870531.68843
                  23839630.9224                                   23839625.0434
                                                                        41.2504
        20.2504
   1573701.78947   1268055.74244
                  23855247.1174                                   23855242.7544
                                                                        43.5004
        24.0004
 -22745100.78148 -17676377.47746
                  20985944.1024                                   20985940.2304
                                                                        49.7504
        39.7504
  -9328502.14547  -7229999.16444
                  22722707.2274                                   22722703.1564
                                                                        45.0004
        29.7504
 09 10 14  0 46 30.0000000  0 10G02G04G05G13G29G23G16G07G10G25
  -9329804.62148  -7214604.79746
                  20807645.6174                                   20807639.7194
                                                                        51.0004
        41.2504
   5469046.00847   4284659.55945
                  23253564.4924                                   23253561.1334
                                                                        46.5004
        30.7504
 -18097917.18748 -14057074.66446
                  21622404.8524                                   21622400.7114
                                                                        50.5004
        39.2504
 -12476360.29347  -9659017.61745
                  21401759.4774                                   21401754.9844
                                                                        47.2504
        34.7504
 -19583113.89148 -15222546.20746
                  21982300.8754                                   21982297.0554
                                                                        49.7504
        37.0004
   2421652.80947   1917775.03943
                  23832688.5394                                   23832682.5434
                                                                        43.0004
        23.2504
    949038.96546    773370.53143
                  23815902.6564                                   23815897.7074
                                                                        40.5004
        20.5004
   1407365.66047   1138443.21944
                  23823594.2584                                   23823589.5904
                                                                        42.0004
        25.0004
 -22884144.02048 -17784722.89146
                  20959484.8364                                   20959481.0004
                                                                        49.7504
        40.2504
  -9447769.62947  -7322934.85544
                  22700012.0164                                   22700006.8594
                                                                        45.0004
        28.5004
 09 10 14  0 47  0.0000000  0 10G02G04G05G13G29G23G16G07G10G25
  -9351575.69148  -7231569.27746
                  20803502.5164                                   20803496.6804
                                                                        52.0004
        41.5004
   5501727.63747   4310125.77044
                  23259784.2424                                   23259780.3284
                                                                        46.7504
        27.5004
 -18251347.71548 -14176630.91046
                  21593207.5314                                   21593203.7304
                                                                        50.5004
        39.7504
 -12506771.91848  -9682714.98045
                  21395972.3524                                   21395967.6994
                                                                        48.5004
        35.0004
 -19682674.79348 -15300126.09846
                  21963354.5784                                   21963350.8754
                                                                        50.7504
        37.0004
   2447927.00447   1938248.44143
                  23837688.8674                                   23837682.2814
                                                                        44.0004
        22.7504
    824904.69146    676642.55943
                  23792280.3054                                   23792275.6994
                                                                        40.2504
        19.7504
   1241374.81346   1009099.77744
                  23792006.2274                                   23792002.5944
                                                                        41.0004
        25.0004
 -23022685.68048 -17892677.43046
                  20933121.3134                                   20933117.4144
                                                                        50.0004
        39.5004
  -9566489.72347  -7415444.01244
                  22677419.8674                                   22677415.6254
                                                                        44.5004
        28.0004
 09 10 14  0 47 30.0000000  0 10G02G04G05G13G29G23G16G07G10G25
  -9372801.38348  -7248108.75846
                  20799463.3444                                   20799457.3554
                                                                        51.5004
        40.7504
   5534632.15647   4335765.64544
                  23266045.3134                                   23266042.1294
                                                                        45.2504
        28.7504
 -18404373.51248 -14295871.75446
                  21564088.1884                                   21564084.1484
                                                                        50.2504
        39.5004
 -12536567.41048  -9705932.25045
                  21390302.5944                                   21390297.9024
                                                                        48.2504
        34.5004
 -19781623.31648 -15377228.81646
                  21944525.7664                                   21944522.0594
                                                                        50.0004
        37.5004
   2474492.73047   1958949.02343
                  23842743.4924                                   23842737.4804
                                                                        43.2504
        22.5004
    701327.52846    580348.65743
                  23768763.4224                                   23768760.2584
                                                                        39.7504
        20.0004
   1075731.47347    880027.08644
                  23760486.0004                                   23760482.3014
                                                                        43.0004
        26.0004
 -23160725.00048 -18000240.52346
                  20906853.1024                                   20906849.6054
                                                                        50.2504
        39.5004
  -9684661.01647  -7507525.52344
                  22654932.8524                                   22654928.7854
                                                                        45.0004
        28.7504
 09 10 14  0 48  0.0000000  0 10G02G04G05G13G29G23G16G07G10G25
  -9393482.30948  -7264223.76646
                  20795527.9144                                   20795521.7234
                                                                        50.7504
        41.0004
   5567757.86747   4361577.85245
                  23272348.5394                                   23272345.6024
                                                                        44.2504
        30.2504
 -18556992.02748 -14414795.22346
                  21535045.5004                                   21535041.7584
                                                                        51.0004
        40.0004
 -12565747.85548  -9728670.25045
                  21384749.3754                                   21384744.5824
                                                                        48.0004
        34.2504
 -19879957.65648 -15453852.95746
                  21925812.8914                                   21925809.4884
                                                                        49.5004
        37.0004
   2501348.08646   1979875.27343
                  23847853.9844                                   23847847.4304
                                                                        41.0004
        21.0004
    578309.82446    484490.75443
                  23745355.2344                                   23745350.3984
                                                                        41.0004
        21.2504
    910439.73047    751228.37944
                  23729032.2974                                   23729028.2114
                                                                        42.0004
        27.7504
 -23298259.59448 -18107410.31646
                  20880681.3444                                   20880677.7814
                                                                        49.0004
        39.7504
  -9802281.41047  -7599177.76644
                  22632550.0704                                   22632546.4884
                                                                        45.2504
        29.5004
 09 10 14  0 48 30.0000000  0 10G02G04G05G13G29G23G16G07G10G25
  -7838201.14848  -6052316.35246
                  21091488.1024                                   21091481.9804
                                                                        51.2504
        41.0004
   7176520.01647   5615158.71945
                  23578485.7344                                   23578482.9414
                                                                        46.0004
        30.2504
 -17133778.18048 -13305797.38746
                  21805874.0164                                   21805870.0164
                                                                        51.5004
        40.2504
 -11018895.90648  -8523331.07045
                  21679105.7274                                   21679101.0744
                                                                        48.7504
        34.5004
 -18402255.68448 -14302396.85946
                  22207010.5634                                   22207007.0314
                                                                        49.7504
        37.2504
   4103907.62546   3228622.96943
                  24152810.7344                                   24152804.7114
                                                                        41.2504
        19.5004
   2031275.94146   1616672.12943
                  24021845.4454                                   24021840.7274
                                                                        41.0004
        21.5004
   2320925.92647   1850308.58644
                  23997438.7034                                   23997434.7814
                                                                        44.0004
        29.2504
 -21859865.10548 -16986583.43046
                  21154398.8204                                   21154394.9104
                                                                        49.5004
        39.7504
  -8343927.17647  -6462797.83644
                  22910065.3444                                   22910061.8954
                                                                        45.7504
        29.7504
 09 10 14  0 49  0.0000000  0 10G02G04G05G13G29G23G16G07G10G25
  -7857804.37548  -6067591.60546
                  21087757.8674                                   21087751.6094
                                                                        51.5004
        41.7504
   7210074.86747   5641305.35245
                  23584871.7034                                   23584868.6374
                                                                        45.7504
        30.0004
 -17285584.68448 -13424088.19546
                  21776986.5084                                   21776982.4184
                                                                        51.0004
        40.2504
 -11046858.61348  -8545120.18745
                  21673784.5234                                   21673779.8284
                                                                        48.5004
        35.5004
 -18499366.65248 -14378067.73046
                  22188530.7114                                   22188527.4144
                                                                        50.0004
        37.2504
   4131326.70747   3249988.47743
                  24158028.7974                                   24158022.5744
                                                                        42.0004
        21.2504
   1909375.47747   1521684.75443
                  23998649.5634                                   23998644.2464
                                                                        43.0004
        22.5004
   2156337.74647   1722058.10244
                  23966118.9534                                   23966115.1844
                                                                        42.2504
        27.7504
 -21996393.38748 -17092969.09046
                  21128418.0784                                   21128414.4144
                                                                        49.5004
        40.2504
  -8460448.50047  -6553593.65645
                  22887892.4304                                   22887888.5004
                                                                        45.5004
        30.0004
 09 10 14  0 49 30.0000000  0 10G02G04G05G13G29G23G16G07G10G25
  -7876869.35548  -6082447.44146
                  21084129.6724                                   21084124.0204
                                                                        51.0004
        40.7504
   7243842.38347   5667617.66844
                  23591297.1094                                   23591294.3524
                                                                        45.0004
        28.7504
 -17436980.95748 -13542059.34046
                  21748176.6954                                   21748172.5784
                                                                        51.5004
        39.7504
 -11074214.34848  -8566436.34445
                  21668579.1334                                   21668574.9804
                                                                        49.0004
        34.2504
 -18595863.04748 -14453259.70746
                  22170168.3284                                   22170164.3364
                                                                        49.0004
        37.7504
   4159025.00047   3271571.55544
                  24163299.6644                                   24163293.9304
                                                                        42.7504
        24.0004
   1788037.54747   1427135.69144
                  23975558.9694                                   23975554.5554
                                                                        42.5004
        24.0004
   1992107.71547   1594086.68444
                  23934866.5864                                   23934862.8014
                                                                        43.7504
        29.0004
 -22132415.27748 -17198960.15646
                  21102534.2584                                   21102530.3094
                                                                        49.5004
        39.5004
  -8576416.66047  -6643958.44144
                  22865824.3134                                   22865820.5164
                                                                        45.5004
        29.5004
 09 10 14  0 50  0.0000000  0 10G02G04G05G13G29G23G16G07G10G25
  -7895401.49248  -6096888.06246
                  21080603.3914                                   21080597.3834
                                                                        49.7504
        40.5004
   7277816.53947   5694090.99644
                  23597762.1414                                   23597759.1414
                                                                        44.2504
        28.5004
 -17587969.34048 -13659712.62146
                  21719444.6564                                   21719440.7774
                                                                        51.0004
        40.5004
 -11100968.16848  -8587283.46545
                  21663487.9064                                   21663483.6684
                                                                        49.2504
        35.0004
 -18691748.33248 -14527975.50046
                  22151921.6484                                   22151918.0984
                                                                        49.7504
        37.5004
   4186996.00846   3293367.10243
                  24168622.0394                                   24168616.1604
                                                                        41.2504
        22.7504
   1667259.90647   1333023.25044
                  23952576.2194                                   23952571.4024
                                                                        42.2504
        25.0004
   1828234.12946   1466393.00844
                  23903681.7974                                   23903677.9024
                                                                        41.0004
        27.0004
 -22267932.73448 -17304558.16446
                  21076745.7424                                   21076741.9454
                                                                        48.2504
        40.2504
  -8691834.23847  -6733894.20345
                  22843861.4614                                   22843856.9844
                                                                        45.7504
        30.7504
 09 10 14  0 50 30.0000000  0 10G02G04G05G13G29G23G16G07G10G25
  -7913399.38748  -6110912.41446
                  21077178.5004                                   21077172.7344
                                                                        51.0004
        40.5004
   7311998.18047   5720726.03944
                  23604267.0704                                   23604263.4844
                                                                        45.0004
        28.5004
 -17738545.25048 -13777044.49646
                  21690790.9614                                   21690787.3954
                                                                        51.2504
        40.2504
 -11127119.33248  -8607660.99245
                  21658511.2664                                   21658507.0204
                                                                        49.5004
        34.5004
 -18787018.69948 -14602212.13346
                  22133792.4844                                   22133788.5634
                                                                        49.0004
        37.5004
   4215239.72346   3315375.13744
                  24173997.3134                                   24173990.9264
                                                                        41.5004
        24.5004
   1547047.36747   1239351.15244
                  23929700.0864                                   23929695.7424
                                                                        43.2504
        24.2504
   1664722.99647   1338981.77744
                  23872567.1804                                   23872562.9654
                                                                        43.0004
        26.0004
 -22402941.10248 -17409759.47746
                  21051054.7894                                   21051050.9694
                                                                        50.0004
        40.0004
  -8806696.62547  -6823397.35544
                  22822003.6334                                   22821999.5594
                                                                        46.0004
        29.5004
 09 10 14  0 51  0.0000000  0 10G02G04G05G13G29G23G16G07G10G25
  -7930865.28548  -6124522.20746
                  21073854.4924                                   21073848.8054
                                                                        50.5004
        40.7504
   7346384.35547   5747520.46144
                  23610810.1954                                   23610807.1684
                                                                        45.2504
        29.0004
 -17888707.59848 -13894054.12146
                  21662215.6334                                   21662211.8594
                                                                        51.0004
        40.0004
 -11152670.53148  -8627571.01245
                  21653649.3054                                   21653644.7194
                                                                        49.5004
        34.5004
 -18881673.95348 -14675969.46146
                  22115780.1644                                   22115776.8054
                                                                        48.7504
        37.7504
   4243752.78146   3337593.06643
                  24179423.0554                                   24179417.0784
                                                                        41.7504
        22.2504
   1427400.55947   1146119.87144
                  23906932.2974                                   23906927.6294
                                                                        42.5004
        25.5004
   1501576.15247   1211854.38343
                  23841520.9384                                   23841516.5514
                                                                        42.0004
        22.7504
 -22537439.79348 -17514563.65646
                  21025460.3594                                   21025456.7974
                                                                        49.0004
        40.0004
  -8921003.34447  -6912467.52045
                  22800251.7974                                   22800247.4774
                                                                        45.7504
        30.7504
 09 10 14  0 51 30.0000000  0 10G02G04G05G13G29G23G16G07G10G25
  -7947799.07848  -6137717.37946
                  21070632.4534                                   21070626.5904
                                                                        50.7504
        40.5004
   7380974.43447   5774473.74644
                  23617392.3834                                   23617389.1914
                                                                        45.0004
        26.7504
 -18038453.19148 -14010738.99246
                  21633720.2344                                   21633716.1604
                                                                        50.5004
        39.5004
 -11177621.64548  -8647013.44945
                  21648900.9224                                   21648896.3874
                                                                        49.0004
        34.5004
 -18975711.68048 -14749245.61746
                  22097885.2584                                   22097881.7344
                                                                        49.5004
        37.5004
   4272534.58246   3360020.42243
                  24184899.6644                                   24184893.1844
                                                                        39.2504
        22.2504
   1308323.07047   1053332.23843
                  23884272.1644                                   23884267.5984
                                                                        42.2504
        22.7504
   1338798.48447   1085014.69544
                  23810545.4694                                   23810540.7034
                                                                        42.5004
        25.2504
 -22671425.74248 -17618968.27046
                  20999963.6024                                   20999959.8954
                                                                        50.2504
        39.7504
  -9034751.28547  -7001102.27044
                  22778606.1954                                   22778602.1334
                                                                        45.5004
        29.2504
 09 10 14  0 52  0.0000000  0 10G02G04G05G13G29G23G16G07G10G25
  -7964204.52048  -6150500.84446
                  21067510.3834                                   21067504.4184
                                                                        51.5004
        40.2504
   7415764.33247   5801582.74644
                  23624012.6804                                   23624009.5274
                                                                        44.5004
        29.0004
 -18187782.45748 -14127099.44546
                  21605303.7114                                   21605299.8244
                                                                        51.0004
        40.5004
 -11201977.88748  -8665992.34045
                  21644266.4384                                   21644261.6914
                                                                        49.0004
        34.2504
 -19069133.78548 -14822042.04746
                  22080107.8284                                   22080104.0984
                                                                        49.2504
        37.7504
   4301579.89846   3382653.11343
                  24190426.6254                                   24190420.1484
                                                                        39.5004
        19.2504
   1189813.68446    960987.27743
                  23861720.4844                                   23861716.7774
                                                                        41.0004
        22.5004
   1176390.08647    958462.70744
                  23779640.6884                                   23779635.8874
                                                                        43.2504
        27.0004
 -22804899.69548 -17722973.91846
                  20974564.3914                                   20974560.7154
                                                                        50.7504
        39.7504
  -9147941.46547  -7089302.39145
                  22757066.9844                                   22757062.9024
                                                                        45.7504
        30.0004
 09 10 14  0 52 30.0000000  0 10G02G04G05G13G29G23G16G07G10G25
  -7980082.86348  -6162873.58646
                  21064489.0554                                   21064482.9884
                                                                        49.5004
        40.7504
   7450751.98447   5828845.82044
                  23630670.8674                                   23630668.1954
                                                                        44.5004
        29.5004
 -18336693.57448 -14243134.06246
                  21576966.8364                                   21576962.9614
                                                                        50.0004
        40.2504
 -11225740.22348  -8684508.44545
                  21639744.2974                                   21639739.7154
                                                                        49.2504
        33.7504
 -19161939.02048 -14894357.82046
                  22062447.3054                                   22062443.7274
                                                                        48.2504
        38.2504
   4330886.22346   3405489.21943
                  24196003.8134                                   24195997.2664
                                                                        40.2504
        20.5004
   1071874.90646    869086.93444
                  23839277.2584                                   23839273.0744
                                                                        41.0004
        24.0004
   1014354.28947    832201.08644
                  23748806.4384                                   23748802.0944
                                                                        43.2504
        28.0004
 -22937860.30148 -17826579.55946
                  20949262.8754                                   20949259.0354
                                                                        49.0004
        39.5004
  -9260572.09047  -7177066.51245
                  22735634.2974                                   22735630.1804
                                                                        46.2504
        30.2504
 09 10 14  0 53  0.0000000  0  9G02G04G05G13G29G16G07G10G25
  -7995435.91048  -6174837.02046
                  21061567.4384                                   21061561.3524
                                                                        50.0004
        40.7504
   7485935.00047   5856261.14144
                  23637366.1174                                   23637363.2734
                                                                        43.0004
        29.0004
 -18485185.27348 -14358841.86346
                  21548710.0634                                   21548705.6954
                                                                        50.7504
        40.0004
 -11248911.12948  -8702563.68745
                  21635335.1804                                   21635331.2734
                                                                        49.7504
        34.0004
 -19254126.93448 -14966192.56646
                  22044904.8594                                   22044900.8794
                                                                        49.0004
        37.2504
    954507.65246    777631.94943
                  23816943.0394                                   23816938.4804
                                                                        40.2504
        21.5004
    852693.85247    706231.93444
                  23718043.0234                                   23718039.1294
                                                                        43.0004
        28.7504
 -23070306.21148 -17929784.14146
                  20924059.1334                                   20924055.5984
                                                                        50.2504
        40.0004
  -9372642.25447  -7264393.89145
                  22714307.6954                                   22714303.2894
                                                                        46.0004
        30.5004
 09 10 14  0 53 30.0000000  0  9G02G04G05G13G29G16G07G10G25
  -8010263.67648  -6186391.15246
                  21058745.7504                                   21058739.8244
                                                                        50.5004
        40.5004
   7521312.72746   5883828.15244
                  23644097.8524                                   23644095.2854
                                                                        41.7504
        28.0004
 -18633254.23048 -14474220.25846
                  21520533.2344                                   21520528.9694
                                                                        50.0004
        40.5004
 -11271490.83648  -8720158.25845
                  21631038.3834                                   21631034.0434
                                                                        49.0004
        34.0004
 -19345695.79748 -15037544.93046
                  22027479.7344                                   22027476.0044
                                                                        48.7504
        37.5004
    837715.22746    686624.84843
                  23794718.4534                                   23794713.2664
                                                                        40.5004
        22.0004
    691412.98447    580558.55544
                  23687352.4534                                   23687348.5704
                                                                        43.2504
        27.7504
 -23202234.62548 -18032585.50446
                  20898954.0784                                   20898950.0944
                                                                        50.5004
        40.0004
  -9484148.99647  -7351282.26245
                  22693088.6024                                   22693084.3054
                                                                        46.2504
        30.2504
 09 10 14  0 54  0.0000000  0  9G02G04G05G13G29G16G07G10G25
  -8024566.17648  -6197535.98846
                  21056024.1724                                   21056018.2504
                                                                        49.7504
        40.2504
   7556884.66847   5911546.50044
                  23650867.0704                                   23650863.7034
                                                                        42.7504
        26.5004
 -18780896.57848 -14589266.20346
                  21492437.7894                                   21492433.7704
                                                                        50.2504
        40.5004
 -11293479.68748  -8737292.43045
                  21626853.9774                                   21626849.9184
                                                                        49.0004
        34.0004
 -19436642.98048 -15108412.87546
                  22010173.0864                                   22010169.4884
                                                                        48.5004
        37.7504
    721500.66846    596068.06643
                  23772603.6884                                   23772598.6884
                                                                        39.5004
        21.2504
    530515.93847    455184.26644
                  23656734.7344                                   23656730.2234
                                                                        43.0004
        28.0004
 -23333642.11348 -18134980.96546
                  20873948.1334                                   20873944.4384
                                                                        49.7504
        40.5004
  -9595089.52047  -7437729.42645
                  22671977.2274                                   22671973.2854
                                                                        46.0004
        30.5004
 09 10 14  0 54 30.0000000  0  9G02G04G05G13G29G16G07G10G25
  -8038342.71948  -6208270.97346
                  21053402.6334                                   21053396.5864
                                                                        50.5004
        40.5004
   7592651.06347   5939416.41444
                  23657673.8674                                   23657669.9614
                                                                        43.5004
        26.5004
 -18928109.51648 -14703977.57046
                  21464424.1334                                   21464420.2034
                                                                        50.0004
        40.2504
 -11314877.71148  -8753966.20745
                  21622782.0634                                   21622777.6134
                                                                        49.0004
        34.2504
 -19526965.69148 -15178794.20746
                  21992985.2814                                   21992981.6054
                                                                        49.2504
        37.7504
    605867.46946    505964.26643
                  23750599.3754                                   23750594.3914
                                                                        40.5004
        21.2504
    370007.83246    330113.05144
                  23626190.7974                                   23626186.8914
                                                                        40.7504
        27.2504
 -23464525.31248 -18236967.87546
                  20849041.6484                                   20849038.0864
                                                                        51.0004
        40.5004
  -9705460.18047  -7523732.52045
                  22650974.7584                                   22650969.8444
                                                                        46.2504
        30.7504
 09 10 14  0 55  0.0000000  0  9G02G04G05G13G29G16G07G10G25
  -8051597.50448  -6218599.37146
                  21050880.2504                                   21050874.4224
                                                                        49.7504
        40.0004
   7628606.80947   5967433.86744
                  23664515.8754                                   23664512.3914
                                                                        43.5004
        28.0004
 -19074893.80948 -14818354.94546
                  21436491.8834                                   21436488.1294
                                                                        50.0004
        40.5004
 -11335689.66048  -8770183.31645
                  21618821.4534                                   21618817.5314
                                                                        48.7504
        34.2504
 -19616666.14848 -15248690.65646
                  21975915.6954                                   21975912.1294
                                                                        48.5004
        37.5004
    490814.70746    416312.77343
                  23728705.0554                                   23728700.3284
                                                                        41.2504
        22.5004
    209888.52746    205344.78944
                  23595721.3444                                   23595716.9534
                                                                        41.7504
        26.7504
 -23594885.59848 -18338547.30146
                  20824235.1024                                   20824231.8444
                                                                        50.2504
        40.5004
  -9815262.71147  -7609292.94144
                  22630080.1174                                   22630075.8524
                                                                        46.2504
        28.2504
 09 10 14  0 55 30.0000000  0  9G02G04G05G13G29G16G07G10G25
  -8064335.70748  -6228525.23446
                  21048456.2814                                   21048450.6134
                                                                        50.2504
        40.5004
   7664746.59447   5995594.74644
                  23671393.2114                                   23671390.2274
                                                                        44.2504
        28.5004
 -19221251.01648 -14932399.50846
                  21408641.1174                                   21408637.1374
                                                                        50.0004
        39.7504
 -11355921.00448  -8785948.00045
                  21614971.6644                                   21614967.7384
                                                                        48.5004
        33.5004
 -19705746.87148 -15318104.19546
                  21958964.4064                                   21958960.7544
                                                                        48.0004
        37.5004
    376340.37947    327112.00043
                  23706921.9924                                   23706916.9304
                                                                        42.0004
        22.0004
     50157.66047     80879.20344
                  23565324.8204                                   23565320.5984
                                                                        42.5004
        26.5004
 -23724725.26648 -18439721.05146
                  20799527.2974                                   20799523.9574
                                                                        49.5004
        40.7504
  -9924498.87547  -7694412.02344
                  22609292.9774                                   22609288.4494
                                                                        46.0004
        28.5004
 09 10 14  0 56  0.0000000  0  9G02G04G05G13G29G16G07G10G25
  -8076560.95748  -6238051.41846
                  21046129.9144                                   21046124.0314
                                                                        49.2504
        40.5004
   7701066.35247   6023895.84044
                  23678304.4534                                   23678300.8364
                                                                        43.7504
        27.0004
 -19367181.05148 -15046111.18746
                  21380871.6724                                   21380867.8984
                                                                        50.7504
        40.7504
 -11375575.63748  -8801263.29745
                  21611231.6804                                   21611227.1994
                                                                        49.0004
        33.7504
 -19794209.54748 -15387036.15246
                  21942130.7894                                   21942126.8094
                                                                        48.5004
        38.0004
    262444.08246    238361.62943
                  23685248.0234                                   23685242.8014
                                                                        41.5004
        22.2504
   -109183.91847    -43283.07844
                  23535003.7664                                   23534998.8754
                                                                        42.7504
        27.5004
 -23854044.47348 -18540489.25846
                  20774918.9774                                   20774914.8554
                                                                        50.2504
        40.2504
 -10033169.59047  -7779090.49644
                  22588613.5234                                   22588608.9734
                                                                        46.0004
        29.0004
 09 10 14  0 56 30.0000000  0  9G02G04G05G13G29G16G07G10G25
  -8088273.99248  -6247178.46146
                  21043901.0474                                   21043895.3834
                                                                        49.5004
        39.5004
   7737564.61347   6052336.02344
                  23685249.6174                                   23685246.6994
                                                                        43.0004
        27.5004
 -19512682.28948 -15159488.73846
                  21353183.4774                                   21353179.4454
                                                                        49.7504
        41.2504
 -11394655.13748  -8816130.44545
                  21607601.2344                                   21607596.9804
                                                                        49.5004
        34.0004
 -19882053.16848 -15455485.73046
                  21925414.3914                                   21925410.9924
                                                                        48.2504
        38.0004
    149127.92246    150063.30943
                  23663684.6414                                   23663679.6174
                                                                        41.5004
        22.7504
   -268132.71547   -167139.27044
                  23504757.1644                                   23504752.1644
                                                                        43.0004
        28.2504
 -23982841.39848 -18640850.48046
                  20750409.4774                                   20750405.7304
                                                                        50.0004
        40.5004
 -10141273.00047  -7863326.90244
                  22568041.8204                                   22568037.8984
                                                                        46.0004
        29.5004
 09 10 14  0 57  0.0000000  0  9G02G04G05G13G29G16G07G10G25
  -8099476.73448  -6255907.86746
                  21041769.3364                                   21041763.3554
                                                                        49.2504
        40.5004
   7774239.15247   6080913.56644
                  23692228.0234                                   23692225.7544
                                                                        42.2504
        26.0004
 -19657753.05548 -15272530.87146
                  21325577.5004                                   21325573.1724
                                                                        50.0004
        40.2504
 -11413161.56648  -8830551.03145
                  21604079.2194                                   21604075.0004
                                                                        48.7504
        33.2504
 -19969277.06648 -15523452.41846
                  21908816.2344                                   21908812.7424
                                                                        48.2504
        37.7504
     36393.40247     62218.21143
                  23642231.7274                                   23642227.0354
                                                                        42.2504
        22.5004
   -426686.02047   -290687.27344
                  23474585.1724                                   23474580.6024
                                                                        43.5004
        27.0004
 -24111114.91048 -18740803.84446
                  20725999.8134                                   20725996.3484
                                                                        50.0004
        40.0004
 -10248807.95347  -7947120.35245
                  22547578.7894                                   22547574.8554
                                                                        45.5004
        30.7504
 09 10 14  0 57 30.0000000  0  9G02G04G05G13G29G16G07G10G25
  -8110172.97748  -6264242.57046
                  21039733.5784                                   21039727.9264
                                                                        49.7504
        40.2504
   7811085.60547   6109625.04344
                  23699239.7664                                   23699237.6564
                                                                        42.0004
        27.7504
 -19802393.81248 -15385237.91446
                  21298053.0394                                   21298049.4774
                                                                        50.2504
        40.7504
 -11431099.34048  -8844528.50845
                  21600665.9064                                   21600661.5514
                                                                        48.5004
        33.2504
 -20055883.07448 -15590937.61346
                  21892335.4844                                   21892332.0164
                                                                        48.2504
        38.0004
    -75760.39546    -25174.34443
                  23620890.0394                                   23620884.6604
                                                                        41.5004
        22.5004
   -584843.43747   -413926.80544
                  23444489.2034                                   23444484.6094
                                                                        45.0004
        29.2504
 -24238865.69948 -18840349.91046
                  20701689.6804                                   20701686.0274
                                                                        49.7504
        41.2504
 -10355775.50847  -8030471.69145
                  22527223.3444                                   22527219.6454
                                                                        45.7504
        30.2504
 09 10 14  0 58  0.0000000  0  9G02G04G05G13G29G16G07G10G25
  -8120363.02748  -6272182.86346
                  21037794.7034                                   21037788.4574
                                                                        49.7504
        40.5004
   7848103.29747   6138469.96944
                  23706284.8834                                   23706281.7114
                                                                        44.7504
        27.0004
 -19946601.62548 -15497607.60246
                  21270611.4384                                   21270607.3054
                                                                        50.5004
        40.7504
 -11448469.32448  -8858063.56645
                  21597360.3914                                   21597355.8484
                                                                        49.2504
        33.5004
 -20141869.30948 -15657939.86346
                  21875973.0084                                   21875969.5044
                                                                        48.5004
        37.5004
   -187331.06246   -112112.52743
                  23599658.9064                                   23599653.7424
                                                                        41.7504
        22.2504
   -742600.88347   -536854.66444
                  23414468.6094                                   23414464.0864
                                                                        43.0004
        28.7504
 -24366090.90648 -18939486.42246
                  20677479.5554                                   20677475.8244
                                                                        49.7504
        41.0004
 -10462173.33647  -8113379.07845
                  22506976.8054                                   22506972.5084
                                                                        46.5004
        30.2504
 09 10 14  0 58 30.0000000  0  9G02G04G05G13G29G16G07G10G25
  -8130047.65648  -6279729.31246
                  21035951.7194                                   21035946.1484
                                                                        50.0004
        40.0004
   7885290.99247   6167447.40644
                  23713361.6484                                   23713358.0044
                                                                        45.5004
        25.7504
 -20090373.98048 -15609637.98046
                  21243252.4224                                   21243248.4454
                                                                        50.5004
        41.0004
 -11465272.32048  -8871156.80945
                  21594162.7114                                   21594158.2504
                                                                        49.0004
        33.5004
 -20227234.32048 -15724458.05546
                  21859728.4844                                   21859725.0354
                                                                        48.7504
        38.0004
   -298316.03946   -198594.33643
                  23578539.0864                                   23578533.9774
                                                                        41.5004
        23.0004
   -899954.53947   -659467.87944
                  23384524.5004                                   23384521.0204
                                                                        43.0004
        28.0004
 -24492788.72348 -19038211.97746
                  20653369.6334                                   20653365.9884
                                                                        50.5004
        40.5004
 -10567999.01647  -8195840.64545
                  22486838.5394                                   22486834.4064
                                                                        46.7504
        30.0004
 09 10 14  0 59  0.0000000  0  9G02G04G05G13G29G16G07G10G25
  -6563811.86748  -5059285.83246
                  21333996.4844                                   21333990.5124
                                                                        50.0004
        40.0004
   9498061.64847   7424151.83644
                  24020261.6804                                   24020257.9884
                                                                        44.0004
        25.7504
 -18658288.16048 -14493726.93746
                  21515769.1564                                   21515765.3754
                                                                        50.2504
        40.7504
  -9906093.96948  -7656212.62545
                  21890864.7344                                   21890860.2504
                                                                        48.7504
        33.5004
 -18736558.71548 -14562892.64546
                  22143394.7584                                   22143390.9414
                                                                        48.7504
        37.7504
   1166705.88347    942981.18443
                  23857322.8284                                   23857317.9024
                                                                        42.0004
        22.7504
    518519.86346    445836.89144
                  23654451.5474                                   23654448.0594
                                                                        41.5004
        28.0004
 -23043537.16448 -17908925.03946
                  20929152.9454                                   20929149.2734
                                                                        49.5004
        40.7504
  -9097831.89147  -7050255.85945
                  22766602.0234                                   22766598.1764
                                                                        46.0004
        31.2504
 09 10 14  0 59 30.0000000  0  9G02G04G05G13G29G16G07G10G25
  -6572496.52348  -5066053.10946
                  21332343.9304                                   21332337.7934
                                                                        50.5004
        40.5004
   9535577.45747   7453384.92244
                  24027400.0394                                   24027396.5234
                                                                        42.5004
        24.5004
 -18801190.29748 -14605079.19946
                  21488575.9844                                   21488572.0864
                                                                        51.0004
        40.7504
  -9921775.72348  -7668432.16845
                  21887880.6174                                   21887875.8134
                                                                        49.5004
        33.2504
 -18820685.90248 -14628446.29346
                  22127385.6484                                   22127381.9884
                                                                        48.5004
        38.0004
   1056890.67647    857410.88744
                  23836426.5084                                   23836420.7774
                                                                        42.0004
        24.0004
    361976.48047    323855.07044
                  23624662.0784                                   23624658.3754
                                                                        43.0004
        29.0004
 -23169182.08648 -18006830.16446
                  20905243.6334                                   20905239.4144
                                                                        50.5004
        40.5004
  -9202516.16047  -7131828.02045
                  22746681.8444                                   22746677.7624
                                                                        46.5004
        31.0004
 09 10 14  1  0  0.0000000  0  9G02G04G05G13G29G16G07G10G25
  -6580681.55548  -5072431.07446
                  21330786.2734                                   21330780.4344
                                                                        49.7504
        39.7504
   9573256.14847   7482744.90644
                  24034569.6954                                   24034567.0274
                                                                        42.5004
        24.7504
 -18943652.98048 -14716089.05946
                  21461466.1954                                   21461462.2074
                                                                        51.2504
        41.0004
  -9936898.19948  -7680215.90645
                  21885002.6414                                   21884998.5084
                                                                        48.7504
        33.0004
 -18904191.41048 -14693515.52346
                  22111495.4774                                   22111491.5354
                                                                        49.7504
        38.0004
    947664.24646    772299.38744
                  23815641.5864                                   23815636.0554
                                                                        41.7504
        24.2504
    205843.94947    202193.38344
                  23594951.4774                                   23594946.9574
                                                                        42.5004
        28.7504
 -23294296.37148 -18104321.79746
                  20881435.2114                                   20881431.6914
                                                                        50.5004
        40.5004
  -9306626.11347  -7212952.64545
                  22726870.1564                                   22726866.0084
                                                                        46.0004
        30.2504
 09 10 14  1  0 30.0000000  0  9G02G04G05G13G29G16G07G10G25
  -6588368.40648  -5078420.84046
                  21329323.7974                                   21329317.6524
                                                                        49.7504
        39.0004
   9611096.27047   7512230.69144
                  24041770.6094                                   24041767.9534
                                                                        43.7504
        26.0004
 -19085674.13748 -14826754.87946
                  21434440.4614                                   21434436.5744
                                                                        51.5004
        41.5004
  -9951463.13748  -7691565.22745
                  21882231.2424                                   21882226.7774
                                                                        48.7504
        33.0004
 -18987074.71148 -14758099.90646
                  22095723.3054                                   22095719.4774
                                                                        49.7504
        38.0004
    839028.57447    687648.21544
                  23794968.5394                                   23794963.5314
                                                                        42.0004
        24.5004
     50125.87947     80854.64844
                  23565319.1094                                   23565314.9844
                                                                        42.2504
        29.0004
 -23418877.85248 -18201398.25046
                  20857728.2734                                   20857724.4654
                                                                        50.7504
        40.5004
  -9410160.01247  -7293628.40645
                  22707168.3754                                   22707164.0434
                                                                        46.5004
        30.2504
 09 10 14  1  1  0.0000000  0  9G02G04G05G13G29G16G07G10G25
  -6595560.98848  -5084025.44546
                  21327954.6724                                   21327948.8404
                                                                        49.5004
        40.0004
   9649093.37547   7541838.82044
                  24049001.9144                                   24048998.7304
                                                                        44.2504
        27.5004
 -19227254.39848 -14937077.16846
                  21407498.6884                                   21407494.3134
                                                                        51.7504
        41.5004
  -9965474.63748  -7702483.28145
                  21879564.6884                                   21879560.8794
                                                                        48.0004
        33.5004
 -19069337.58648 -14822200.84846
                  22080069.2584                                   22080065.5044
                                                                        49.5004
        38.0004
    730982.55546    603456.52344
                  23774407.9844                                   23774403.6054
                                                                        41.5004
        25.5004
   -105177.01647    -40160.56244
                  23535766.1414                                   23535761.2704
                                                                        43.2504
        29.0004
 -23542928.13748 -18298060.79346
                  20834122.2344                                   20834118.3634
                                                                        49.7504
        40.7504
  -9513119.18047  -7373856.32045
                  22687575.7344                                   22687572.0204
                                                                        46.5004
        31.0004
 09 10 14  1  1 30.0000000  0  9G02G04G05G13G29G16G07G10G25
  -6602261.14848  -5089246.32846
                  21326679.6564                                   21326673.9414
                                                                        50.0004
        40.0004
   9687245.13347   7571567.44944
                  24056261.6414                                   24056258.6644
                                                                        45.0004
        27.5004
 -19368392.41448 -15047054.82046
                  21380640.7424                                   21380636.5944
                                                                        51.5004
        41.5004
  -9978935.14848  -7712971.98845
                  21877003.5634                                   21876999.3324
                                                                        48.5004
        33.0004
 -19150979.88748 -14885818.22346
                  22064532.9614                                   22064529.3484
                                                                        49.2504
        38.0004
    623527.22746    519725.07843
                  23753960.1024                                   23753955.8554
                                                                        41.7504
        23.7504
   -260063.02347   -160850.94944
                  23506292.3914                                   23506288.0004
                                                                        43.0004
        28.2504
 -23666446.03548 -18394308.48846
                  20810617.6804                                   20810613.8634
                                                                        50.5004
        40.5004
  -9615502.83647  -7453635.78945
                  22668093.0634                                   22668088.5664
                                                                        46.2504
        30.7504
 09 10 14  1  2  0.0000000  0  9G02G04G05G13G29G16G07G10G25
  -6608467.68048  -5094082.57046
                  21325499.0474                                   21325492.8444
                                                                        49.2504
        39.7504
   9725552.42247   7601417.27744
                  24063551.4534                                   24063548.2384
                                                                        43.7504
        26.7504
 -19509083.65648 -15156684.35246
                  21353868.2274                                   21353864.3794
                                                                        51.5004
        41.0004
  -9991844.06248  -7723030.88345
                  21874547.1094                                   21874542.9614
                                                                        49.0004
        32.7504
 -19231998.42648 -14948949.54746
                  22049115.7584                                   22049112.1454
                                                                        49.5004
        38.0004
    516666.70747    436457.15643
                  23733625.1174                                   23733620.5864
                                                                        43.0004
        22.7504
   -414525.61747   -281211.39544
                  23476899.2974                                   23476894.4384
                                                                        43.7504
        28.7504
 -23789427.60548 -18490138.27046
                  20787214.7504                                   20787211.1334
                                                                        50.0004
        40.5004
  -9717307.00847  -7532963.70745
                  22648720.0314                                   22648715.9884
                                                                        46.0004
        31.2504
 09 10 14  1  2 30.0000000  0  9G02G04G05G13G29G16G07G10G25
  -6614182.21548  -5098535.44546
                  21324411.5784                                   21324405.5164
                                                                        50.7504
        40.5004
   9764013.62547   7631387.07044
                  24070869.7034                                   24070866.8054
                                                                        43.0004
        25.0004
 -19649326.41048 -15265964.39546
                  21327181.3364                                   21327176.9024
                                                                        51.7504
        40.7504
 -10004203.59847  -7732661.69145
                  21872194.5554                                   21872190.5984
                                                                        47.7504
        32.7504
 -19312392.60948 -15011594.36346
                  22033816.6094                                   22033813.4734
                                                                        50.2504
        37.5004
    410402.43047    353653.83644
                  23713403.7274                                   23713399.4654
                                                                        42.0004
        25.7504
   -568562.25846   -401239.93744
                  23447586.5234                                   23447582.0664
                                                                        41.7504
        28.7504
 -23911871.34848 -18585548.96546
                  20763914.6414                                   20763910.3554
                                                                        51.2504
        40.7504
  -9818530.50047  -7611839.16045
                  22629458.4384                                   22629453.8524
                                                                        46.2504
        31.0004
 09 10 14  1  3  0.0000000  0  9G02G04G05G13G29G16G07G10G25
  -6619408.48448  -5102607.84846
                  21323416.6724                                   21323410.8754
                                                                        50.7504
        40.0004
   9802624.55946   7661473.46544
                  24078217.4614                                   24078214.3244
                                                                        40.7504
        24.0004
 -19789120.77048 -15374895.05546
                  21300579.0554                                   21300574.7544
                                                                        51.5004
        41.0004
 -10016018.07848  -7741867.78145
                  21869947.0084                                   21869942.7934
                                                                        48.2504
        32.7504
 -19392164.09048 -15073753.95346
                  22018637.2344                                   22018633.9494
                                                                        50.0004
        38.0004
    304733.66447    271314.52344
                  23693295.7344                                   23693291.3284
                                                                        42.7504
        25.2504
   -722172.03947   -520935.85944
                  23418355.6094                                   23418351.2504
                                                                        42.5004
        28.5004
 -24033777.77048 -18680540.97346
                  20740716.6024                                   20740712.6524
                                                                        50.7504
        41.0004
  -9919174.18747  -7690262.81245
                  22610306.4224                                   22610302.0664
                                                                        46.0004
        30.2504
 09 10 14  1  3 30.0000000  0  9G02G04G05G13G29G16G07G10G25
  -6624143.84048  -5106297.70746
                  21322515.5554                                   21322509.9694
                                                                        49.5004
        39.7504
   9841387.52746   7691678.32844
                  24085593.9614                                   24085590.9224
                                                                        40.0004
        24.0004
 -19928461.28548 -15483472.05946
                  21274063.0394                                   21274059.0634
                                                                        51.5004
        41.5004
 -10027284.35548  -7750646.70345
                  21867803.0864                                   21867798.5634
                                                                        48.2504
        32.5004
 -19471308.40648 -15135424.84446
                  22003576.4534                                   22003572.7894
                                                                        50.0004
        38.0004
    199666.01247    189443.63743
                  23673301.8674                                   23673296.8834
                                                                        43.0004
        22.7504
   -875348.17646   -640293.87944
                  23389206.7344                                   23389202.8134
                                                                        41.7504
        28.5004
 -24155141.46548 -18775110.08246
                  20717621.9924                                   20717618.0664
                                                                        50.0004
        40.5004
 -10019232.99247  -7768230.71145
                  22591265.4144                                   22591261.4414
                                                                        45.7504
        30.2504
 09 10 14  1  4  0.0000000  0  9G02G04G05G13G29G16G07G10G25
  -6628391.69148  -5109607.69946
                  21321707.1804                                   21321701.2154
                                                                        50.7504
        39.5004
   9880298.65247   7721998.68444
                  24092999.1724                                   24092995.1294
                                                                        42.5004
        25.0004
 -20067347.55148 -15591695.10546
                  21247634.1254                                   21247630.0984
                                                                        51.5004
        41.5004
 -10038007.05947  -7759002.05545
                  21865762.2734                                   21865758.0944
                                                                        47.2504
        32.5004
 -19549826.87548 -15196608.07046
                  21988634.4454                                   21988630.9494
                                                                        50.0004
        37.5004
     95198.90647    108040.69943
                  23653422.3364                                   23653417.8754
                                                                        42.2504
        23.7504
  -1028089.74247   -759313.23844
                  23360141.1174                                   23360137.1294
                                                                        42.7504
        29.0004
 -24275962.78548 -18869256.55946
                  20694630.5234                                   20694626.7814
                                                                        51.5004
        40.5004
 -10118707.39847  -7845743.23444
                  22572336.3834                                   22572331.8754
                                                                        45.5004
        29.5004
 09 10 14  1  4 30.0000000  0  9G02G04G05G13G29G16G07G10G25
  -6632155.90648  -5112540.83246
                  21320990.8204                                   21320985.0984
                                                                        50.0004
        39.0004
   9919354.22347   7752431.57044
                  24100430.9614                                   24100427.7234
                                                                        42.5004
        27.0004
 -20205780.23048 -15699564.70746
                  21221290.9844                                   21221287.5434
                                                                        51.0004
        40.7504
 -10048190.39848  -7766937.12145
                  21863824.7274                                   21863820.2584
                                                                        48.2504
        32.2504
 -19627721.32048 -15257305.03146
                  21973812.0084                                   21973808.5314
                                                                        50.0004
        37.5004
     -8668.46147     27105.09444
                  23633656.7194                                   23633652.1374
                                                                        42.5004
        25.7504
  -1180395.52347   -877993.05545
                  23331158.4304                                   23331154.2854
                                                                        43.0004
        30.0004
 -24396242.38348 -18962980.91446
                  20671741.7974                                   20671737.7894
                                                                        50.7504
        40.7504
 -10217598.57447  -7922801.29345
                  22553517.9384                                   22553513.5434
                                                                        46.0004
        30.2504
 09 10 14  1  5  0.0000000  0  9G02G04G05G13G29G16G07G10G25
  -6635439.91448  -5115099.79346
                  21320365.9924                                   21320359.9774
                                                                        49.7504
        39.5004
   9958550.63347   7782974.23444
                  24107889.4844                                   24107886.0704
                                                                        42.5004
        26.7504
 -20343759.25448 -15807080.81246
                  21195034.6804                                   21195030.5784
                                                                        50.7504
        40.7504
 -10057838.98447  -7774455.50445
                  21861988.6954                                   21861984.2734
                                                                        47.5004
        32.0004
 -19704993.01248 -15317516.73446
                  21959107.7814                                   21959104.1374
                                                                        49.5004
        37.7504
   -111936.32047    -53363.36343
                  23614005.6024                                   23614001.1174
                                                                        43.0004
        22.7504
  -1332264.30946   -996332.34444
                  23302259.1094                                   23302254.5784
                                                                        41.7504
        29.7504
 -24515980.75448 -19056283.53546
                  20648956.4144                                   20648952.9144
                                                                        50.0004
        40.7504
 -10315907.17247  -7999405.39545
                  22534810.2114                                   22534806.6604
                                                                        45.7504
        30.0004
 09 10 14  1  5 30.0000000  0  9G02G04G05G13G29G16G07G10G25
  -6638243.87948  -5117284.67646
                  21319832.4064                                   21319826.5474
                                                                        50.2504
        39.5004
   9997887.23847   7813626.13344
                  24115375.2504                                   24115372.1884
                                                                        42.2504
        27.0004
 -20481281.89548 -15914241.30546
                  21168864.7344                                   21168860.5314
                                                                        51.0004
        41.0004
 -10066952.48048  -7781556.94145
                  21860254.1564                                   21860250.0864
                                                                        48.2504
        31.5004
 -19781640.75448 -15377242.25446
                  21944522.2034                                   21944518.4614
                                                                        49.7504
        37.7504
   -214602.54347   -133363.01644
                  23594468.7274                                   23594464.4494
                                                                        42.2504
        24.2504
  -1483692.48447  -1114328.30544
                  23273443.3594                                   23273438.8634
                                                                        43.2504
        29.2504
 -24635175.78948 -19149162.78546
                  20626274.3984                                   20626270.8634
                                                                        50.7504
        41.2504
 -10413630.84047  -8075553.70345
                  22516214.3594                                   22516210.3014
                                                                        46.0004
        31.5004
 09 10 14  1  6  0.0000000  0  9G02G04G05G13G29G16G07G10G25
  -6640569.81248  -5119097.07446
                  21319389.6954                                   21319383.8324
                                                                        49.5004
        39.0004
  10037361.75847   7844385.42243
                  24122886.7584                                   24122883.8554
                                                                        42.5004
        23.5004
 -20618346.39848 -16021044.81646
                  21142782.4384                                   21142778.3834
                                                                        51.2504
        41.5004
 -10075533.26648  -7788243.25845
                  21858621.7894                                   21858617.3054
                                                                        48.0004
        32.5004
 -19857663.79748 -15436480.98446
                  21930055.3594                                   21930051.5784
                                                                        48.2504
        38.5004
   -316665.72347   -212892.75444
                  23575047.0634                                   23575042.2664
                                                                        43.0004
        24.5004
  -1634677.34447  -1231978.83245
                  23244711.9614                                   23244707.0664
                                                                        42.5004
        30.7504
 -24753826.07448 -19241617.54346
                  20603695.8524                                   20603692.2074
                                                                        50.0004
        41.5004
 -10510768.92647  -8151245.72345
                  22497728.9144                                   22497725.0474
                                                                        45.0004
        31.2504
 09 10 14  1  6 30.0000000  0  9G02G04G05G13G29G16G07G10G25
  -6642417.02748  -5120536.43746
                  21319038.1334                                   21319032.6294
                                                                        49.7504
        39.0004
  10076974.97347   7875252.81344
                  24130424.2814                                   24130421.8714
                                                                        42.0004
        24.5004
 -20754948.86348 -16127488.28147
                  21116787.7814                                   21116783.9264
                                                                        51.0004
        42.0004
 -10083581.56248  -7794514.66045
                  21857090.3834                                   21857085.9454
                                                                        48.0004
        32.7504
 -19933060.21148 -15495231.43446
                  21915707.9224                                   21915704.1374
                                                                        48.5004
        37.2504
   -418122.46947   -291949.95743
                  23555740.8834                                   23555735.3984
                                                                        42.7504
        23.0004
  -1785213.32847  -1349279.58645
                  23216065.8594                                   23216061.3404
                                                                        43.2504
        30.5004
 -24871927.72748 -19333644.80146
                  20581221.8674                                   20581218.1414
                                                                        51.0004
        41.5004
 -10607317.85247  -8226478.64845
                  22479356.9384                                   22479352.4454
                                                                        45.7504
        30.7504
 09 10 14  1  7  0.0000000  0  9G02G04G05G13G29G16G07G10G25
  -6643791.36348  -5121607.33646
                  21318776.6094                                   21318770.7664
                                                                        50.7504
        39.0004
  10116720.38747   7906223.23043
                  24137988.1484                                   24137985.1414
                                                                        43.7504
        23.7504
 -20891092.03948 -16233573.87547
                  21090880.6724                                   21090876.7544
                                                                        51.0004
        42.2504
 -10091104.11347  -7800376.39145
                  21855658.6884                                   21855654.1524
                                                                        47.5004
        33.0004
 -20007833.74648 -15553496.51646
                  21901479.1334                                   21901475.2504
                                                                        48.7504
        38.0004
   -518975.97747   -370537.10943
                  23536548.6024                                   23536544.2114
                                                                        42.7504
        22.7504
  -1935302.45347  -1466232.13344
                  23187504.8754                                   23187499.6804
                                                                        42.7504
        29.5004
 -24989484.27048 -19425247.29746
                  20558851.6884                                   20558848.1254
                                                                        51.0004
        41.7504
 -10703281.29747  -8301255.36345
                  22461095.6724                                   22461091.5984
                                                                        46.0004
        31.0004
 09 10 14  1  7 30.0000000  0  9G02G04G05G13G29G16G07G10G25
  -6644692.16048  -5122309.25446
                  21318605.3754                                   21318599.5554
                                                                        50.0004
        39.5004
  10156598.63747   7937297.14143
                  24145576.9534                                   24145573.0594
                                                                        43.5004
        23.7504
 -21026771.62548 -16339298.22746
                  21065061.6644                                   21065057.4224
                                                                        51.0004
        41.0004
 -10098100.67248  -7805828.26645
                  21854326.8524                                   21854322.4104
                                                                        48.2504
        32.0004
 -20081981.44548 -15611273.94546
                  21887368.9454                                   21887364.9774
                                                                        48.5004
        38.0004
   -619222.11747   -448650.98043
                  23517472.6094                                   23517466.9734
                                                                        43.5004
        23.0004
  -2084939.73446  -1582832.60544
                  23159028.8134                                   23159024.2774
                                                                        41.7504
        28.5004
 -25106491.57048 -19516421.82046
                  20536585.8914                                   20536582.1214
                                                                        51.0004
        41.0004
 -10798655.56247  -8375572.97345
                  22442946.2814                                   22442941.9534
                                                                        46.0004
        32.0004
 09 10 14  1  8  0.0000000  0  9G02G04G05G13G29G16G07G10G25
  -6645120.09848  -5122642.69946
                  21318523.8754                                   21318517.7934
                                                                        50.2504
        39.0004
  10196608.99647   7968474.03143
                  24153190.6174                                   24153187.3874
                                                                        43.7504
        23.2504
 -21161985.09048 -16444659.35946
                  21039331.4384                                   21039327.3054
                                                                        51.2504
        41.7504
 -10104571.68447  -7810870.62545
                  21853095.5784                                   21853091.3594
                                                                        47.5004
        31.5004
 -20155502.52348 -15668563.09446
                  21873378.2814                                   21873374.7344
                                                                        48.7504
        37.5004
   -718859.48047   -526290.48043
                  23498512.7814                                   23498506.8954
                                                                        43.7504
        23.7504
  -2234120.38347  -1699077.24244
                  23130641.2664                                   23130636.9614
                                                                        42.2504
        27.5004
 -25222947.52748 -19607166.71946
                  20514424.8134                                   20514421.2154
                                                                        51.2504
        41.2504
 -10893438.80147  -8449430.03945
                  22424909.7504                                   22424905.2704
                                                                        45.0004
        31.2504
 09 10 14  1  8 30.0000000  0  9G02G04G05G13G29G16G07G10G25
  -6645079.07048  -5122610.73046
                  21318531.8444                                   21318525.5744
                                                                        50.0004
        39.0004
  10236747.73047   7999750.92644
                  24160828.7424                                   24160826.0554
                                                                        44.5004
        25.5004
 -21296732.76648 -16549657.54746
                  21013689.8754                                   21013685.4844
                                                                        50.7504
        41.5004
 -10110521.65247  -7815506.97345
                  21851963.5784                                   21851958.8634
                                                                        47.5004
        31.2504
 -20228398.95348 -15725365.51246
                  21859506.5634                                   21859503.2274
                                                                        48.5004
        38.0004
   -817888.66047   -603456.09044
                  23479667.7114                                   23479661.9774
                                                                        42.7504
        25.5004
  -2382844.38346  -1814966.05144
                  23102339.7114                                   23102335.1844
                                                                        41.2504
        27.0004
 -25338852.95748 -19697482.64146
                  20492368.9774                                   20492365.1884
                                                                        52.0004
        40.5004
 -10987632.10947  -8522827.43045
                  22406985.0864                                   22406980.8324
                                                                        46.0004
        31.0004
 09 10 14  1  9  0.0000000  0  9G02G04G05G13G29G16G07G10G25
  -6644570.10548  -5122214.12546
                  21318628.4614                                   21318622.8754
                                                                        50.0004
        38.7504
  10277013.19147   8031126.52344
                  24168490.8364                                   24168488.5864
                                                                        44.2504
        26.5004
 -21431012.12148 -16654290.81646
                  20988137.2814                                   20988133.0204
                                                                        51.5004
        41.5004
 -10115952.39147  -7819738.71145
                  21850929.9224                                   21850925.6644
                                                                        47.5004
        31.0004
 -20300669.27348 -15781680.04346
                  21845754.1484                                   21845750.6054
                                                                        49.7504
        37.5004
   -916307.75847   -680146.28944
                  23460939.2344                                   23460933.5354
                                                                        43.5004
        24.0004
  -2531108.13747  -1930496.23444
                  23074126.2734                                   23074121.8954
                                                                        43.0004
        28.7504
 -25454205.93448 -19787368.07446
                  20470418.0944                                   20470414.1644
                                                                        51.7504
        40.7504
 -11081234.02747  -8595763.98045
                  22389173.7424                                   22389169.2274
                                                                        45.0004
        31.2504
 09 10 14  1  9 30.0000000  0  9G02G04G05G13G29G16G07G10G25
  -5068173.90648  -3893853.45746
                  21618606.4844                                   21618601.1524
                                                                        49.5004
        39.0004
  11892823.55947   9290199.51244
                  24475969.1254                                   24475967.4344
                                                                        42.5004
        24.5004
 -19989396.54748 -15530954.00046
                  21262467.5944                                   21262463.4024
                                                                        51.7504
        41.0004
  -8545444.97748  -6595966.69945
                  22149787.4924                                   22149783.3674
                                                                        48.0004
        31.5004
 -18796890.67248 -14609904.51246
                  22131913.6094                                   22131910.4064
                                                                        49.7504
        37.7504
    561308.08647    471242.68443
                  23742120.3914                                   23742114.4344
                                                                        43.5004
        22.7504
  -1103482.84847   -818060.93444
                  23345795.1254                                   23345790.0474
                                                                        43.2504
        29.7504
 -23993580.84448 -18649218.65246
                  20748365.6954                                   20748362.0274
                                                                        51.5004
        41.0004
  -9598819.69147  -7440635.92645
                  22671267.6334                                   22671263.6484
                                                                        46.0004
        30.5004
 09 10 14  1 10  0.0000000  0  9G02G04G05G13G29G16G07G10G25
  -5066733.28948  -3892730.91446
                  21618880.7734                                   21618875.3554
                                                                        50.0004
        38.7504
  11933338.74247   9321769.74244
                  24483678.8984                                   24483676.6374
                                                                        42.0004
        24.0004
 -20122733.98448 -15634853.30946
                  21237094.3054                                   21237090.3674
                                                                        51.2504
        41.0004
  -8549843.28947  -6599393.94945
                  22148950.3364                                   22148946.4414
                                                                        47.0004
        31.7504
 -18867908.44148 -14665243.03146
                  22118399.4064                                   22118395.6024
                                                                        48.5004
        38.0004
    464112.62147    395505.93843
                  23723624.6254                                   23723619.0704
                                                                        43.7504
        22.7504
  -1250816.86347   -932866.64844
                  23317758.3674                                   23317753.3754
                                                                        42.0004
        29.7504
 -24107824.96948 -18738240.04746
                  20726625.9614                                   20726621.8404
                                                                        51.0004
        40.7504
  -9691235.36747  -7512648.13745
                  22653681.1724                                   22653677.0944
                                                                        45.2504
        30.5004
 09 10 14  1 10 30.0000000  0  9G02G04G05G13G29G16G07G10G25
  -5064830.96948  -3891248.60246
                  21619242.7894                                   21619236.5084
                                                                        49.5004
        38.5004
  11973973.90247   9353433.44543
                  24491411.6334                                   24491408.5704
                                                                        43.0004
        22.5004
 -20255599.82448 -15738385.12546
                  21211810.8834                                   21211807.0044
                                                                        51.7504
        41.7504
  -8553729.90247  -6602422.48845
                  22148210.9924                                   22148207.1134
                                                                        47.0004
        31.7504
 -18938301.26248 -14720094.57846
                  22105004.0474                                   22105000.2624
                                                                        49.5004
        38.0004
    367529.29347    320246.20744
                  23705245.1174                                   23705239.4534
                                                                        43.5004
        24.0004
  -1397683.57847  -1047308.21545
                  23289810.1024                                   23289805.5984
                                                                        43.0004
        30.7504
 -24221514.18448 -18826829.03546
                  20704991.4774                                   20704987.3914
                                                                        51.2504
        40.7504
  -9783058.16447  -7584198.37945
                  22636208.3054                                   22636203.6804
                                                                        44.2504
        31.2504
 09 10 14  1 11  0.0000000  0  9G02G04G05G13G29G16G07G10G25
  -5062468.48848  -3889407.71946
                  21619692.6094                                   21619686.4694
                                                                        50.2504
        38.0004
  12014727.85547   9385189.74643
                  24499167.4304                                   24499163.6684
                                                                        43.7504
        22.0004
 -20387991.78148 -15841547.68747
                  21186617.4384                                   21186613.3984
                                                                        50.2504
        42.0004
  -8557106.52047  -6605053.62145
                  22147568.4304                                   22147564.0314
                                                                        46.5004
        30.7504
 -19008068.82448 -14774458.89846
                  22091728.0634                                   22091724.0704
                                                                        48.0004
        37.5004
    271559.14147    245464.26643
                  23686982.6884                                   23686977.6024
                                                                        42.0004
        23.7504
  -1544080.00047  -1161383.35245
                  23261951.7344                                   23261947.2624
                                                                        43.7504
        30.2504
 -24334647.09848 -18914984.55546
                  20683462.9694                                   20683459.2274
                                                                        51.0004
        40.7504
  -9874287.34047  -7655286.03945
                  22618847.7194                                   22618843.9574
                                                                        44.5004
        30.7504
 09 10 14  1 11 30.0000000  0  9G02G04G05G13G29G16G07G10G25
  -5059647.13748  -3887209.27346
                  21620229.3754                                   21620223.3244
                                                                        50.0004
        39.2504
  12055598.88747   9417037.07843
                  24506945.0314                                   24506941.4454
                                                                        43.0004
        22.2504
 -20519907.78948 -15944339.38347
                  21161514.7344                                   21161510.5704
                                                                        50.7504
        42.0004
  -8559975.08647  -6607288.85945
                  22147023.0784                                   22147018.3204
                                                                        46.7504
        31.5004
 -19077210.65648 -14828335.64546
                  22078570.3834                                   22078566.5944
                                                                        48.5004
        37.5004
    176203.84447    171161.42244
                  23668837.1414                                   23668832.0434
                                                                        42.5004
        25.5004
  -1690002.67647  -1275089.32444
                  23234183.5084                                   23234179.0514
                                                                        44.0004
        29.7504
 -24447221.92648 -19002705.19946
                  20662040.6254                                   20662036.8794
                                                                        51.5004
        41.0004
  -9964921.05947  -7725909.73045
                  22601600.6564                                   22601596.8484
                                                                        45.5004
        31.0004
 09 10 14  1 12  0.0000000  0  9G02G04G05G13G29G16G07G10G25
  -5056370.56248  -3884656.09446
                  21620852.7734                                   21620846.9844
                                                                        49.7504
        38.5004
  12096583.72347   9448973.12144
                  24514744.2194                                   24514741.2814
                                                                        42.5004
        24.5004
 -20651348.14848 -16046760.43746
                  21136502.7814                                   21136498.6174
                                                                        51.2504
        41.7504
  -8562340.10547  -6609131.72745
                  22146572.8834                                   22146568.4614
                                                                        47.2504
        31.0004
 -19145728.46548 -14881726.14546
                  22065532.2734                                   22065528.4064
                                                                        48.5004
        38.0004
     81462.48847     97337.00443
                  23650808.7114                                   23650803.3014
                                                                        42.2504
        23.0004
  -1835451.19547  -1388425.84444
                  23206505.6564                                   23206501.4304
                                                                        44.0004
        29.5004
 -24559239.67648 -19089991.76246
                  20640724.2114                                   20640720.8834
                                                                        51.2504
        41.2504
 -10054960.98847  -7796070.70745
                  22584466.6644                                   22584462.5704
                                                                        44.7504
        31.5004
 09 10 14  1 12 30.0000000  0  9G02G04G05G13G29G16G07G10G25
  -5052640.57448  -3881749.60546
                  21621562.4064                                   21621556.6724
                                                                        48.2504
        38.5004
  12137680.53946   9480996.50044
                  24522564.6724                                   24522562.5944
                                                                        40.2504
        25.5004
 -20782311.64148 -16148809.90246
                  21111580.6644                                   21111576.9454
                                                                        51.0004
        41.7504
  -8564203.93447  -6610584.06245
                  22146218.3984                                   22146213.6764
                                                                        47.0004
        31.5004
 -19213622.73848 -14934630.76646
                  22052612.3524                                   22052608.7034
                                                                        48.5004
        37.7504
    -12664.44547     23991.34843
                  23632896.5944                                   23632891.5824
                                                                        43.0004
        23.0004
  -1980422.70747  -1501390.64845
                  23178918.3054                                   23178914.1024
                                                                        43.5004
        30.0004
 -24670699.56248 -19176843.61346
                  20619514.5234                                   20619510.4224
                                                                        51.7504
        41.0004
 -10144406.36747  -7865768.39845
                  22567445.8054                                   22567441.5354
                                                                        44.2504
        31.7504
 09 10 14  1 13  0.0000000  0  9G02G04G05G13G29G16G07G10G25
  -5048458.23848  -3878490.64146
                  21622358.5164                                   21622352.8244
                                                                        48.5004
        37.7504
  12178888.28946   9513106.28943
                  24530406.2504                                   24530404.0864
                                                                        38.0004
        23.0004
 -20912795.82848 -16250485.89547
                  21086750.2664                                   21086746.4774
                                                                        51.5004
        42.0004
  -8565568.42647  -6611647.30945
                  22145958.1334                                   22145953.7194
                                                                        46.5004
        31.0004
 -19280891.97348 -14987048.34846
                  22039811.5474                                   22039807.4144
                                                                        49.2504
        37.7504
   -106174.88747    -48873.91043
                  23615102.4774                                   23615097.4144
                                                                        42.5004
        22.5004
  -2124913.66047  -1613980.99244
                  23151422.5084                                   23151418.3484
                                                                        44.2504
        29.5004
 -24781599.16048 -19263258.87946
                  20598411.0944                                   20598407.0824
                                                                        51.5004
        41.5004
 -10233255.46147  -7935001.45345
                  22550538.2894                                   22550534.1564
                                                                        45.0004
        31.2504
 09 10 14  1 13 30.0000000  0  9G02G04G05G13G29G16G07G10G25
  -5043825.71948  -3874880.90646
                  21623240.0084                                   21623234.0634
                                                                        48.7504
        38.0004
  12220204.75047   9545300.90644
                  24538268.9144                                   24538266.1294
                                                                        42.2504
        25.0004
 -21042799.13748 -16351787.17246
                  21062011.7114                                   21062007.4224
                                                                        51.5004
        41.5004
  -8566435.47347  -6612322.93045
                  22145793.1024                                   22145789.3324
                                                                        47.0004
        31.0004
 -19347536.85548 -15038979.42246
                  22027129.3444                                   22027125.4414
                                                                        49.0004
        37.7504
   -199068.22747   -121258.34443
                  23597424.6884                                   23597420.4024
                                                                        43.0004
        23.5004
  -2268921.69547  -1726195.03145
                  23124018.7664                                   23124014.5314
                                                                        43.7504
        30.5004
 -24891937.83648 -19349237.07046
                  20577413.9534                                   20577410.2464
                                                                        51.2504
        41.0004
 -10321507.88747  -8003769.57845
                  22533744.2194                                   22533740.7504
                                                                        45.0004
        31.2504
 09 10 14  1 14  0.0000000  0  9G02G04G05G13G29G16G07G10G25
  -5038744.56648  -3870921.57046
                  21624206.8914                                   21624201.1884
                                                                        48.7504
        38.5004
  12261628.19547   9577578.94144
                  24546151.6644                                   24546149.3984
                                                                        43.0004
        25.0004
 -21172320.10948 -16452712.60247
                  21037364.7584                                   21037360.7114
                                                                        52.0004
        42.2504
  -8566806.94147  -6612612.39145
                  22145722.8284                                   22145718.5084
                                                                        46.5004
        31.2504
 -19413557.60548 -15090424.15246
                  22014565.9844                                   22014562.1134
                                                                        49.2504
        37.7504
   -291343.61747   -193161.22344
                  23579865.6094                                   23579861.1884
                                                                        42.5004
        24.5004
  -2412444.07847  -1838030.60945
                  23096707.6334                                   23096703.1724
                                                                        43.0004
        31.5004
 -25001714.26648 -19434777.14146
                  20556524.5004                                   20556520.9064
                                                                        51.5004
        41.5004
 -10409162.82847  -8072072.12945
                  22517064.2504                                   22517060.4884
                                                                        44.2504
        31.5004
 09 10 14  1 14 30.0000000  0  9G02G04G05G13G29G16G07G10G25
  -5033218.41448  -3866615.50046
                  21625258.7274                                   21625252.5864
                                                                        49.5004
        38.5004
  12303154.91847   9609937.48843
                  24554053.8524                                   24554050.6094
                                                                        44.5004
        21.5004
 -21301359.06248 -16553262.43446
                  21012809.1884                                   21012805.2034
                                                                        51.5004
        41.5004
  -8566687.31247  -6612519.17645
                  22145745.7424                                   22145741.2934
                                                                        45.5004
        30.5004
 -19478955.73848 -15141383.73446
                  22002121.5164                                   22002117.2424
                                                                        49.0004
        37.2504
   -383001.82847   -264583.20343
                  23562423.6564                                   23562419.0084
                                                                        42.5004
        22.7504
  -2555480.02047  -1949487.12545
                  23069488.5864                                   23069484.1454
                                                                        43.2504
        30.0004
 -25110929.53148 -19519879.94146
                  20535741.2974                                   20535737.7274
                                                                        52.5004
        41.0004
 -10496221.49647  -8139910.05145
                  22500497.7344                                   22500493.4384
                                                                        45.0004
        30.5004
 09 10 14  1 15  0.0000000  0  9G02G04G05G13G29G16G07G10G25
  -5027248.02348  -3861963.25046
                  21626394.7344                                   21626388.9734
                                                                        49.7504
        38.5004
  12344784.54346   9642376.34443
                  24561974.8984                                   24561971.1054
                                                                        41.7504
        19.5004
 -21429912.94148 -16653434.28947
                  20988346.3524                                   20988342.1414
                                                                        52.0004
        42.2504
  -8566077.99247  -6612044.38345
                  22145861.4534                                   22145856.9844
                                                                        46.2504
        30.5004
 -19543730.25448 -15191857.38346
                  21989794.7344                                   21989791.1954
                                                                        49.0004
        38.0004
   -474040.90247   -335522.71544
                  23545099.4384                                   23545094.9844
                                                                        42.5004
        24.0004
  -2698025.80547  -2060561.72745
                  23042363.4064                                   23042358.5004
                                                                        43.7504
        30.7504
 -25219580.93748 -19604543.37546
                  20515065.7734                                   20515061.9264
                                                                        52.0004
        41.2504
 -10582682.19547  -8207282.01645
                  22484044.1724                                   22484040.6294
                                                                        44.2504
        31.0004
 09 10 14  1 15 30.0000000  0  9G02G04G05G13G29G16G07G10G25
  -5020835.11748  -3856966.19146
                  21627615.1254                                   21627609.0944
                                                                        49.2504
        38.5004
  12386514.89546   9674893.53943
                  24569915.6884                                   24569912.5984
                                                                        38.7504
        19.2504
 -21557980.48048 -16753227.16846
                  20963975.9224                                   20963971.9414
                                                                        51.7504
        41.7504
  -8564980.95747  -6611189.55145
                  22146070.2424                                   22146065.6374
                                                                        46.2504
        30.2504
 -19607881.41848 -15241845.29746
                  21977587.1884                                   21977583.3204
                                                                        49.2504
        38.0004
   -564460.18447   -405979.30944
                  23527892.7734                                   23527888.4184
                                                                        42.2504
        24.5004
  -2840078.49247  -2171252.12545
                  23015331.0944                                   23015326.5634
                                                                        45.2504
        31.0004
 -25327667.89548 -19688766.97346
                  20494497.2584                                   20494493.4344
                                                                        52.0004
        40.5004
 -10668544.19147  -8274187.47745
                  22467705.8754                                   22467701.9414
                                                                        44.7504
        30.5004
 09 10 14  1 16  0.0000000  0  9G02G04G05G13G29G16G07G10G25
  -5013981.53148  -3851625.75446
                  21628919.3204                                   21628913.1414
                                                                        48.5004
        38.0004
  12428344.84446   9707488.37943
                  24577876.2664                                   24577873.4064
                                                                        39.2504
        21.0004
 -21685560.02048 -16852639.79347
                  20939698.4614                                   20939694.2544
                                                                        51.7504
        42.7504
  -8563398.51247  -6609956.46545
                  22146371.3444                                   22146366.5864
                                                                        46.5004
        30.7504
 -19671409.06248 -15291347.35946
                  21965498.3524                                   21965494.7424
                                                                        48.5004
        37.7504
   -654258.53947   -475952.03544
                  23510805.7424                                   23510800.4304
                                                                        43.0004
        25.0004
  -2981635.60547  -2281556.35545
                  22988394.1724                                   22988389.0634
                                                                        43.7504
        31.5004
 -25435189.17248 -19772549.78546
                  20474036.7194                                   20474032.8714
                                                                        52.0004
        40.7504
 -10753806.79747  -8340625.87545
                  22451480.2424                                   22451476.9734
                                                                        44.5004
        31.7504
