     2.11           OBSERVATION DATA    G (GPS)             RINEX VERSION / TYPE
teqc  2019Feb25                         20221121 12:28:35UTCPGM / RUN BY / DATE
OSX ker:10.11.6|Core i5|gcc 4.3 -m64|OSX ker:10.10+|=+      COMMENT
BIT 2 OF LLI FLAGS DATA COLLECTED UNDER A/S CONDITION       COMMENT
04712941                                                    MARKER NAME
2941                                                        MARKER NUMBER
-Unknown-           -Unknown-                               OBSERVER / AGENCY
0220400471          TRIMBLE R7          2.30                REC # / TYPE / VERS
-Unknown-           TRM39105.00     NONE                    ANT # / TYPE
  1449460.3534 -1709242.7113  5952443.4037                  APPROX POSITION XYZ
        0.0000        0.0000        0.0000                  ANTENNA: DELTA H/E/N
     1     1                                                WAVELENGTH FACT L1/2
    20    L1    L2    L5    L6    L7    L8    C1    P1    C2# / TYPES OF OBSERV
          P2    C5    C6    C7    C8    S1    S2    S5    S6# / TYPES OF OBSERV
          S7    S8                                          # / TYPES OF OBSERV
    30.0000                                                 INTERVAL
    15                                                      LEAP SECONDS
Forced Modulo Decimation to 30 seconds                      COMMENT
 SNR is mapped to RINEX snr flag value [0-9]                COMMENT
  L1 & L2: min(max(int(snr_dBHz/6), 0), 9)                  COMMENT
teqc edited: Beidou # 1 - 37 excluded                       COMMENT
  2009    10    21    23    11    0.0000000     GPS         TIME OF FIRST OBS
                                                            END OF HEADER
 09 10 21 23 11  0.0000000  0  9G02G04G05G10G13G23G29G30G31
   -211724.03958   -131686.41457
                  20601377.8754                                   20601371.6024
                                                                        52.0004
        43.2504
    -53311.33658    -34157.64156
                  21360442.3984                                   21360438.1094
                                                                        51.2504
        39.7504
   -383764.48457   -244291.45355
                  24134839.0704                                   24134834.8984
                                                                        42.5004
        31.2504
   -377557.80557   -236183.62955
                  23207618.2274                                   23207613.4884
                                                                        44.2504
        30.0004
   -245596.56258   -153256.11356
                  21519387.8524                                   21519383.0704
                                                                        51.2504
        36.2504
    -91029.96558    -57598.54755
                  22190412.7814                                   22190405.7584
                                                                        48.5004
        33.5004
   -336064.96157   -209445.32855
                  23559982.8444                                   23559979.0864
                                                                        44.5004
        31.2504
    -36164.13357    -23429.64854
                  23456061.8524                                   23456059.1804
                                                                        45.0004
        28.5004
    -50794.07856    -29452.16854
                  24476085.1804                                   24476081.2464
                                                                        38.5004
        25.5004
 09 10 21 23 11 30.0000000  0  9G02G04G05G10G13G23G29G30G31
   -328099.33248   -222368.46547
                  20579232.2734                                   20579226.0084
                                                                        52.2504
        43.7504
    -84737.31648    -58645.46146
                  21354462.1804                                   21354458.2424
                                                                        51.5004
        39.7504
   -593226.57046   -407508.71544
                  24094979.8754                                   24094975.4304
                                                                        41.7504
        28.2504
   -583548.63747   -396695.94144
                  23168419.1484                                   23168415.3134
                                                                        45.0004
        28.5004
   -380083.35248   -258050.98846
                  21493795.6414                                   21493790.7734
                                                                        51.5004
        36.0004
   -142633.12948    -97808.84045
                  22180593.2734                                   22180585.8484
                                                                        48.7504
        32.5004
   -519621.74247   -352476.58645
                  23525053.1804                                   23525049.0084
                                                                        45.0004
        31.2504
    -58242.01247    -40633.40244
                  23451860.5474                                   23451858.1174
                                                                        45.0004
        28.0004
    -81158.89846    -53113.02344
                  24470305.9144                                   24470302.9884
                                                                        39.2504
        25.5004
 09 10 21 23 12  0.0000000  0  9G02G04G05G10G13G23G29G30G31
   -444511.26648   -313079.05547
                  20557080.3674                                   20557073.3364
                                                                        52.5004
        43.0004
   -116307.66448    -83245.75846
                  21348454.4454                                   21348450.4344
                                                                        51.7504
        40.0004
   -803138.82446   -571076.79344
                  24055033.7974                                   24055029.9024
                                                                        41.2504
        27.2504
   -789894.40047   -557484.90645
                  23129153.6484                                   23129149.1454
                                                                        46.5004
        32.0004
   -514533.82848   -362817.57046
                  21468210.6254                                   21468205.9454
                                                                        51.2504
        36.5004
   -194262.12148   -138039.27345
                  22170768.6254                                   22170761.8954
                                                                        48.5004
        33.0004
   -703417.38747   -495694.05145
                  23490077.5634                                   23490074.2304
                                                                        43.7504
        31.0004
    -80431.25447    -57923.81644
                  23447638.1954                                   23447635.5984
                                                                        43.5004
        29.0004
   -111672.04746    -76889.59844
                  24464500.4614                                   24464496.8874
                                                                        39.7504
        26.0004
 09 10 21 23 12 30.0000000  0  9G02G04G05G10G13G23G29G30G31
   -560726.46948   -403636.35547
                  20534964.8204                                   20534958.4804
                                                                        53.2504
        43.2504
   -147791.48048   -107778.60546
                  21342463.4694                                   21342459.2234
                                                                        51.7504
        40.0004
  -1013267.00846   -734813.19144
                  24015048.4924                                   24015044.5314
                                                                        41.0004
        27.5004
   -996360.02047   -718367.17245
                  23089864.1414                                   23089860.3834
                                                                        46.2504
        31.7504
   -648714.20748   -467373.73846
                  21442676.6954                                   21442672.0124
                                                                        51.2504
        37.0004
   -245686.08648   -178109.88745
                  22160983.0704                                   22160975.7194
                                                                        49.5004
        33.0004
   -887217.49247   -638915.02744
                  23455101.1954                                   23455098.3754
                                                                        43.2504
        29.5004
   -102502.88747    -75122.56244
                  23443437.5864                                   23443435.2194
                                                                        43.7504
        27.2504
   -142104.00446   -100602.81244
                  24458709.8134                                   24458705.4964
                                                                        39.2504
        25.7504
 09 10 21 23 13  0.0000000  0  9G02G04G05G10G13G23G29G30G31
   -676617.30148   -493940.91447
                  20512911.8444                                   20512905.1414
                                                                        53.0004
        43.5004
   -179063.70748   -132146.59446
                  21336512.5084                                   21336508.3834
                                                                        51.0004
        39.2504
  -1223481.50847   -898616.57045
                  23975046.9774                                   23975042.8634
                                                                        44.5004
        30.2504
  -1202816.48047   -879242.29745
                  23050576.7734                                   23050573.2034
                                                                        45.7504
        32.0004
   -782496.36748   -571619.67246
                  21417219.1884                                   21417214.4344
                                                                        51.0004
        36.5004
   -296779.90648   -217923.22745
                  22151260.1644                                   22151253.4454
                                                                        49.0004
        32.7504
  -1070892.19947   -782038.17245
                  23420149.3594                                   23420145.9454
                                                                        43.5004
        30.0004
   -124332.90247    -92133.00844
                  23439283.9144                                   23439280.7584
                                                                        43.2504
        26.5004
   -172329.75846   -124155.49644
                  24452957.4844                                   24452954.0704
                                                                        40.5004
        27.5004
 09 10 21 23 13 30.0000000  0  9G02G04G05G10G13G23G29G30G31
   -792107.59048   -583933.32447
                  20490934.6174                                   20490928.2624
                                                                        52.7504
        43.0004
   -210051.07448   -156292.62146
                  21330615.7814                                   21330611.9654
                                                                        51.7504
        39.2504
  -1433705.17647  -1062427.13745
                  23935042.3134                                   23935038.2464
                                                                        44.2504
        32.7504
  -1409186.56647  -1040050.23045
                  23011305.3364                                   23011302.3444
                                                                        45.7504
        32.2504
   -915803.81648   -675495.70346
                  21391851.7114                                   21391847.0164
                                                                        50.7504
        36.2504
   -347469.96148   -257421.96545
                  22141614.5394                                   22141607.3554
                                                                        49.2504
        32.7504
  -1254363.53947   -925002.88745
                  23385236.5784                                   23385232.8014
                                                                        44.0004
        31.5004
   -145848.35247   -108898.32844
                  23435189.9534                                   23435186.5354
                                                                        45.2504
        27.7504
   -202275.96547   -147490.25844
                  24447259.4304                                   24447255.2704
                                                                        42.7504
        26.2504
 09 10 21 23 14  0.0000000  0  9G02G04G05G10G13G23G29G30G31
   -907135.73848   -673565.69547
                  20469045.6884                                   20469039.3554
                                                                        52.2504
        43.2504
   -240693.96948   -180170.21946
                  21324784.8134                                   21324780.6564
                                                                        51.5004
        40.2504
  -1643874.98447  -1226195.72345
                  23895048.5784                                   23895044.2814
                                                                        45.5004
        32.5004
  -1615406.36747  -1200740.97745
                  22972064.0084                                   22972059.8164
                                                                        44.7504
        31.5004
  -1048574.32048   -778953.34045
                  21366586.6884                                   21366581.6294
                                                                        51.0004
        35.5004
   -397697.39848   -296560.20745
                  22132056.4534                                   22132049.5044
                                                                        49.0004
        33.5004
  -1437567.99647  -1067759.65245
                  23350373.3674                                   23350370.3914
                                                                        42.7504
        32.0004
   -166991.08647   -125373.20744
                  23431166.7504                                   23431163.1024
                                                                        43.5004
        25.5004
   -231884.47747   -170561.98044
                  24441625.2814                                   24441620.7384
                                                                        43.0004
        25.2504
 09 10 21 23 14 30.0000000  0  9G02G04G05G10G13G23G29G30G31
  -1021661.37148   -762806.48047
                  20447251.9454                                   20447245.6954
                                                                        52.2504
        43.5004
   -270954.66448   -203749.99646
                  21319026.2734                                   21319022.5554
                                                                        52.0004
        39.5004
  -1853950.22747  -1389890.65245
                  23855072.1484                                   23855068.3914
                                                                        44.5004
        32.2504
  -1821434.87147  -1361282.66845
                  22932857.5784                                   22932853.2304
                                                                        45.2504
        31.5004
  -1180766.83648   -881960.55546
                  21341431.1414                                   21341426.3794
                                                                        51.0004
        36.0004
   -447424.29348   -335308.45745
                  22122593.6644                                   22122586.5044
                                                                        49.2504
        32.7504
  -1620463.72347  -1210275.81645
                  23315569.0234                                   23315566.2384
                                                                        43.0004
        31.2504
   -187725.19547   -141529.61344
                  23427221.0554                                   23427217.6604
                                                                        44.5004
        27.7504
   -261117.35947   -193340.75043
                  24436062.7194                                   24436057.7544
                                                                        43.7504
        23.7504
 09 10 21 23 15  0.0000000  0  9G02G04G05G10G13G23G29G30G31
  -1135656.02348   -851633.48847
                  20425559.2584                                   20425553.1174
                                                                        52.2504
        44.0004
   -300807.25048   -227011.76646
                  21313345.5704                                   21313341.3794
                                                                        51.5004
        39.2504
  -2063900.97347  -1553488.59845
                  23815119.6254                                   23815115.3284
                                                                        45.2504
        30.0004
  -2027242.40647  -1521652.23445
                  22893693.8984                                   22893689.8324
                                                                        45.0004
        30.7504
  -1312352.95348   -984495.31645
                  21316391.2504                                   21316386.2074
                                                                        51.5004
        35.7504
   -496623.93448   -373645.77345
                  22113230.9534                                   22113223.7424
                                                                        48.2504
        32.5004
  -1803020.98447  -1352528.16845
                  23280830.5164                                   23280826.5824
                                                                        44.2504
        31.5004
   -208025.48047   -157347.95744
                  23423358.2504                                   23423354.9454
                                                                        42.2504
        26.0004
   -289949.99247   -215807.70744
                  24430575.7814                                   24430570.7974
                                                                        42.2504
        25.5004
 09 10 21 23 15 30.0000000  0  9G02G04G05G10G13G23G29G30G31
  -1249093.54348   -940026.39847
                  20403973.1254                                   20403966.1254
                                                                        52.2504
        43.5004
   -330228.39148   -249937.35546
                  21307747.1484                                   21307743.0784
                                                                        51.5004
        39.0004
  -2273699.35947  -1716967.86344
                  23775195.5944                                   23775191.6334
                                                                        43.5004
        28.0004
  -2232800.68747  -1681827.52745
                  22854577.1884                                   22854573.3634
                                                                        44.5004
        32.0004
  -1443306.02348  -1086536.67246
                  21291471.7194                                   21291466.5864
                                                                        51.2504
        36.5004
   -545273.69148   -411554.67245
                  22103972.8834                                   22103966.1374
                                                                        49.0004
        32.5004
  -1985211.56647  -1494494.89545
                  23246160.4924                                   23246156.3324
                                                                        44.2504
        31.7504
   -227869.41847   -172810.77344
                  23419581.5084                                   23419578.6684
                                                                        42.7504
        26.2504
   -318359.20346   -237944.71543
                  24425169.5164                                   24425164.8284
                                                                        41.2504
        23.0004
 09 10 21 23 16  0.0000000  0  9G02G04G05G10G13G23G29G30G31
  -1361965.42648  -1027978.52747
                  20382494.2814                                   20382487.8674
                                                                        52.2504
        43.2504
   -359211.46148   -272521.61346
                  21302231.4144                                   21302227.6374
                                                                        52.2504
        39.5004
  -2483335.88747  -1880320.90244
                  23735303.3524                                   23735299.0474
                                                                        44.5004
        29.5004
  -2438099.88347  -1841800.93745
                  22815510.1564                                   22815506.0554
                                                                        44.5004
        31.5004
  -1573616.28948  -1188077.08246
                  21266674.4384                                   21266669.3554
                                                                        51.2504
        37.0004
   -593366.62548   -449029.67245
                  22094821.5394                                   22094814.3404
                                                                        48.7504
        33.2504
  -2167025.71547  -1636168.25845
                  23211562.3204                                   23211558.4414
                                                                        44.2504
        31.7504
   -247252.42247   -187914.49644
                  23415893.1804                                   23415890.5904
                                                                        42.2504
        27.0004
   -346339.28946   -259747.37543
                  24419844.5704                                   24419840.3204
                                                                        40.7504
        22.7504
 09 10 21 23 16 30.0000000  0  9G02G04G05G10G13G23G29G30G31
  -1474268.05948  -1115487.10247
                  20361123.5944                                   20361117.3324
                                                                        52.2504
        43.0004
   -387756.07448   -294764.25846
                  21296799.8284                                   21296796.0824
                                                                        51.0004
        39.0004
  -2692805.97347  -2043544.28945
                  23695442.5864                                   23695438.6564
                                                                        44.0004
        31.2504
  -2643134.80947  -2001568.35245
                  22776493.4614                                   22776490.0514
                                                                        44.2504
        32.0004
  -1703281.13348  -1289114.60946
                  21242000.1174                                   21241995.3324
                                                                        51.5004
        36.5004
   -640902.59847   -486070.66845
                  22085775.5084                                   22085768.4654
                                                                        47.7504
        32.5004
  -2348457.38747  -1777543.52345
                  23177036.5234                                   23177033.3244
                                                                        43.2504
        31.2504
   -266174.29347   -202658.91444
                  23412292.2034                                   23412290.1054
                                                                        43.0004
        26.7504
   -373890.06646   -281215.35543
                  24414601.1334                                   24414597.4614
                                                                        39.2504
        21.7504
 09 10 21 23 17  0.0000000  0  9G02G04G05G10G13G23G29G30G31
  -1585982.94148  -1202537.61747
                  20339865.2424                                   20339858.6054
                                                                        52.7504
        43.2504
   -415845.73848   -316652.42246
                  21291454.8204                                   21291450.5434
                                                                        51.0004
        39.0004
  -2902089.70347  -2206622.47745
                  23655617.3594                                   23655613.4104
                                                                        45.0004
        31.7504
  -2847885.82447  -2161114.59845
                  22737530.8754                                   22737526.6994
                                                                        44.5004
        32.7504
  -1832280.59848  -1389633.55545
                  21217452.1884                                   21217447.2584
                                                                        50.5004
        35.5004
   -687864.82847   -522664.60545
                  22076839.0084                                   22076832.0474
                                                                        47.7504
        32.5004
  -2529486.89547  -1918605.46945
                  23142588.1094                                   23142584.5904
                                                                        43.7504
        31.5004
   -284620.41447   -217032.57844
                  23408782.3674                                   23408779.6254
                                                                        44.2504
        27.2504
   -400996.40246   -302337.23843
                  24409442.6884                                   24409439.5274
                                                                        38.2504
        21.5004
 09 10 21 23 17 30.0000000  0  9G02G04G05G10G13G23G29G30G31
  -1697098.90248  -1289121.52747
                  20318720.5314                                   20318714.0084
                                                                        52.7504
        43.0004
   -443471.62948   -338179.10246
                  21286197.4614                                   21286193.3914
                                                                        50.7504
        39.5004
  -3111174.25047  -2369545.46945
                  23615830.0314                                   23615826.0394
                                                                        44.5004
        32.5004
  -3052339.52047  -2320429.11745
                  22698624.3444                                   22698620.1804
                                                                        46.0004
        33.5004
  -1960603.64848  -1489625.45746
                  21193032.9534                                   21193027.9144
                                                                        50.7504
        36.5004
   -734245.14548   -558805.12145
                  22068013.2504                                   22068006.3594
                                                                        48.2504
        32.7504
  -2710100.79747  -2059343.48845
                  23108218.6954                                   23108215.0944
                                                                        44.5004
        32.5004
   -302582.57447   -231029.00844
                  23405364.4144                                   23405361.7424
                                                                        44.2504
        29.0004
   -427649.92646   -323106.27343
                  24404371.9614                                   24404367.9924
                                                                        39.0004
        21.5004
 09 10 21 23 18  0.0000000  0  9G02G04G05G10G13G23G29G30G31
   -232182.52048   -147628.27047
                  20597484.7114                                   20597478.4774
                                                                        53.0004
        43.5004
   1104794.38348    868261.94146
                  21580822.8524                                   21580818.7154
                                                                        50.7504
        39.2504
  -1744621.96147  -1304699.52745
                  23875876.1954                                   23875872.2344
                                                                        44.5004
        32.5004
  -1681058.89847  -1251898.77045
                  22959569.8364                                   22959566.4384
                                                                        45.7504
        33.2504
   -512816.36348   -361479.64846
                  21468537.9224                                   21468532.9734
                                                                        50.5004
        36.5004
    795385.67248    633115.02045
                  22359091.8524                                   22359085.3364
                                                                        48.5004
        32.5004
  -1314862.07847   -972144.44545
                  23373723.5164                                   23373720.0554
                                                                        44.7504
        33.5004
   1255365.08647    982956.13744
                  23701831.8524                                   23701829.5084
                                                                        44.0004
        28.0004
   1121577.07446    884083.63344
                  24699179.7584                                   24699175.9104
                                                                        41.5004
        26.2504
 09 10 21 23 18 30.0000000  0  9G02G04G05G10G13G23G29G30G31
   -342074.89848   -233258.70347
                  20576572.9694                                   20576566.6564
                                                                        52.5004
        43.2504
   1078113.95348    847471.93846
                  21575745.7504                                   21575742.0474
                                                                        51.0004
        38.7504
  -1953279.07847  -1467289.48845
                  23836169.7734                                   23836165.8284
                                                                        43.2504
        32.0004
  -1884888.76247  -1410727.17245
                  22920782.7424                                   22920778.7154
                                                                        45.7504
        32.2504
   -639759.81648   -460396.56646
                  21444381.0474                                   21444376.4494
                                                                        51.0004
        36.5004
    750187.84848    597895.91445
                  22350491.2814                                   22350484.3754
                                                                        48.2504
        31.7504
  -1494614.39847  -1112211.09445
                  23339517.8364                                   23339514.1484
                                                                        45.2504
        32.7504
   1238384.50847    969724.44544
                  23698600.9534                                   23698597.9064
                                                                        43.0004
        29.0004
   1095845.91847    864033.47344
                  24694282.9694                                   24694279.6094
                                                                        42.0004
        26.0004
 09 10 21 23 19  0.0000000  0  9G02G04G05G10G13G23G29G30G31
   -451343.47748   -318403.08247
                  20555779.9694                                   20555773.4184
                                                                        52.7504
        43.2504
   1051914.56648    827056.78546
                  21570760.3914                                   21570755.8914
                                                                        50.5004
        39.2504
  -2161708.14547  -1629701.76645
                  23796506.8754                                   23796503.3914
                                                                        43.0004
        30.5004
  -2088391.98447  -1569301.06645
                  22882056.9534                                   22882053.3094
                                                                        45.0004
        32.5004
   -766000.96548   -558766.20746
                  21420358.2894                                   21420353.3674
                                                                        51.0004
        36.5004
    705589.58248    563144.05145
                  22342004.2974                                   22341997.5984
                                                                        48.2504
        32.2504
  -1673920.82047  -1251930.30145
                  23305396.8284                                   23305393.4024
                                                                        45.2504
        32.2504
   1221901.71547    956880.59444
                  23695464.0704                                   23695461.2194
                                                                        42.7504
        26.5004
   1070583.44547    844348.41044
                  24689476.7344                                   24689472.4144
                                                                        42.2504
        26.2504
 09 10 21 23 19 30.0000000  0  9G02G04G05G10G13G23G29G30G31
   -559983.02748   -403057.30947
                  20535106.3674                                   20535100.1484
                                                                        52.7504
        43.2504
   1026199.71548    807019.25046
                  21565866.7344                                   21565863.1414
                                                                        49.5004
        39.0004
  -2369903.68047  -1791932.06645
                  23756888.9384                                   23756884.6094
                                                                        44.2504
        31.5004
  -2291562.25047  -1727615.50845
                  22843394.8594                                   22843390.8054
                                                                        46.2504
        32.5004
   -891533.47748   -656583.71946
                  21396470.3754                                   21396465.4924
                                                                        50.7504
        36.7504
    661593.94148    528861.75845
                  22333632.5084                                   22333625.2854
                                                                        48.5004
        32.2504
  -1852775.40247  -1391297.48445
                  23271361.8914                                   23271358.3284
                                                                        45.5004
        32.2504
   1205917.19547    944425.12144
                  23692422.5864                                   23692419.4654
                                                                        43.7504
        25.2504
   1045791.05946    825029.71144
                  24684758.6254                                   24684754.3444
                                                                        40.7504
        27.0004
 09 10 21 23 20  0.0000000  0  9G02G04G05G10G13G23G29G30G31
   -667992.76648   -487220.76247
                  20514552.9144                                   20514546.6684
                                                                        52.0004
        43.0004
   1000966.48448    787356.95346
                  21561065.4614                                   21561061.0594
                                                                        49.5004
        39.0004
  -2577862.37547  -1953977.82045
                  23717315.3834                                   23717311.3714
                                                                        44.7504
        31.5004
  -2494397.02747  -1885668.52045
                  22804797.1954                                   22804792.5984
                                                                        46.2504
        32.2504
  -1016357.67248   -753849.32446
                  21372716.7664                                   21372712.0234
                                                                        50.2504
        37.0004
    618198.43848    495047.10545
                  22325374.8284                                   22325367.5704
                                                                        48.7504
        32.0004
  -2031174.50447  -1530309.82845
                  23237413.5634                                   23237410.1134
                                                                        45.5004
        34.2504
   1190429.69947    932356.97744
                  23689475.0864                                   23689472.0634
                                                                        42.0004
        25.5004
   1021467.37547    806076.21144
                  24680130.1094                                   24680125.9344
                                                                        42.7504
        26.7504
 09 10 21 23 20 30.0000000  0  9G02G04G05G10G13G23G29G30G25
   -775369.59048   -570890.98047
                  20494119.6644                                   20494113.4774
                                                                        52.2504
        43.2504
    976216.55548    768071.24246
                  21556355.3444                                   21556351.2344
                                                                        50.2504
        39.2504
  -2785580.02047  -2115835.74245
                  23677788.6564                                   23677784.4964
                                                                        45.2504
        32.0004
  -2696890.98847  -2043456.00845
                  22766263.2734                                   22766259.9774
                                                                        46.2504
        32.2504
  -1140469.16448   -850559.55146
                  21349099.2974                                   21349094.6174
                                                                        50.5004
        37.2504
    575404.16848    461700.93845
                  22317231.1024                                   22317224.0084
                                                                        48.5004
        32.5004
  -2209113.34847  -1668963.52345
                  23203553.0554                                   23203549.1524
                                                                        45.5004
        32.5004
   1175438.04747    920675.13344
                  23686622.4534                                   23686619.1564
                                                                        43.0004
        25.5004
   1264123.23856    998656.54753
                  24232844.5634                                   24232840.9804
                                                                        41.5004
        21.5004
 09 10 21 23 21  0.0000000  0  9G02G04G05G10G13G23G29G30G25
   -882117.69148   -654071.35547
                  20473806.2194                                   20473799.6804
                                                                        52.0004
        43.5004
    951943.15648    749156.88746
                  21551736.1094                                   21551732.1914
                                                                        50.7504
        38.7504
  -2993059.31647  -2277507.88345
                  23638306.3204                                   23638302.0594
                                                                        44.5004
        32.0004
  -2899047.34847  -2200980.36745
                  22727794.2274                                   22727790.5044
                                                                        45.5004
        33.0004
  -1263872.00848   -946717.70746
                  21325616.4064                                   21325611.4774
                                                                        49.7504
        37.0004
    533204.77348    428818.31345
                  22309200.5084                                   22309194.1254
                                                                        48.5004
        32.5004
  -2386594.33647  -1807260.45745
                  23169779.4614                                   23169775.9064
                                                                        45.0004
        31.7504
   1160933.95346    909373.14544
                  23683862.0394                                   23683859.9264
                                                                        41.0004
        24.2504
   1077016.78146    852859.35943
                  24197239.1954                                   24197235.3714
                                                                        39.7504
        21.2504
 09 10 21 23 21 30.0000000  0  9G02G04G05G10G13G23G29G30G25
   -988231.95348   -736757.87947
                  20453613.6414                                   20453607.2894
                                                                        52.5004
        43.5004
    928148.85948    730615.87946
                  21547208.2814                                   21547204.8794
                                                                        50.5004
        39.0004
  -3200293.72747  -2438989.20345
                  23598870.6564                                   23598866.4454
                                                                        45.5004
        32.0004
  -3100859.14547  -2358236.21945
                  22689390.7974                                   22689387.0394
                                                                        46.5004
        33.2504
  -1386561.22348  -1042319.75846
                  21302269.7664                                   21302264.9304
                                                                        50.0004
        37.0004
    491602.21548    396400.71145
                  22301283.7814                                   22301276.8634
                                                                        48.0004
        32.2504
  -2563610.37547  -1945194.98045
                  23136094.6884                                   23136090.8444
                                                                        45.0004
        31.5004
   1146919.71946    898452.93444
                  23681195.4844                                   23681192.8874
                                                                        41.2504
        26.0004
    890255.49646    707331.05143
                  24161699.9844                                   24161695.7304
                                                                        40.7504
        20.0004
 09 10 21 23 22  0.0000000  0  9G02G04G05G10G13G23G29G30G25
  -1093702.36748   -818942.62547
                  20433543.2664                                   20433536.7894
                                                                        52.7504
        43.5004
    904841.27748    712454.14546
                  21542773.0234                                   21542769.4924
                                                                        50.7504
        38.5004
  -3407271.85547  -2600270.85245
                  23559483.6954                                   23559480.1684
                                                                        45.5004
        32.5004
  -3302314.78947  -2515214.60245
                  22651055.0314                                   22651051.6484
                                                                        47.0004
        34.2504
  -1508525.66848  -1137357.02046
                  21279060.4774                                   21279055.7974
                                                                        50.5004
        37.0004
    450604.17247    364454.18045
                  22293482.1804                                   22293475.2304
                                                                        47.5004
        31.2504
  -2740150.33247  -2082758.66045
                  23102499.6254                                   23102496.2384
                                                                        45.2504
        32.5004
   1133401.32846    887919.10944
                  23678622.5704                                   23678620.9614
                                                                        41.7504
        26.5004
    703852.16447    562081.76643
                  24126227.8134                                   24126224.5744
                                                                        42.0004
        20.7504
 09 10 21 23 22 30.0000000  0  9G02G04G05G10G13G23G29G30G25
  -1198526.91848   -900624.14147
                  20413595.5944                                   20413589.4384
                                                                        53.0004
        43.5004
    882020.01648    694671.37546
                  21538430.4304                                   21538426.7624
                                                                        50.0004
        38.2504
  -3613990.23847  -2761350.06645
                  23520146.8594                                   23520143.4264
                                                                        45.2504
        33.2504
  -3503410.78948  -2671912.75045
                  22612788.1334                                   22612784.0594
                                                                        48.0004
        33.5004
  -1629763.23848  -1231827.78946
                  21255989.6484                                   21255984.6724
                                                                        51.0004
        37.0004
    410210.39147    332978.49245
                  22285795.5474                                   22285788.8524
                                                                        47.7504
        31.7504
  -2916209.87947  -2219948.07445
                  23068996.8914                                   23068994.0864
                                                                        45.7504
        32.2504
   1120377.20747    877770.51244
                  23676145.0314                                   23676142.1724
                                                                        43.2504
        27.5004
    517810.79747    417114.49643
                  24090825.7894                                   24090822.1684
                                                                        42.0004
        22.0004
 09 10 21 23 23  0.0000000  0  9G02G04G05G10G13G23G29G30G25
  -1302704.71148   -981801.66447
                  20393771.3444                                   20393765.1524
                                                                        53.0004
        43.2504
    859683.98448    677266.72346
                  21534179.7894                                   21534175.6844
                                                                        50.0004
        38.5004
  -3820446.34847  -2922224.90245
                  23480859.7734                                   23480855.8404
                                                                        46.2504
        33.2504
  -3704144.19947  -2828328.36745
                  22574589.3674                                   22574585.3164
                                                                        46.7504
        33.0004
  -1750273.05948  -1325731.37146
                  21233057.0314                                   21233052.4804
                                                                        50.2504
        37.0004
    370419.19948    301972.35245
                  22278223.5234                                   22278217.1644
                                                                        48.2504
        31.7504
  -3091785.73047  -2356760.42245
                  23035585.6024                                   23035582.8134
                                                                        46.0004
        33.2504
   1107844.59047    868004.88744
                  23673760.2974                                   23673757.2734
                                                                        43.5004
        28.5004
    332134.86746    272431.94143
                  24055492.6094                                   24055489.3794
                                                                        41.0004
        22.5004
 09 10 21 23 23 30.0000000  0  9G02G04G05G10G13G23G29G30G25
  -1406236.66048  -1062475.93047
                  20374069.9844                                   20374064.0044
                                                                        52.0004
        43.5004
    837829.86348    660237.56646
                  21530020.9064                                   21530017.1134
                                                                        50.0004
        38.5004
  -4026639.63747  -3082894.95745
                  23441622.3134                                   23441618.2344
                                                                        45.5004
        33.0004
  -3904513.99047  -2984460.67645
                  22536460.1334                                   22536456.3554
                                                                        46.7504
        33.5004
  -1870055.26248  -1419068.03146
                  21210263.3284                                   21210258.7504
                                                                        50.5004
        37.0004
    331227.67648    271433.47345
                  22270765.8134                                   22270759.0084
                                                                        48.0004
        31.5004
  -3266877.09447  -2493195.20745
                  23002267.2894                                   23002263.8444
                                                                        45.5004
        33.0004
   1095799.64147    858619.28944
                  23671467.8284                                   23671465.0474
                                                                        42.2504
        28.2504
    146826.07047    128035.50443
                  24020229.4454                                   24020225.8954
                                                                        42.7504
        22.0004
 09 10 21 23 24  0.0000000  0  9G02G04G05G10G13G23G29G30G25
  -1509119.77048  -1142644.44947
                  20354491.9064                                   20354485.3954
                                                                        52.0004
        43.2504
    816457.45748    643583.77346
                  21525954.0704                                   21525950.0904
                                                                        50.5004
        38.2504
  -4232566.25847  -3243357.29345
                  23402436.1724                                   23402431.3054
                                                                        46.2504
        31.5004
  -4104516.06247  -3140306.45745
                  22498401.2274                                   22498397.1134
                                                                        46.5004
        34.0004
  -1989107.91448  -1511836.40646
                  21187608.5864                                   21187603.5234
                                                                        50.0004
        36.2504
    292635.24247    241361.41845
                  22263421.8134                                   22263414.8164
                                                                        47.2504
        31.5004
  -3441479.68747  -2629249.19545
                  22969041.4694                                   22969038.9224
                                                                        45.2504
        33.5004
   1084241.11347    849612.62544
                  23669268.6094                                   23669266.3594
                                                                        43.2504
        27.2504
    -38111.28547    -16071.41443
                  23985037.2974                                   23985033.4734
                                                                        42.5004
        22.5004
 09 10 21 23 24 30.0000000  0  9G02G04G05G10G13G23G29G30G25
  -1611359.32448  -1222311.60247
                  20335036.0554                                   20335030.1214
                                                                        52.5004
        43.2504
    795559.85248    627299.98846
                  21521977.7274                                   21521973.6134
                                                                        50.7504
        38.7504
  -4438229.20347  -3403614.11745
                  23363299.9384                                   23363294.9804
                                                                        45.2504
        32.0004
  -4304153.69947  -3295868.21545
                  22460411.6094                                   22460407.4654
                                                                        47.2504
        34.0004
  -2107435.19948  -1604039.52346
                  21165091.6884                                   21165086.7704
                                                                        49.5004
        36.5004
    254634.64148    211750.56345
                  22256190.7584                                   22256183.3014
                                                                        48.5004
        31.0004
  -3615595.98847  -2764924.14845
                  22935908.0864                                   22935905.3094
                                                                        45.0004
        32.2504
   1073160.75447    840978.62944
                  23667159.9694                                   23667157.3284
                                                                        43.5004
        24.7504
   -222679.81647   -159890.98043
                  23949914.4924                                   23949911.0434
                                                                        42.2504
        22.0004
 09 10 21 23 25  0.0000000  0  9G02G04G05G10G13G23G29G30G25
  -1712955.09848  -1301477.15247
                  20315703.2504                                   20315697.1524
                                                                        51.7504
        43.5004
    775135.23048    611384.71546
                  21518090.8594                                   21518086.5164
                                                                        50.5004
        37.7504
  -4643626.54747  -3563663.96145
                  23324213.7664                                   23324209.7584
                                                                        44.0004
        33.0004
  -4503424.51247  -3451144.11345
                  22422491.3754                                   22422487.2974
                                                                        47.7504
        34.2504
  -2225035.66848  -1695676.14546
                  21142712.9144                                   21142707.9184
                                                                        49.5004
        36.5004
    217224.26248    182599.60945
                  22249071.7974                                   22249064.4734
                                                                        48.0004
        31.7504
  -3789224.45747  -2900219.05945
                  22902867.9534                                   22902864.2814
                                                                        45.0004
        32.7504
   1062555.15647    832714.59844
                  23665140.9774                                   23665138.7814
                                                                        42.2504
        24.2504
   -406875.85247   -303420.14543
                  23914863.2344                                   23914859.5474
                                                                        42.0004
        22.7504
 09 10 21 23 25 30.0000000  0  9G02G04G05G10G13G23G29G30G25
  -1813905.18748  -1380139.62547
                  20296493.2194                                   20296486.6024
                                                                        52.2504
        43.2504
    755182.99248    595837.49646
                  21514294.0474                                   21514289.9614
                                                                        51.0004
        38.2504
  -4848755.28147  -3723504.50845
                  23285178.9844                                   23285175.1484
                                                                        45.5004
        34.0004
  -4702325.18447  -3606131.62945
                  22384641.8524                                   22384638.3594
                                                                        47.5004
        34.2504
  -2341908.21948  -1786745.71546
                  21120472.9774                                   21120467.9964
                                                                        49.5004
        37.0004
    180403.15648    153907.79745
                  22242065.1414                                   22242058.4224
                                                                        48.2504
        32.7504
  -3962361.05547  -3035130.66845
                  22869920.8834                                   22869917.2894
                                                                        44.5004
        33.0004
   1052422.85947    824819.49243
                  23663212.2274                                   23663210.1884
                                                                        42.5004
        23.0004
   -590696.05546   -446656.59843
                  23879883.1954                                   23879879.5314
                                                                        40.0004
        21.7504
 09 10 21 23 26  0.0000000  0  9G02G04G05G10G13G23G29G30G25
   -338789.32848   -230698.75847
                  20577198.3984                                   20577192.1054
                                                                        52.0004
        43.2504
   2311118.14848   1808254.44146
                  21810378.4924                                   21810374.5124
                                                                        50.7504
        38.5004
  -3478189.47347  -2655531.11345
                  23545988.7814                                   23545985.2034
                                                                        45.0004
        33.0004
  -3325430.35247  -2533226.50445
                  22646656.1024                                   22646652.0984
                                                                        47.5004
        34.5004
   -882632.04348   -649647.46146
                  21398163.9694                                   21398159.2344
                                                                        50.0004
        37.0004
   1719586.81347   1353271.64845
                  22534961.8284                                   22534955.2664
                                                                        46.7504
        32.0004
  -2559580.93347  -1942055.20545
                  23136861.1564                                   23136857.6724
                                                                        46.5004
        33.5004
   2618177.02347   2044887.47743
                  23961166.3284                                   23961162.9384
                                                                        43.0004
        22.0004
    801284.44946    638003.59043
                  24144768.5394                                   24144764.4414
                                                                        40.7504
        21.0004
 09 10 21 23 26 30.0000000  0  9G02G04G05G10G13G23G29G30G25
   -438453.30148   -308358.99247
                  20558232.8674                                   20558226.7114
                                                                        52.7504
        43.2504
   2292098.16048   1793433.60246
                  21806758.9924                                   21806755.6844
                                                                        50.0004
        38.0004
  -3682780.66447  -2814952.77045
                  23507056.7584                                   23507052.3794
                                                                        45.0004
        32.7504
  -3523590.30947  -2687636.82045
                  22608947.5784                                   22608943.4774
                                                                        47.7504
        34.0004
   -998053.16048   -739586.00046
                  21376200.1724                                   21376195.0004
                                                                        50.5004
        37.0004
   1683931.21548   1325488.08245
                  22528176.4454                                   22528169.9344
                                                                        48.0004
        32.0004
  -2731733.31247  -2076200.03145
                  23104101.8984                                   23104098.6844
                                                                        45.0004
        32.7504
   2608974.88747   2037716.96943
                  23959415.5864                                   23959411.5984
                                                                        44.5004
        22.5004
    618217.45346    495354.07043
                  24109931.9454                                   24109928.3714
                                                                        41.7504
        22.0004
 09 10 21 23 27  0.0000000  0  9G02G04G05G10G13G23G29G30G25
   -537472.19548   -385516.55947
                  20539390.2274                                   20539383.8554
                                                                        52.2504
        43.5004
   2273543.12148   1778975.10246
                  21803228.3914                                   21803224.4534
                                                                        50.5004
        38.0004
  -3887099.10247  -2974161.89545
                  23468176.1414                                   23468171.4454
                                                                        45.5004
        33.2504
  -3721375.32848  -2841755.02745
                  22571310.2114                                   22571306.3324
                                                                        48.0004
        34.5004
  -1112746.03948   -828957.05946
                  21354374.6954                                   21354369.7774
                                                                        49.5004
        36.5004
   1648857.25047   1298157.78945
                  22521502.1644                                   22521495.6914
                                                                        46.7504
        31.5004
  -2903388.84047  -2209957.63345
                  23071436.9774                                   23071433.2304
                                                                        45.0004
        33.5004
   2600234.28147   2030906.13344
                  23957751.8364                                   23957748.2894
                                                                        45.0004
        25.5004
    435532.98847    353002.53543
                  24075168.5394                                   24075164.4264
                                                                        42.5004
        23.0004
 09 10 21 23 27 30.0000000  0  9G02G04G05G10G13G23G29G30G25
   -635847.92248   -462173.00047
                  20520669.9454                                   20520663.5514
                                                                        52.7504
        42.7504
   2255448.47748   1764875.41846
                  21799784.9844                                   21799781.5234
                                                                        50.2504
        38.5004
  -4091144.30547  -3133158.12145
                  23429347.5314                                   23429343.5004
                                                                        46.5004
        33.7504
  -3918785.00447  -2995580.70345
                  22533744.5164                                   22533740.0594
                                                                        47.5004
        33.0004
  -1226713.27048   -917762.67246
                  21332687.3594                                   21332682.5784
                                                                        49.5004
        36.7504
   1614359.63747   1271276.51245
                  22514937.5234                                   22514931.0634
                                                                        47.7504
        31.5004
  -3074546.71547  -2343327.47345
                  23038866.6564                                   23038863.0004
                                                                        45.7504
        33.0004
   2591950.96147   2024451.67244
                  23956175.8984                                   23956173.0824
                                                                        44.7504
        25.7504
    253230.69147    210948.83243
                  24040477.0784                                   24040473.0004
                                                                        42.7504
        22.0004
 09 10 21 23 28  0.0000000  0  9G02G04G05G10G13G23G29G30G25
   -733581.14848   -538328.67647
                  20502072.1094                                   20502065.6214
                                                                        53.2504
        42.5004
   2237811.74648   1751132.51646
                  21796428.9924                                   21796425.1954
                                                                        50.7504
        37.7504
  -4294916.65247  -3291941.75845
                  23390570.5704                                   23390566.1804
                                                                        46.2504
        33.5004
  -4115819.61347  -3149114.12945
                  22496250.0704                                   22496246.6174
                                                                        47.0004
        34.5004
  -1339954.53148  -1006002.75446
                  21311138.4924                                   21311133.7384
                                                                        50.0004
        36.7504
   1580435.65247   1244842.18445
                  22508481.8364                                   22508475.0864
                                                                        47.2504
        31.0004
  -3245206.64547  -2476309.07445
                  23006391.2424                                   23006388.1414
                                                                        44.7504
        33.2504
   2584119.00847   2018348.89844
                  23954685.5864                                   23954682.7704
                                                                        45.0004
        26.5004
     71313.18446     69194.99243
                  24005859.2894                                   24005855.5124
                                                                        40.5004
        21.7504
 09 10 21 23 28 30.0000000  0  9G02G04G05G10G13G23G29G30G25
   -830673.16848   -613984.78947
                  20483596.2344                                   20483589.7344
                                                                        52.5004
        43.5004
   2220629.40648   1737743.75046
                  21793159.0944                                   21793154.9574
                                                                        50.2504
        37.5004
  -4498414.41847  -3450511.43045
                  23351846.1334                                   23351842.1684
                                                                        46.0004
        32.7504
  -4312477.32048  -3302353.86745
                  22458827.0554                                   22458822.9494
                                                                        48.0004
        35.0004
  -1452470.21148  -1093677.21946
                  21289727.0314                                   21289722.1684
                                                                        50.0004
        36.2504
   1547082.02747   1218852.29745
                  22502135.2194                                   22502128.3594
                                                                        47.0004
        31.2504
  -3415366.21547  -2608900.67245
                  22974010.3054                                   22974007.6884
                                                                        44.0004
        34.0004
   2576735.32447   2012595.29344
                  23953280.7114                                   23953277.9184
                                                                        44.5004
        28.0004
   -110218.27747    -72257.98443
                  23971315.3594                                   23971311.2154
                                                                        42.0004
        22.0004
 09 10 21 23 29  0.0000000  0  9G02G04G05G10G13G23G29G30G25
   -927119.33648   -689137.65247
                  20465242.8284                                   20465235.9774
                                                                        53.0004
        43.2504
   2203903.70748   1724710.68446
                  21789976.6024                                   21789972.1134
                                                                        51.0004
        37.7504
  -4701631.16047  -3608862.09045
                  23313175.2664                                   23313171.5434
                                                                        45.7504
        32.5004
  -4508751.56648  -3455294.82045
                  22421477.5704                                   22421473.3444
                                                                        48.0004
        35.0004
  -1564255.97748  -1180782.87946
                  21268455.0164                                   21268449.9924
                                                                        48.7504
        36.7504
   1514300.53547   1193308.25845
                  22495897.6024                                   22495890.3164
                                                                        46.2504
        30.2504
  -3585019.91847  -2741098.13745
                  22941726.0314                                   22941723.0044
                                                                        44.0004
        34.2504
   2569801.23847   2007192.04744
                  23951960.3524                                   23951958.4264
                                                                        43.5004
        27.5004
   -291357.19946   -213405.17643
                  23936845.7504                                   23936841.5984
                                                                        41.7504
        23.2504
 09 10 21 23 29 30.0000000  0  9G02G04G05G10G13G23G29G30G25
  -1022923.95748   -763790.59447
                  20447012.0634                                   20447005.5554
                                                                        53.0004
        43.0004
   2187628.20348   1712028.52046
                  21786879.3524                                   21786875.4344
                                                                        50.5004
        38.5004
  -4904569.99247  -3766996.17245
                  23274557.2584                                   23274553.4064
                                                                        45.7504
        33.5004
  -4704645.16048  -3607939.13345
                  22384200.1024                                   22384196.0864
                                                                        48.5004
        35.5004
  -1675316.61348  -1267323.58246
                  21247320.8524                                   21247316.3284
                                                                        49.7504
        37.2504
   1482084.71147   1168205.00845
                  22489766.5704                                   22489759.6174
                                                                        47.0004
        30.5004
  -3754170.34447  -2872903.59445
                  22909537.3834                                   22909534.6054
                                                                        44.5004
        34.0004
   2563308.43847   2002132.69944
                  23950725.4844                                   23950723.5634
                                                                        42.7504
        25.2504
   -472105.42247   -354248.02743
                  23902450.7734                                   23902446.5474
                                                                        42.5004
        22.7504
 09 10 21 23 30  0.0000000  0  9G02G04G05G10G13G23G29G30G25
  -1118091.64148   -837947.21547
                  20428902.2894                                   20428895.8634
                                                                        52.7504
        43.2504
   2171795.66848   1699691.34046
                  21783866.6884                                   21783862.5824
                                                                        50.2504
        37.5004
  -5107234.14847  -3924916.23845
                  23235992.0944                                   23235987.6994
                                                                        46.2504
        34.5004
  -4900160.53548  -3760288.76245
                  22346994.2504                                   22346990.9414
                                                                        48.2504
        35.5004
  -1785656.37148  -1353302.62546
                  21226324.0864                                   21226319.3094
                                                                        49.2504
        37.0004
   1450427.17247   1143536.76245
                  22483742.7274                                   22483735.3444
                                                                        47.2504
        30.7504
  -3922819.79747  -3004318.60245
                  22877444.7344                                   22877441.4184
                                                                        45.5004
        34.0004
   2557248.46547   1997410.52743
                  23949571.7814                                   23949570.1524
                                                                        42.0004
        22.7504
   -652465.31246   -494788.46143
                  23868129.2344                                   23868125.7234
                                                                        41.7504
        23.2504
 09 10 21 23 30 30.0000000  0  9G02G04G05G10G13G23G29G30G25
  -1212621.23448   -911606.59847
                  20410913.5864                                   20410906.9804
                                                                        52.0004
        43.2504
   2156405.38748   1687698.71946
                  21780937.9224                                   21780933.7734
                                                                        50.0004
        37.7504
  -5309620.37147  -4082619.73445
                  23197479.3364                                   23197474.4184
                                                                        46.2504
        34.5004
  -5095294.93448  -3912341.52745
                  22309861.7814                                   22309857.9964
                                                                        48.0004
        35.2504
  -1895273.94548  -1438718.92646
                  21205464.5394                                   21205459.4964
                                                                        49.5004
        37.0004
   1419326.69147   1119302.57045
                  22477824.1804                                   22477817.1724
                                                                        47.0004
        30.5004
  -4090965.01647  -3135340.72345
                  22845448.0864                                   22845443.8874
                                                                        45.5004
        34.2504
   2551619.51247   1993024.31343
                  23948499.9614                                   23948498.8404
                                                                        42.0004
        21.5004
   -832432.25446   -635022.43043
                  23833882.8054                                   23833879.1604
                                                                        41.2504
        22.7504
 09 10 21 23 31  0.0000000  0  9G02G04G05G10G13G23G29G30G25
  -1306511.34048   -984767.69147
                  20393046.9774                                   20393040.4844
                                                                        52.2504
        43.2504
   2141456.70748   1676050.41046
                  21778093.3444                                   21778088.8754
                                                                        49.0004
        37.0004
  -5511724.93447  -4240103.76245
                  23159020.1094                                   23159015.6294
                                                                        47.0004
        34.5004
  -5290044.88747  -4064094.71945
                  22272802.5784                                   22272798.1994
                                                                        47.7504
        35.0004
  -2004167.75448  -1523571.25046
                  21184742.4774                                   21184737.5554
                                                                        49.2504
        36.7504
   1388782.19547   1095501.60545
                  22472011.8284                                   22472005.2774
                                                                        46.2504
        31.0004
  -4258602.50447  -3265967.32445
                  22813547.7194                                   22813544.0314
                                                                        45.0004
        34.0004
   2546420.27047   1988973.07444
                  23947511.9454                                   23947509.0204
                                                                        43.0004
        24.0004
  -1012002.91447   -774947.41043
                  23799711.7034                                   23799708.0824
                                                                        42.0004
        23.7504
 09 10 21 23 31 30.0000000  0  9G02G04G05G10G13G23G29G30G25
  -1399766.69948  -1057434.20747
                  20375300.9224                                   20375294.6414
                                                                        52.2504
        43.2504
   2126943.17648   1664741.09046
                  21775331.3364                                   21775327.6994
                                                                        49.0004
        37.0004
  -5713551.39547  -4397371.06645
                  23120612.8524                                   23120609.6214
                                                                        46.2504
        34.0004
  -5484413.09447  -4215550.45745
                  22235815.3134                                   22235811.2304
                                                                        47.7504
        35.2504
  -2112341.53548  -1607862.47746
                  21164157.8444                                   21164152.6094
                                                                        49.2504
        36.5004
   1358787.21947   1072128.88345
                  22466304.2664                                   22466297.1954
                                                                        47.2504
        30.2504
  -4425734.84447  -3396200.18745
                  22781743.2814                                   22781739.4184
                                                                        45.0004
        34.2504
   2541641.34847   1985249.19143
                  23946602.6484                                   23946599.3914
                                                                        42.7504
        22.5004
  -1191178.73447   -914564.62544
                  23765615.3834                                   23765611.1844
                                                                        42.0004
        24.5004
 09 10 21 23 32  0.0000000  0  9G02G04G05G10G13G23G29G30G25
  -1492383.82448  -1129603.38347
                  20357676.6024                                   20357670.3914
                                                                        50.7504
        43.0004
   2112865.70348   1653771.59846
                  21772652.5554                                   21772648.7854
                                                                        50.0004
        37.7504
  -5915094.28147  -4554417.41845
                  23082261.1804                                   23082256.7774
                                                                        47.0004
        34.0004
  -5678394.05147  -4366704.42645
                  22198901.6174                                   22198897.4414
                                                                        47.0004
        35.0004
  -2219792.46948  -1691590.46146
                  21143710.5084                                   21143706.0664
                                                                        48.5004
        36.2504
   1329342.33247   1049184.78545
                  22460701.1254                                   22460694.1844
                                                                        45.5004
        31.0004
  -4592356.74647  -3526035.34445
                  22750036.3364                                   22750031.9924
                                                                        44.5004
        33.5004
   2537283.80547   1981853.79343
                  23945773.4384                                   23945769.3874
                                                                        43.7504
        23.5004
  -1369954.86746  -1053870.44943
                  23731594.9454                                   23731591.2424
                                                                        41.5004
        22.5004
 09 10 21 23 32 30.0000000  0  9G02G04G05G10G13G23G29G30G25
  -1584368.45348  -1201279.71547
                  20340172.5554                                   20340166.1294
                                                                        51.5004
        43.0004
   2099216.88748   1643136.18446
                  21770055.6724                                   21770051.4454
                                                                        49.0004
        37.5004
  -6116357.61347  -4711245.98045
                  23043961.4774                                   23043957.2274
                                                                        47.2504
        33.7504
  -5871991.55147  -4517559.59045
                  22162061.1644                                   22162057.6954
                                                                        47.2504
        35.5004
  -2326525.72748  -1774759.23446
                  21123399.7814                                   21123394.8674
                                                                        48.7504
        36.5004
   1300439.73447   1026663.23045
                  22455201.0004                                   22455194.3364
                                                                        44.7504
        31.5004
  -4758471.93047  -3655475.65245
                  22718425.4064                                   22718421.1024
                                                                        45.5004
        33.0004
   2533337.58647   1978778.84044
                  23945022.6254                                   23945018.6134
                                                                        43.7504
        24.5004
  -1548333.92646  -1192867.03143
                  23697650.4454                                   23697646.2074
                                                                        40.5004
        22.2504
 09 10 21 23 33  0.0000000  0  9G02G04G05G10G13G23G29G30G25
  -1675721.29748  -1272463.77347
                  20322788.7274                                   20322782.2504
                                                                        51.7504
        43.0004
   2085993.00848   1632831.85246
                  21767539.3594                                   21767535.4144
                                                                        49.7504
        37.0004
  -6317339.64547  -4867855.38345
                  23005715.9454                                   23005712.2664
                                                                        47.0004
        34.5004
  -6065203.60247  -4668114.44146
                  22125294.3134                                   22125290.6414
                                                                        47.7504
        36.0004
  -2432542.73048  -1857369.86746
                  21103225.7194                                   21103220.8484
                                                                        48.5004
        37.0004
   1272075.95347   1004561.49644
                  22449803.4614                                   22449797.0984
                                                                        46.5004
        29.7504
  -4924077.95347  -3784519.37545
                  22686911.0864                                   22686907.8094
                                                                        45.5004
        33.5004
   2529800.28546   1976022.40643
                  23944348.9844                                   23944345.7854
                                                                        41.0004
        22.5004
  -1726315.35946  -1331553.82843
                  23663781.5474                                   23663777.0354
                                                                        40.5004
        22.0004
 09 10 21 23 33 30.0000000  0  9G02G04G05G10G13G23G29G30G25
  -1766443.84048  -1343156.66447
                  20305524.6254                                   20305518.4104
                                                                        53.0004
        43.2504
   2073191.12948   1622856.37546
                  21765102.4774                                   21765099.0944
                                                                        49.0004
        36.5004
  -6518041.00447  -5024246.02045
                  22967524.0394                                   22967519.4224
                                                                        47.7504
        34.7504
  -6258030.79747  -4818369.40645
                  22088600.7734                                   22088596.7894
                                                                        47.5004
        35.5004
  -2537844.07048  -1939422.82446
                  21083187.5004                                   21083182.2114
                                                                        48.7504
        36.5004
   1244247.44947    982876.86745
                  22444508.2974                                   22444501.1764
                                                                        46.5004
        30.5004
  -5089175.39147  -3913166.74245
                  22655494.4694                                   22655491.2664
                                                                        44.5004
        34.5004
   2526666.16046   1973580.42643
                  23943751.9454                                   23943749.8984
                                                                        39.7504
        23.2504
  -1903896.56646  -1469928.75443
                  23629988.8444                                   23629984.1054
                                                                        41.2504
        22.5004
 09 10 21 23 34  0.0000000  0  9G02G04G05G10G13G23G29G30G25
   -281110.44148   -185753.99647
                  20588174.1884                                   20588167.6724
                                                                        51.5004
        43.5004
   3636232.10248   2840810.34446
                  22062539.4304                                   22062535.3634
                                                                        49.0004
        36.7504
  -5143030.33248  -3952809.11745
                  23229179.6414                                   23229175.3874
                                                                        48.0004
        35.2504
  -4875041.79747  -3740715.63345
                  22351775.0234                                   22351770.4024
                                                                        46.5004
        35.5004
  -1067003.82848   -793313.55146
                  21363079.0944                                   21363073.8554
                                                                        48.2504
        36.5004
   2792374.84447   2189209.88745
                  22739106.6334                                   22739099.6994
                                                                        45.2504
        30.2504
  -3678334.57847  -2813810.38345
                  22923968.6414                                   22923965.4224
                                                                        44.5004
        34.0004
   4099354.03546   3199051.47343
                  24243024.4774                                   24243022.3714
                                                                        39.5004
        22.5004
   -505647.01246   -380383.58243
                  23896066.8134                                   23896062.9534
                                                                        40.2504
        22.5004
 09 10 21 23 34 30.0000000  0  9G02G04G05G10G13G23G29G30G25
   -370566.85248   -255460.28947
                  20571151.0864                                   20571144.4414
                                                                        52.0004
        43.2504
   3624272.85248   2831491.43846
                  22060263.9064                                   22060259.7894
                                                                        49.5004
        36.7504
  -5343157.97347  -4108752.71145
                  23191096.4304                                   23191092.9774
                                                                        47.5004
        34.5004
  -5067086.58247  -3890360.83245
                  22315229.7034                                   22315225.4494
                                                                        47.0004
        34.7504
  -1170869.15248   -874247.59446
                  21343314.3444                                   21343309.3484
                                                                        49.0004
        37.2504
   2765614.52047   2168357.63345
                  22734014.3674                                   22734007.5234
                                                                        45.7504
        30.5004
  -3842402.46547  -2941655.46145
                  22892747.6564                                   22892743.9774
                                                                        44.7504
        34.2504
   4097021.80146   3197234.05944
                  24242581.0004                                   24242578.7544
                                                                        41.2504
        24.5004
   -682416.47746   -518125.93444
                  23862428.8204                                   23862425.0394
                                                                        39.7504
        25.0004
 09 10 21 23 35  0.0000000  0  9G02G04G05G10G13G23G29G30G25
   -459392.66448   -324675.19947
                  20554248.2734                                   20554242.3524
                                                                        51.2504
        43.0004
   3612729.62948   2822496.70746
                  22058067.4454                                   22058063.4224
                                                                        48.7504
        36.7504
  -5542998.82447  -4264472.78145
                  23153068.2584                                   23153064.2854
                                                                        47.5004
        35.2504
  -5258740.04348  -4039701.19945
                  22278759.4924                                   22278755.4024
                                                                        48.2504
        35.5004
  -1274018.14548   -954623.38746
                  21323685.5314                                   21323680.5944
                                                                        49.5004
        36.7504
   2739382.89847   2147917.35945
                  22729023.1644                                   22729015.8054
                                                                        44.7504
        30.0004
  -4005955.45347  -3069099.42645
                  22861624.4224                                   22861621.3054
                                                                        45.2504
        34.5004
   4095082.44147   3195722.82044
                  24242212.4534                                   24242209.8954
                                                                        42.0004
        24.5004
   -858777.83246   -655550.31244
                  23828868.2974                                   23828865.0864
                                                                        41.0004
        26.0004
 09 10 21 23 35 30.0000000  0  9G02G04G05G10G13G23G29G30G25
   -547589.44948   -393399.96547
                  20537465.0234                                   20537458.9574
                                                                        51.2504
        43.0004
   3601598.84848   2813823.39846
                  22055949.2344                                   22055945.6764
                                                                        49.2504
        36.7504
  -5742551.48448  -4419968.29745
                  23115094.6724                                   23115090.6564
                                                                        48.2504
        35.5004
  -5450000.59848  -4188735.36746
                  22242363.9384                                   22242359.3794
                                                                        48.5004
        36.0004
  -1376452.62948  -1034442.53946
                  21304192.8524                                   21304187.7854
                                                                        49.5004
        36.7504
   2713675.53947   2127885.59845
                  22724131.3754                                   22724124.7274
                                                                        46.2504
        31.0004
  -4168991.33247  -3196140.32045
                  22830599.6884                                   22830596.3364
                                                                        44.2504
        34.5004
   4093532.48847   3194515.06644
                  24241917.4614                                   24241914.7304
                                                                        43.2504
        25.7504
  -1034730.67646   -792656.39544
                  23795385.9694                                   23795381.9494
                                                                        40.5004
        26.0004
 09 10 21 23 36  0.0000000  0  9G02G04G05G10G13G23G29G30G25
   -635157.63348   -461634.90647
                  20520801.2274                                   20520794.9844
                                                                        51.5004
        43.0004
   3590877.83248   2805469.36346
                  22053908.8284                                   22053905.0474
                                                                        49.7504
        36.2504
  -5941815.44148  -4575238.88745
                  23077176.0004                                   23077171.7464
                                                                        48.0004
        35.0004
  -5640867.18748  -4337462.52345
                  22206042.7504                                   22206038.3634
                                                                        49.0004
        35.7504
  -1478173.14148  -1113705.25046
                  21284835.9924                                   21284831.2854
                                                                        49.5004
        37.0004
   2688489.76247   2108260.27345
                  22719338.6724                                   22719331.6604
                                                                        47.0004
        30.2504
  -4331509.86747  -3322778.09845
                  22799673.8364                                   22799669.8914
                                                                        46.0004
        34.7504
   4092367.27747   3193607.18444
                  24241695.8674                                   24241692.6724
                                                                        44.5004
        26.2504
  -1210272.65247   -929442.36744
                  23761981.1484                                   23761976.4304
                                                                        42.2504
        26.7504
 09 10 21 23 36 30.0000000  0  9G02G04G05G10G13G23G29G30G25
   -722096.69548   -529379.61347
                  20504257.3284                                   20504250.7854
                                                                        51.5004
        43.0004
   3580565.12948   2797433.51246
                  22051946.7034                                   22051943.0744
                                                                        48.5004
        36.7504
  -6140787.58648  -4730282.03545
                  23039312.5554                                   23039308.1484
                                                                        48.0004
        34.7504
  -5831337.79748  -4485881.22745
                  22169797.4844                                   22169793.3014
                                                                        48.5004
        35.7504
  -1579179.14548  -1192411.25446
                  21265615.4304                                   21265609.9654
                                                                        49.5004
        36.5004
   2663823.80947   2089040.04745
                  22714644.6254                                   22714637.8324
                                                                        46.0004
        30.2504
  -4493507.46147  -3449009.93045
                  22768846.3364                                   22768843.2894
                                                                        45.2504
        35.0004
   4091584.55147   3192997.31344
                  24241546.9694                                   24241543.7154
                                                                        44.2504
        24.0004
  -1385400.77047  -1065905.76244
                  23728655.5234                                   23728650.9964
                                                                        42.2504
        24.2504
 09 10 21 23 37  0.0000000  0  8G02G04G05G10G13G23G29G25
   -808403.84448   -596631.91847
                  20487833.6644                                   20487827.1954
                                                                        52.0004
        43.2504
   3570661.51248   2789716.40646
                  22050061.8524                                   22050057.6294
                                                                        49.7504
        36.2504
  -6339463.49247  -4885094.37545
                  23001505.8524                                   23001501.4494
                                                                        47.7504
        35.2504
  -6021406.91448  -4633987.02746
                  22133628.4774                                   22133624.2464
                                                                        48.5004
        36.0004
  -1679467.66448  -1270558.10546
                  21246531.1414                                   21246526.0554
                                                                        49.0004
        36.7504
   2639677.83647   2070224.96144
                  22710049.9384                                   22710042.9384
                                                                        45.7504
        29.0004
  -4654980.03947  -3574832.71545
                  22738119.0084                                   22738115.4924
                                                                        45.2504
        34.7504
  -1560109.73046  -1202042.57044
                  23695408.8364                                   23695404.9654
                                                                        41.2504
        24.0004
 09 10 21 23 37 30.0000000  0  8G02G04G05G10G13G23G29G25
   -894082.60248   -663394.60247
                  20471529.1884                                   20471523.0664
                                                                        52.0004
        42.7504
   3561161.57448   2782313.87146
                  22048254.3754                                   22048250.3794
                                                                        49.5004
        37.0004
  -6537844.71548  -5039677.10546
                  22963755.0864                                   22963751.1054
                                                                        48.2504
        36.0004
  -6211076.02748  -4781781.12946
                  22097535.7424                                   22097531.5904
                                                                        49.5004
        36.2504
  -1779042.10548  -1348148.61346
                  21227582.0704                                   21227577.4534
                                                                        50.0004
        36.2504
   2616046.60947   2051810.93044
                  22705553.0004                                   22705546.3914
                                                                        46.2504
        29.5004
  -4815928.31247  -3700246.94145
                  22707491.7424                                   22707488.3134
                                                                        45.5004
        34.0004
  -1734400.01246  -1337853.13743
                  23662242.3674                                   23662238.3674
                                                                        41.7504
        23.2504
 09 10 21 23 38  0.0000000  0  8G02G04G05G10G13G23G29G25
   -979131.27348   -729666.29747
                  20455344.8524                                   20455338.6484
                                                                        52.0004
        43.2504
   3552064.93048   2775225.57046
                  22046523.4534                                   22046519.4694
                                                                        50.0004
        36.2504
  -6735926.91448  -5194026.84445
                  22926061.6094                                   22926057.2424
                                                                        48.0004
        35.5004
  -6400340.95748  -4929260.26646
                  22061519.8754                                   22061515.3284
                                                                        49.0004
        36.0004
  -1877900.91848  -1425181.52046
                  21208770.7114                                   21208765.6054
                                                                        51.2504
        37.2504
   2592929.30947   2033797.42644
                  22701154.3204                                   22701147.3284
                                                                        45.5004
        28.5004
  -4976348.47347  -3825249.64845
                  22676964.8594                                   22676961.0554
                                                                        46.2504
        34.0004
  -1908267.70446  -1473334.40744
                  23629156.7194                                   23629152.7384
                                                                        41.2504
        24.2504
 09 10 21 23 38 30.0000000  0  8G02G04G05G10G13G23G29G25
  -1063539.15248   -795438.65247
                  20439282.6094                                   20439276.2384
                                                                        52.0004
        42.7504
   3543380.61348   2768458.56346
                  22044870.5004                                   22044866.9104
                                                                        48.7504
        36.5004
  -6933697.92248  -5348134.04345
                  22888426.5634                                   22888422.7384
                                                                        48.0004
        35.5004
  -6589188.84448  -5076414.41446
                  22025582.9844                                   22025578.8484
                                                                        49.0004
        36.0004
  -1976032.84448  -1501647.94546
                  21190095.9614                                   21190091.4614
                                                                        49.2504
        36.5004
   2570334.41847   2016190.97344
                  22696854.1414                                   22696847.4964
                                                                        44.2504
        29.2504
  -5136227.85947  -3949830.96145
                  22646540.5864                                   22646537.2194
                                                                        45.5004
        34.0004
  -2081698.95746  -1608475.60543
                  23596153.5474                                   23596149.8204
                                                                        41.2504
        22.5004
 09 10 21 23 39  0.0000000  0  8G02G04G05G10G13G23G29G25
  -1147312.40648   -860716.50847
                  20423341.0784                                   20423334.7584
                                                                        52.5004
        42.5004
   3535100.10948   2762006.18046
                  22043295.0554                                   22043290.6294
                                                                        49.2504
        36.2504
  -7131161.36348  -5502001.63345
                  22850850.7034                                   22850846.5634
                                                                        48.7504
        35.5004
  -6777624.23848  -5223247.25446
                  21989725.2274                                   21989721.0664
                                                                        48.2504
        36.2504
  -2073444.82448  -1577553.42646
                  21171559.5864                                   21171554.7384
                                                                        48.2504
        36.7504
   2548253.43447   1998984.99644
                  22692652.3134                                   22692645.8094
                                                                        46.2504
        28.7504
  -5295570.14547  -4073993.69145
                  22616218.6094                                   22616215.0944
                                                                        45.2504
        34.7504
  -2254697.86747  -1743279.88744
                  23563232.7424                                   23563229.3054
                                                                        42.2504
        24.0004
 09 10 21 23 39 30.0000000  0  8G02G04G05G10G13G23G29G25
  -1230456.44148   -925504.04347
                  20407519.4614                                   20407513.0004
                                                                        52.5004
        43.2504
   3527216.07848   2755862.71545
                  22041794.5634                                   22041790.9414
                                                                        48.0004
        35.7504
  -7328321.18448  -5655632.68746
                  22813332.4614                                   22813328.1094
                                                                        49.2504
        36.0004
  -6965649.80948  -5369760.64546
                  21953944.6414                                   21953940.6254
                                                                        48.7504
        36.5004
  -2170141.67248  -1652901.52746
                  21153159.0004                                   21153153.9534
                                                                        49.0004
        36.7504
   2526678.27347   1982173.17644
                  22688546.7584                                   22688540.5084
                                                                        44.5004
        29.7504
  -5454378.48047  -4197740.36745
                  22585998.4774                                   22585995.2664
                                                                        47.0004
        35.2504
  -2427267.21947  -1877749.44544
                  23530394.2424                                   23530389.8134
                                                                        42.7504
        25.7504
 09 10 21 23 40  0.0000000  0  8G02G04G05G10G13G23G29G25
  -1312977.09848   -989805.86347
                  20391816.0554                                   20391809.9534
                                                                        52.5004
        43.0004
   3519721.47748   2750022.74645
                  22040368.8134                                   22040364.5394
                                                                        48.5004
        35.5004
  -7525181.01648  -5809029.98446
                  22775871.3134                                   22775866.9964
                                                                        50.0004
        36.2504
  -7153269.43048  -5515957.77746
                  21918242.3524                                   21918238.1954
                                                                        48.2504
        36.5004
  -2266129.52348  -1727697.25446
                  21134892.9924                                   21134888.0234
                                                                        48.5004
        36.7504
   2505601.53547   1965749.74244
                  22684535.9304                                   22684529.1724
                                                                        45.7504
        28.7504
  -5612657.07847  -4321074.36745
                  22555878.9774                                   22555875.6564
                                                                        46.7504
        34.7504
  -2599409.47747  -2011886.26244
                  23497636.9694                                   23497632.1254
                                                                        43.0004
        26.5004
 09 10 21 23 40 30.0000000  0  8G02G04G05G10G13G23G29G25
  -1394876.77348  -1053623.80147
                  20376231.3284                                   20376224.4454
                                                                        51.7504
        42.5004
   3512611.16848   2744482.18046
                  22039015.5234                                   22039011.5394
                                                                        49.2504
        36.2504
  -7721740.57848  -5962193.22746
                  22738467.2194                                   22738462.8164
                                                                        49.0004
        36.2504
  -7340482.93748  -5661838.41046
                  21882616.7504                                   21882612.6644
                                                                        49.0004
        37.0004
  -2361410.52748  -1801942.15646
                  21116761.5634                                   21116756.5824
                                                                        48.7504
        37.0004
   2485018.09047   1949710.64144
                  22680619.8834                                   22680612.8754
                                                                        45.2504
        29.5004
  -5770405.44547  -4443995.19945
                  22525861.0004                                   22525856.9414
                                                                        46.5004
        35.2504
  -2771125.00447  -2145690.58644
                  23464960.3674                                   23464956.3364
                                                                        44.7504
        24.7504
 09 10 21 23 41  0.0000000  0  8G02G04G05G10G13G23G29G25
  -1476158.70348  -1116960.37947
                  20360763.7894                                   20360757.5664
                                                                        51.7504
        42.5004
   3505880.98048   2739237.89145
                  22037734.9224                                   22037731.1134
                                                                        49.5004
        35.5004
  -7918001.46548  -6115123.72746
                  22701119.9304                                   22701115.4414
                                                                        48.5004
        36.0004
  -7527292.25848  -5807404.08246
                  21847068.3054                                   21847063.6644
                                                                        48.5004
        37.2504
  -2455987.87948  -1875638.79346
                  21098764.1334                                   21098759.2154
                                                                        49.0004
        36.2504
   2464923.13747   1934052.15645
                  22676795.0314                                   22676788.7344
                                                                        44.0004
        30.0004
  -5927625.30947  -4566504.17645
                  22495942.8524                                   22495939.2894
                                                                        47.7504
        35.5004
  -2942413.51647  -2279162.14544
                  23432365.0164                                   23432361.2234
                                                                        42.7504
        25.7504
 09 10 21 23 41 30.0000000  0  8G02G04G05G10G13G23G29G25
  -1556823.02748  -1179815.66447
                  20345414.4144                                   20345407.5984
                                                                        52.2504
        42.7504
   3499527.74648   2734287.39545
                  22036525.7584                                   22036522.0634
                                                                        49.0004
        35.5004
  -8113961.21548  -6267819.64146
                  22663829.3524                                   22663825.7344
                                                                        48.0004
        36.0004
  -7713694.62548  -5952652.64546
                  21811596.4304                                   21811592.5554
                                                                        48.2504
        36.5004
  -2549862.70348  -1948788.01646
                  21080900.1334                                   21080895.3134
                                                                        48.5004
        36.7504
   2445312.64147   1918771.21544
                  22673063.5784                                   22673056.9144
                                                                        45.2504
        29.0004
  -6084314.05947  -4688599.25045
                  22466125.4844                                   22466122.0744
                                                                        47.2504
        35.7504
  -3113274.27747  -2412300.39844
                  23399851.2504                                   23399847.2704
                                                                        42.5004
        26.0004
 09 10 21 23 42  0.0000000  0  8G02G04G05G10G13G23G29G25
    -61448.72748    -14588.93447
                  20629974.1644                                   20629967.6684
                                                                        52.5004
        42.0004
   5068968.65647   3957228.32446
                  22335180.2814                                   22335176.7894
                                                                        47.7504
        37.0004
  -6734193.20348  -5192675.69945
                  22926391.1884                                   22926386.4614
                                                                        48.5004
        35.7504
  -6324263.03948  -4869978.66846
                  22075996.8364                                   22075993.0864
                                                                        48.2504
        36.0004
  -1067612.61748   -793788.01246
                  21362963.1174                                   21362957.8754
                                                                        50.0004
        36.5004
   4001604.31347   3131465.90244
                  22969216.1254                                   22969209.3324
                                                                        44.5004
        28.5004
  -4665046.19147  -3582676.20745
                  22736203.5784                                   22736200.3914
                                                                        46.5004
        35.5004
  -1708279.15647  -1317498.97744
                  23667213.3284                                   23667208.5634
                                                                        42.7504
        26.0004
 09 10 21 23 42 30.0000000  0  8G02G04G05G10G13G23G29G25
   -140882.06248    -76485.03147
                  20614858.6724                                   20614852.2424
                                                                        52.5004
        42.2504
   5063361.19148   3952859.02046
                  22334113.3444                                   22334109.7344
                                                                        50.0004
        36.2504
  -6929549.41048  -5344901.29746
                  22889216.1024                                   22889211.8444
                                                                        48.7504
        36.7504
  -6509848.90248  -5014590.99246
                  22040680.6094                                   22040676.5164
                                                                        49.0004
        36.7504
  -1160084.61348   -865844.10246
                  21345366.3284                                   21345361.0354
                                                                        49.5004
        36.7504
   3982954.47347   3116933.50444
                  22965666.9844                                   22965660.4414
                                                                        45.2504
        28.5004
  -4820670.69947  -3703942.05545
                  22706589.0634                                   22706585.7934
                                                                        47.7504
        35.5004
  -1878277.37147  -1449965.09844
                  23634863.3204                                   23634859.6954
                                                                        42.2504
        24.5004
 09 10 21 23 43  0.0000000  0  8G02G04G05G10G13G23G29G25
   -219702.72748   -137903.71147
                  20599859.8134                                   20599852.6914
                                                                        52.0004
        42.7504
   5058120.37548   3948775.33245
                  22333115.3754                                   22333111.6024
                                                                        49.2504
        35.2504
  -7124603.05947  -5496891.13346
                  22852098.6804                                   22852094.3134
                                                                        47.5004
        36.7504
  -6695025.84448  -5158884.71546
                  22005443.0944                                   22005438.6954
                                                                        49.7504
        37.2504
  -1251858.93448   -937356.56246
                  21327902.2814                                   21327897.2274
                                                                        49.5004
        36.5004
   3964778.39847   3102770.28144
                  22962208.2974                                   22962201.3794
                                                                        45.5004
        27.2504
  -4975762.35548  -3824792.66045
                  22677076.2504                                   22677072.4384
                                                                        48.0004
        35.0004
  -2047844.03947  -1582095.00543
                  23602596.3674                                   23602591.7624
                                                                        42.5004
        23.0004
 09 10 21 23 43 30.0000000  0  8G02G04G05G10G13G23G29G25
   -297909.78948   -198844.29347
                  20584977.2814                                   20584970.8054
                                                                        52.0004
        43.0004
   5053245.94948   3944977.02045
                  22332188.3914                                   22332184.7974
                                                                        49.0004
        35.2504
  -7319351.24647  -5648642.96946
                  22815038.8444                                   22815035.0904
                                                                        46.7504
        36.2504
  -6879790.81248  -5302857.44946
                  21970283.4774                                   21970279.5634
                                                                        49.5004
        37.2504
  -1342933.95748  -1008324.13346
                  21310571.3444                                   21310566.0554
                                                                        50.7504
        36.5004
   3947075.21947   3088975.51644
                  22958839.6804                                   22958833.2154
                                                                        45.0004
        29.2504
  -5130318.73447  -3945226.17245
                  22647665.0554                                   22647661.1524
                                                                        47.0004
        35.0004
  -2216974.40647  -1713884.93044
                  23570411.7894                                   23570407.3914
                                                                        43.0004
        24.5004
 09 10 21 23 44  0.0000000  0  8G02G04G05G10G13G23G29G25
   -375504.04348   -259307.34847
                  20570211.4064                                   20570204.4734
                                                                        51.5004
        42.5004
   5048735.11748   3941462.11745
                  22331329.7734                                   22331325.4774
                                                                        48.7504
        34.7504
  -7513792.09047  -5800155.32446
                  22778038.2894                                   22778033.9614
                                                                        47.2504
        37.2504
  -7064141.73048  -5446507.45346
                  21935202.3134                                   21935198.3754
                                                                        49.5004
        36.7504
  -1433310.48848  -1078747.40246
                  21293373.0784                                   21293368.3244
                                                                        50.0004
        36.0004
   3929841.84447   3075546.82044
                  22955560.5554                                   22955554.1414
                                                                        46.0004
        28.2504
  -5284337.24247  -4065240.61745
                  22618356.0084                                   22618352.6604
                                                                        47.2504
        35.0004
  -2385666.96147  -1845333.69144
                  23538310.4304                                   23538306.3324
                                                                        43.0004
        26.0004
 09 10 21 23 44 30.0000000  0  8G02G04G05G10G13G23G29G25
   -452487.47348   -319294.43447
                  20555562.1254                                   20555555.3524
                                                                        52.5004
        42.7504
   5044584.16048   3938227.60945
                  22330539.9224                                   22330536.6214
                                                                        49.2504
        35.2504
  -7707925.73447  -5951428.29346
                  22741095.7664                                   22741091.7934
                                                                        47.2504
        37.0004
  -7248079.14148  -5589835.28946
                  21900200.2584                                   21900196.2934
                                                                        50.2504
        37.7504
  -1522990.86348  -1148628.14546
                  21276307.6334                                   21276302.2734
                                                                        50.7504
        36.7504
   3913073.62147   3062480.64144
                  22952369.4614                                   22952362.6254
                                                                        45.5004
        28.0004
  -5437818.33647  -4184836.28545
                  22589149.5704                                   22589145.9654
                                                                        47.7504
        35.7504
  -2553921.06246  -1976440.75144
                  23506293.2274                                   23506288.6134
                                                                        41.2504
        25.0004
 09 10 21 23 45  0.0000000  0  8G02G04G05G10G13G23G29G25
   -528857.89848   -378803.85947
                  20541029.5944                                   20541022.6564
                                                                        51.7504
        42.7504
   5040793.39848   3935273.77345
                  22329818.7584                                   22329815.1024
                                                                        49.5004
        35.7504
  -7901747.57447  -6102458.32046
                  22704212.9224                                   22704208.3874
                                                                        46.5004
        36.0004
  -7431597.89848  -5732836.86746
                  21865277.7504                                   21865273.9574
                                                                        49.2504
        37.2504
  -1611972.95748  -1217964.86346
                  21259374.7664                                   21259370.1334
                                                                        51.0004
        37.0004
   3896771.30147   3049777.47344
                  22949267.1724                                   22949260.9534
                                                                        46.0004
        29.5004
  -5590756.93047  -4304009.22745
                  22560046.6334                                   22560042.4064
                                                                        46.7504
        34.5004
  -2721731.73447  -2107202.26644
                  23474359.6804                                   23474355.1294
                                                                        42.2504
        26.2504
 09 10 21 23 45 30.0000000  0  8G02G04G05G10G13G23G29G25
   -604618.43448   -437838.05947
                  20526612.7114                                   20526605.9264
                                                                        52.0004
        43.0004
   5037358.20348   3932596.94945
                  22329165.0234                                   22329161.1174
                                                                        49.2504
        34.7504
  -8095258.34847  -6253245.94946
                  22667388.7114                                   22667384.2504
                                                                        47.0004
        36.0004
  -7614699.01248  -5875513.06246
                  21830434.9304                                   21830430.8984
                                                                        49.2504
        37.5004
  -1700259.91048  -1286759.88746
                  21242574.2734                                   21242569.4414
                                                                        51.2504
        36.0004
   3880929.48447   3037433.12544
                  22946253.2274                                   22946246.2774
                                                                        45.5004
        29.0004
  -5743154.24648  -4422760.40245
                  22531046.1804                                   22531042.5314
                                                                        48.2504
        35.5004
  -2889098.99647  -2237618.23844
                  23442511.0474                                   23442507.0704
                                                                        42.2504
        26.2504
 09 10 21 23 46  0.0000000  0  8G02G04G05G10G13G23G29G25
   -679769.11348   -496397.02747
                  20512312.0864                                   20512305.3204
                                                                        52.7504
        42.7504
   5034276.60548   3930195.72745
                  22328578.7584                                   22328574.7814
                                                                        49.0004
        34.5004
  -8288456.22747  -6403789.74646
                  22630624.3054                                   22630620.0554
                                                                        47.0004
        36.2504
  -7797380.67248  -6017862.44146
                  21795671.9774                                   21795667.5204
                                                                        50.2504
        38.0004
  -1787852.34848  -1355013.75046
                  21225906.2274                                   21225901.0594
                                                                        51.2504
        36.2504
   3865545.49647   3025445.55944
                  22943325.5004                                   22943318.9144
                                                                        46.2504
        29.7504
  -5895008.44547  -4541088.32045
                  22502149.5634                                   22502145.4064
                                                                        47.5004
        35.5004
  -3056020.61746  -2367686.98044
                  23410746.7034                                   23410742.2304
                                                                        41.2504
        27.0004
 09 10 21 23 46 30.0000000  0  8G02G04G05G10G13G23G29G25
   -754311.12548   -554481.72347
                  20498127.0234                                   20498120.3164
                                                                        52.2504
        42.7504
   5031546.03148   3928067.97745
                  22328059.1094                                   22328055.2304
                                                                        49.0004
        35.0004
  -8481339.71948  -6554088.53546
                  22593920.3134                                   22593915.8634
                                                                        48.0004
        37.2504
  -7979641.37148  -6159883.78946
                  21760988.8524                                   21760984.7424
                                                                        50.0004
        37.0004
  -1874750.68448  -1422726.78146
                  21209369.9924                                   21209365.2774
                                                                        50.7504
        36.5004
   3850616.63747   3013812.62544
                  22940483.6804                                   22940477.6484
                                                                        44.7504
        27.2504
  -6046318.44948  -4658992.17246
                  22473356.1174                                   22473352.1524
                                                                        49.5004
        36.0004
  -3222494.42646  -2497406.76244
                  23379066.8834                                   23379063.6414
                                                                        40.5004
        24.5004
 09 10 21 23 47  0.0000000  0  8G02G04G05G10G13G23G29G25
   -828244.05148   -612091.83647
                  20484058.0084                                   20484051.9694
                                                                        52.0004
        43.0004
   5029164.71948   3926212.36745
                  22327605.9614                                   22327602.3164
                                                                        49.0004
        34.5004
  -8673905.61348  -6704139.85546
                  22557275.9924                                   22557271.7854
                                                                        48.5004
        37.2504
  -8161477.48048  -6301574.27346
                  21726386.3834                                   21726382.1844
                                                                        49.0004
        37.2504
  -1960955.31648  -1489899.24246
                  21192965.9844                                   21192960.8594
                                                                        50.7504
        36.0004
   3836140.57047   3002532.47344
                  22937729.8754                                   22937723.6094
                                                                        44.5004
        26.7504
  -6197080.40247  -4776469.00046
                  22444667.1254                                   22444663.5434
                                                                        46.7504
        36.5004
  -3388518.00846  -2626775.74644
                  23347473.9534                                   23347470.4414
                                                                        39.7504
        27.2504
 09 10 21 23 47 30.0000000  0  8G02G04G05G10G13G23G29G25
   -901568.34848   -669227.67647
                  20470104.9064                                   20470098.5864
                                                                        52.0004
        42.7504
   5027131.13348   3924627.68045
                  22327219.0474                                   22327215.5314
                                                                        48.5004
        34.7504
  -8866152.75447  -6853942.83646
                  22520692.5394                                   22520688.0594
                                                                        47.7504
        37.2504
  -8342887.43748  -6442932.66046
                  21691865.6024                                   21691860.7814
                                                                        49.5004
        38.0004
  -2046466.07848  -1556530.97346
                  21176693.1724                                   21176689.0314
                                                                        51.0004
        36.0004
   3822115.45747   2991603.76644
                  22935060.3204                                   22935054.0164
                                                                        43.7504
        27.0004
  -6347293.77047  -4893518.40246
                  22416082.2734                                   22416078.4614
                                                                        46.5004
        36.2504
  -3554088.34846  -2755791.57044
                  23315967.1174                                   23315963.4144
                                                                        41.0004
        25.2504
 09 10 21 23 48  0.0000000  0  8G02G04G05G10G13G23G29G25
   -974284.97348   -725889.97747
                  20456267.2974                                   20456261.1054
                                                                        52.0004
        42.2504
   5025442.05547   3923311.44945
                  22326897.5554                                   22326893.8634
                                                                        47.2504
        34.0004
  -9058078.88748  -7003495.67646
                  22484169.9924                                   22484165.9344
                                                                        48.2504
        36.5004
  -8523869.97748  -6583958.03146
                  21657425.8444                                   21657421.2704
                                                                        49.7504
        38.0004
  -2131284.89148  -1622623.56245
                  21160552.9694                                   21160547.8204
                                                                        51.0004
        35.7504
   3808537.64147   2981023.61744
                  22932477.3364                                   22932470.3324
                                                                        45.5004
        27.5004
  -6496956.22747  -5010138.50446
                  22387602.0234                                   22387598.6254
                                                                        47.5004
        36.5004
  -3719204.24447  -2884453.31544
                  23284546.9384                                   23284542.2304
                                                                        42.5004
        25.0004
 09 10 21 23 48 30.0000000  0  8G02G04G05G10G13G23G29G25
  -1046395.54348   -782079.98447
                  20442545.1884                                   20442538.6564
                                                                        52.5004
        42.7504
   5024094.23447   3922261.16845
                  22326641.3284                                   22326637.4964
                                                                        47.5004
        34.5004
  -9249684.05948  -7152798.38346
                  22447709.1884                                   22447705.0474
                                                                        48.0004
        37.0004
  -8704424.33648  -6724649.73446
                  21623066.7734                                   21623063.1804
                                                                        50.0004
        38.0004
  -2215413.11348  -1688178.00846
                  21144543.8984                                   21144538.6334
                                                                        51.0004
        36.5004
   3795403.53547   2970789.18444
                  22929978.4614                                   22929971.5744
                                                                        45.2504
        29.2504
  -6646067.46947  -5126329.13345
                  22359227.5784                                   22359223.5394
                                                                        47.5004
        35.7504
  -3883864.27746  -3012759.84444
                  23253213.4534                                   23253208.6094
                                                                        41.2504
        25.0004
 09 10 21 23 49  0.0000000  0  8G02G04G05G10G13G23G29G25
  -1117899.96548   -837797.70747
                  20428938.2734                                   20428932.0784
                                                                        52.5004
        42.7504
   5023087.10548   3921476.39545
                  22326449.7584                                   22326445.9924
                                                                        48.0004
        34.2504
  -9440965.70348  -7301848.99246
                  22411309.1484                                   22411305.2194
                                                                        48.0004
        37.7504
  -8884548.00848  -6865005.84046
                  21588790.6724                                   21588786.6054
                                                                        49.7504
        38.2504
  -2298850.33248  -1753194.00046
                  21128666.4064                                   21128661.6024
                                                                        51.2504
        36.0004
   3782711.52347   2960899.28944
                  22927563.1724                                   22927556.6644
                                                                        44.5004
        28.7504
  -6794625.75047  -5242088.83646
                  22330958.0864                                   22330954.0784
                                                                        47.2504
        36.2504
  -4048064.75446  -3140708.32444
                  23221966.6804                                   23221962.0314
                                                                        41.5004
        25.0004
 09 10 21 23 49 30.0000000  0  8G02G04G05G10G13G23G29G25
  -1188799.07048   -893043.73447
                  20415446.4774                                   20415440.2544
                                                                        51.7504
        42.5004
   5022417.12147   3920954.31345
                  22326322.3204                                   22326318.5354
                                                                        47.5004
        34.7504
  -9631922.05147  -7450646.10546
                  22374971.4384                                   22374967.1414
                                                                        47.5004
        37.5004
  -9064239.31248  -7005025.03946
                  21554596.6254                                   21554592.9964
                                                                        49.2504
        38.0004
  -2381598.34048  -1817673.02046
                  21112919.7584                                   21112915.0664
                                                                        51.0004
        36.2504
   3770458.38747   2951351.37944
                  22925231.3674                                   22925225.3054
                                                                        44.5004
        28.5004
  -6942628.70347  -5357415.76246
                  22302793.7584                                   22302790.3594
                                                                        46.5004
        36.0004
  -4211804.66847  -3268297.92244
                  23190808.0474                                   23190803.6724
                                                                        42.5004
        25.7504
 09 10 21 23 50  0.0000000  0  8G02G04G05G10G13G23G29G25
  -1259094.69948   -947819.52347
                  20402069.6724                                   20402063.1254
                                                                        51.7504
        42.5004
   5022081.52047   3920692.78945
                  22326258.0634                                   22326254.3094
                                                                        47.5004
        34.5004
  -9822552.22348  -7599189.07446
                  22338695.5704                                   22338691.2704
                                                                        49.0004
        37.2504
  -9243497.58248  -7144706.79746
                  21520484.6884                                   21520480.8094
                                                                        48.5004
        38.7504
  -2463658.79348  -1881616.26246
                  21097304.4304                                   21097299.3954
                                                                        51.0004
        36.5004
   3758640.19147   2942142.27044
                  22922981.7344                                   22922976.1564
                                                                        43.7504
        27.2504
  -7090076.01647  -5472309.76246
                  22274735.8284                                   22274732.2424
                                                                        46.2504
        36.0004
  -4375082.46547  -3395527.39544
                  23159737.3364                                   23159732.9884
                                                                        42.5004
        26.2504
 09 10 21 23 50 30.0000000  0  8G02G04G05G10G13G23G29G25
    246635.56348    225476.78547
                  20688600.7894                                   20688594.3524
                                                                        52.0004
        42.5004
   6597498.30947   5148290.26645
                  22626049.9614                                   22626046.4494
                                                                        47.7504
        34.0004
  -8437427.29348  -6519870.95346
                  22602276.3204                                   22602271.7234
                                                                        49.0004
        37.5004
  -7846894.29748  -6056444.49646
                  21786249.6644                                   21786245.6884
                                                                        49.5004
        38.5004
   -969608.87948   -717421.52746
                  21381612.8054                                   21381607.6094
                                                                        50.2504
        36.5004
   5322676.04347   4160871.55144
                  23220608.3524                                   23220601.9184
                                                                        43.7504
        27.0004
  -5661540.77347  -4359165.50846
                  22546576.3754                                   22546573.1724
                                                                        47.7504
        36.2504
  -2962470.07047  -2294790.46944
                  23428548.4614                                   23428544.3634
                                                                        42.0004
        27.0004
 09 10 21 23 51  0.0000000  0  8G02G04G05G10G13G23G29G25
    177549.21148    171643.27747
                  20675453.9694                                   20675447.7274
                                                                        51.7504
        42.5004
   6597828.44547   5148547.52045
                  22626112.8834                                   22626108.9144
                                                                        47.5004
        34.0004
  -8627396.12548  -6667898.61746
                  22566126.5634                                   22566121.8674
                                                                        48.5004
        37.7504
  -8025276.69948  -6195443.75846
                  21752304.4064                                   21752300.3984
                                                                        49.0004
        38.0004
  -1050292.08648   -780291.55546
                  21366259.0474                                   21366254.3984
                                                                        50.0004
        36.2504
   5311724.60547   4152337.88744
                  23218524.2344                                   23218517.3874
                                                                        43.7504
        27.0004
  -5807868.42248  -4473187.12546
                  22518731.5864                                   22518728.2544
                                                                        48.0004
        36.2504
  -3124813.00446  -2421291.43444
                  23397655.6334                                   23397651.6764
                                                                        41.7504
        25.5004
 09 10 21 23 51 30.0000000  0  8G02G04G05G10G13G23G29G25
    109065.80548    118279.61347
                  20662421.9694                                   20662415.4884
                                                                        50.5004
        42.5004
   6598487.33247   5149060.84445
                  22626238.6094                                   22626234.7074
                                                                        47.2504
        34.0004
  -8817031.97747  -6815666.82046
                  22530039.8134                                   22530035.5084
                                                                        47.0004
        37.5004
  -8203219.03548  -6334100.14146
                  21718443.3364                                   21718439.0594
                                                                        49.5004
        38.5004
  -1130288.95748   -842626.78946
                  21351036.4224                                   21351031.5594
                                                                        50.2504
        36.5004
   5301201.39847   4144137.93044
                  23216522.0704                                   23216515.2704
                                                                        42.5004
        27.2504
  -5953633.48848  -4586770.23046
                  22490993.2814                                   22490989.8444
                                                                        48.2504
        36.2504
  -3286686.21947  -2547426.39144
                  23366852.1094                                   23366847.9574
                                                                        42.2504
        26.0004
 09 10 21 23 52  0.0000000  0  8G02G04G05G10G13G23G29G25
     41183.94548     65384.70747
                  20649504.7894                                   20649497.8484
                                                                        52.0004
        42.5004
   6599472.27747   5149828.25845
                  22626425.9224                                   22626422.2234
                                                                        46.7504
        33.7504
  -9006334.35247  -6963175.17246
                  22494016.8364                                   22494012.8204
                                                                        47.7504
        37.5004
  -8380720.55548  -6472413.01646
                  21684665.8834                                   21684661.5514
                                                                        50.0004
        38.5004
  -1209600.54748   -904428.02346
                  21335943.6254                                   21335939.2234
                                                                        50.0004
        36.7504
   5291103.54747   4136269.48844
                  23214600.5394                                   23214593.8754
                                                                        44.5004
        28.0004
  -6098836.55948  -4699915.50046
                  22463362.0864                                   22463358.7034
                                                                        48.5004
        37.0004
  -3448087.87147  -2673193.88344
                  23336138.9064                                   23336134.3674
                                                                        42.7504
        27.0004
 09 10 21 23 52 30.0000000  0  8G02G04G05G10G13G23G29G25
    -26096.53948     12958.39547
                  20636701.6804                                   20636695.2304
                                                                        51.0004
        42.2504
   6600781.67247   5150848.61745
                  22626674.8134                                   22626671.4414
                                                                        45.5004
        33.5004
  -9195300.28147  -7110421.35246
                  22458057.4304                                   22458053.9454
                                                                        47.5004
        37.7504
  -8557778.57448  -6610380.29346
                  21650972.7894                                   21650968.8794
                                                                        48.5004
        38.2504
  -1288227.54748   -965695.77346
                  21320981.4774                                   21320976.6294
                                                                        49.7504
        36.0004
   5281428.64547   4128730.64144
                  23212759.6094                                   23212753.3164
                                                                        43.7504
        28.5004
  -6243474.51247  -4812620.43746
                  22435838.1644                                   22435834.6804
                                                                        46.0004
        36.5004
  -3609015.67246  -2798592.13344
                  23305514.7034                                   23305510.9414
                                                                        41.5004
        26.5004
 09 10 21 23 53  0.0000000  0  8G02G04G05G10G13G23G29G25
    -92776.08248    -38999.69547
                  20624012.6254                                   20624006.1094
                                                                        52.0004
        42.5004
   6602413.32847   5152120.04745
                  22626985.3984                                   22626982.0784
                                                                        47.5004
        34.0004
  -9383927.62148  -7257403.71946
                  22422163.1174                                   22422158.7424
                                                                        49.0004
        38.2504
  -8734391.05948  -6748000.41446
                  21617364.4454                                   21617360.5004
                                                                        49.7504
        39.0004
  -1366170.83248  -1026430.89546
                  21306149.4534                                   21306144.6374
                                                                        50.2504
        36.0004
   5272174.20747   4121519.34444
                  23210998.3984                                   23210992.2234
                                                                        42.5004
        27.7504
  -6387545.18048  -4924883.28546
                  22408422.9694                                   22408419.1214
                                                                        48.2504
        36.5004
  -3769466.97347  -2923619.08644
                  23274982.0164                                   23274977.6844
                                                                        42.7504
        28.0004
 09 10 21 23 53 30.0000000  0  8G02G04G05G10G13G23G29G25
   -158857.28948    -90491.55547
                  20611437.7894                                   20611431.2154
                                                                        51.2504
        42.5004
   6604363.48047   5153639.60545
                  22627356.7974                                   22627353.2774
                                                                        46.7504
        33.5004
  -9572216.74247  -7404122.54346
                  22386332.9534                                   22386328.6564
                                                                        47.7504
        37.5004
  -8910557.72348  -6885273.10546
                  21583841.1254                                   21583836.9694
                                                                        49.5004
        39.0004
  -1443432.71548  -1086634.99646
                  21291447.1094                                   21291442.1134
                                                                        49.7504
        36.5004
   5263336.19147   4114632.63344
                  23209316.5314                                   23209310.1294
                                                                        43.0004
        25.0004
  -6531049.04348  -5036704.40246
                  22381114.9304                                   22381111.2304
                                                                        48.2504
        36.2504
  -3929441.17247  -3048274.30144
                  23244540.1724                                   23244536.1914
                                                                        42.7504
        28.0004
 09 10 21 23 54  0.0000000  0  8G02G04G05G10G13G23G29G25
   -224339.38748   -141516.59047
                  20598977.0784                                   20598970.4534
                                                                        52.0004
        42.5004
   6606631.03147   5155406.49645
                  22627788.0784                                   22627784.3164
                                                                        47.0004
        34.0004
  -9760163.87948  -7550574.91446
                  22350568.0474                                   22350563.7544
                                                                        48.5004
        37.5004
  -9086275.68048  -7022196.17646
                  21550403.1094                                   21550399.1844
                                                                        50.0004
        38.5004
  -1520012.68448  -1146307.65646
                  21276874.3284                                   21276869.6414
                                                                        50.5004
        36.5004
   5254912.78147   4108068.90244
                  23207713.1564                                   23207707.6214
                                                                        43.5004
        26.5004
  -6673983.06248  -5148081.51245
                  22353915.3674                                   22353911.6684
                                                                        48.2504
        35.7504
  -4088935.23847  -3172555.30944
                  23214189.0394                                   23214185.0904
                                                                        43.7504
        27.0004
 09 10 21 23 54 30.0000000  0  9G02G04G05G10G13G23G29G16G25
   -289224.80548   -192076.66447
                  20586629.9144                                   20586623.2854
                                                                        51.7504
        42.0004
   6609212.17648   5157417.75445
                  22628279.3984                                   22628275.4454
                                                                        48.5004
        32.2504
  -9947769.39147  -7696761.01646
                  22314867.6024                                   22314863.6644
                                                                        47.7504
        38.5004
  -9261545.01648  -7158769.67246
                  21517050.8984                                   21517046.4844
                                                                        49.0004
        38.5004
  -1595913.66048  -1205451.32846
                  21262430.9384                                   21262426.1024
                                                                        50.2504
        36.0004
   5246899.95747   4101825.18444
                  23206189.3204                                   23206182.1644
                                                                        43.7504
        26.2504
  -6816347.94148  -5259015.12546
                  22326824.5784                                   22326820.6174
                                                                        48.2504
        36.0004
   7603826.28956   5959330.36353
                  24339279.1414                                   24339273.9494
                                                                        39.5004
        20.0004
  -4247948.33247  -3296461.64144
                  23183930.2584                                   23183925.8324
                                                                        44.2504
        26.7504
 09 10 21 23 55  0.0000000  0  9G02G04G05G10G13G23G29G16G25
   -353521.39548   -242177.90247
                  20574394.8984                                   20574388.0784
                                                                        51.5004
        42.2504
   6612098.14547   5159666.57445
                  22628828.6564                                   22628824.6914
                                                                        47.5004
        32.7504
 -10135038.20348  -7842684.69546
                  22279231.7814                                   22279227.4884
                                                                        48.7504
        38.0004
  -9436370.47748  -7294997.33646
                  21483782.1094                                   21483778.5004
                                                                        49.5004
        38.5004
  -1671143.80148  -1264072.27046
                  21248115.3054                                   21248110.3714
                                                                        50.5004
        36.2504
   5239287.53547   4095893.51644
                  23204740.4064                                   23204733.3014
                                                                        43.0004
        27.0004
  -6958148.46147  -5369508.97746
                  22299840.3444                                   22299836.7544
                                                                        47.0004
        36.7504
   7439838.08646   5831547.57443
                  24308073.1954                                   24308067.7504
                                                                        39.5004
        19.5004
  -4406485.62947  -3419997.16844
                  23153761.6334                                   23153756.9804
                                                                        44.5004
        26.0004
 09 10 21 23 55 30.0000000  0  9G02G04G05G10G13G23G29G16G25
   -417233.62148   -291823.80547
                  20562270.4614                                   20562264.1134
                                                                        52.0004
        42.2504
   6615282.33647   5162147.72745
                  22629434.4064                                   22629430.7814
                                                                        46.5004
        33.5004
 -10321972.27048  -7988347.56646
                  22243659.5474                                   22243655.2624
                                                                        48.5004
        38.2504
  -9610754.36748  -7430880.87546
                  21450598.3364                                   21450594.2114
                                                                        50.0004
        39.0004
  -1745707.16048  -1322173.61346
                  21233926.2114                                   21233921.3284
                                                                        50.5004
        36.0004
   5232069.61747   4090269.23044
                  23203366.6484                                   23203360.3794
                                                                        44.5004
        26.5004
  -7099387.22747  -5479565.14846
                  22272963.3984                                   22272959.9774
                                                                        47.7504
        37.2504
   7276323.72446   5704133.82743
                  24276956.6954                                   24276952.7304
                                                                        38.0004
        19.5004
  -4564548.62947  -3543163.13344
                  23123683.1334                                   23123678.4344
                                                                        44.0004
        25.5004
 09 10 21 23 56  0.0000000  0  9G02G04G05G10G13G23G29G16G25
   -480360.08248   -341013.25446
                  20550257.9144                                   20550251.6374
                                                                        51.5004
        41.7504
   6618765.12947   5164861.54345
                  22630097.0634                                   22630093.6914
                                                                        46.5004
        32.2504
 -10508568.00448  -8133746.83246
                  22208151.2734                                   22208147.2704
                                                                        49.0004
        39.0004
  -9784692.47348  -7566417.05146
                  21417499.0634                                   21417495.4734
                                                                        49.5004
        39.7504
  -1819602.74248  -1379754.61346
                  21219864.4304                                   21219859.6134
                                                                        50.2504
        36.0004
   5225245.84047   4084952.00844
                  23202067.6644                                   23202062.1294
                                                                        44.5004
        25.7504
  -7240060.34848  -5589180.52046
                  22246194.3444                                   22246190.4104
                                                                        48.0004
        36.7504
   7113288.44146   5577093.35943
                  24245932.0314                                   24245928.0784
                                                                        39.2504
        19.0004
  -4722132.66047  -3665955.85544
                  23093695.0704                                   23093691.6174
                                                                        44.0004
        26.2504
 09 10 21 23 56 30.0000000  0  9G02G04G05G10G13G23G29G16G25
   -542896.14148   -389742.68747
                  20538357.7894                                   20538351.4184
                                                                        51.2504
        42.5004
   6622549.75447   5167810.62145
                  22630817.3054                                   22630813.5744
                                                                        47.5004
        33.0004
 -10694817.21548  -8278876.00846
                  22172709.1884                                   22172705.1174
                                                                        49.7504
        38.2504
  -9958177.27348  -7701600.00446
                  21384486.0164                                   21384481.6024
                                                                        50.2504
        39.2504
  -1892826.82848  -1436812.35945
                  21205930.5784                                   21205925.4454
                                                                        50.2504
        35.5004
   5218818.43847   4079943.64144
                  23200844.5164                                   23200838.6294
                                                                        43.2504
        26.5004
  -7380160.30148  -5698349.22346
                  22219534.3594                                   22219530.1254
                                                                        48.7504
        36.5004
   6950740.10946   5450432.50143
                  24215000.6414                                   24214996.2584
                                                                        40.0004
        19.5004
  -4879231.00447  -3788370.13744
                  23063800.6484                                   23063796.8404
                                                                        43.5004
        25.5004
 09 10 21 23 57  0.0000000  0  9G02G04G05G10G13G23G29G16G25
   -604840.84048   -438011.35247
                  20526570.4304                                   20526563.9734
                                                                        51.5004
        42.0004
   6626636.00047   5170994.71545
                  22631595.1724                                   22631591.5044
                                                                        47.2504
        33.5004
 -10880717.07448  -8423733.02046
                  22137333.3204                                   22137329.2034
                                                                        49.7504
        39.0004
 -10131205.68448  -7836427.34046
                  21351559.5784                                   21351555.6724
                                                                        49.7504
        38.7504
  -1965378.06648  -1493345.80545
                  21192124.2664                                   21192119.8634
                                                                        51.0004
        35.5004
   5212787.03147   4075243.90644
                  23199697.1254                                   23199691.0904
                                                                        43.7504
        27.0004
  -7519684.61348  -5807069.50846
                  22192983.2274                                   22192979.9024
                                                                        49.0004
        37.5004
   6788682.42246   5324153.78943
                  24184162.0164                                   24184157.4694
                                                                        41.5004
        21.2504
  -5035839.10947  -3910402.40244
                  23033999.2734                                   23033994.6954
                                                                        44.5004
        27.0004
 09 10 21 23 57 30.0000000  0  9G02G04G05G10G13G23G29G16G25
   -666191.93748   -485817.46946
                  20514895.4224                                   20514889.2074
                                                                        51.7504
        41.7504
   6631024.72747   5174414.50845
                  22632430.2034                                   22632426.7624
                                                                        47.5004
        33.0004
 -11066262.31248  -8568313.70346
                  22102025.4454                                   22102021.2894
                                                                        49.7504
        38.5004
 -10303772.32848  -7970894.83646
                  21318721.1094                                   21318717.3054
                                                                        50.5004
        38.7504
  -2037254.42648  -1549353.39545
                  21178446.6884                                   21178441.7114
                                                                        50.5004
        35.7504
   5207151.92247   4070852.91844
                  23198625.1174                                   23198618.9104
                                                                        45.5004
        28.0004
  -7658628.12948  -5915337.12946
                  22166543.5394                                   22166539.5044
                                                                        49.0004
        36.5004
   6627120.72747   5198261.48443
                  24153418.4304                                   24153413.8674
                                                                        42.0004
        22.2504
  -5191951.90247  -4032048.77744
                  23004291.6724                                   23004288.0084
                                                                        44.5004
        26.5004
 09 10 21 23 58  0.0000000  0  9G02G04G05G10G13G23G29G16G25
   -726948.81248   -533160.52347
                  20503333.8364                                   20503327.6454
                                                                        52.0004
        42.2504
   6635714.53947   5178068.85545
                  22633322.5944                                   22633319.1764
                                                                        47.5004
        32.2504
 -11251449.45348  -8712615.35946
                  22066785.3594                                   22066781.5784
                                                                        51.0004
        38.7504
 -10475873.98448  -8105000.01646
                  21285971.3754                                   21285967.1644
                                                                        50.2504
        38.7504
  -2108456.03148  -1604835.18445
                  21164897.4844                                   21164892.8634
                                                                        50.5004
        35.7504
   5201911.32047   4066769.35244
                  23197627.9144                                   23197621.1914
                                                                        46.2504
        25.0004
  -7796987.82448  -6023149.80146
                  22140214.2894                                   22140210.7384
                                                                        49.5004
        36.7504
   6466058.85246   5072758.70343
                  24122768.7194                                   24122764.4024
                                                                        41.5004
        21.5004
  -5347566.46147  -4153306.87144
                  22974679.5704                                   22974675.3954
                                                                        44.0004
        26.0004
 09 10 21 23 58 30.0000000  0  9G02G04G05G10G13G23G29G16G25
    788309.62948    647560.31346
                  20791678.1094                                   20791671.5824
                                                                        52.2504
        41.7504
   8216124.29347   6409556.94945
                  22934064.6334                                   22934060.9104
                                                                        46.2504
        32.0004
  -9860851.13748  -7629032.24246
                  22331407.8594                                   22331403.7664
                                                                        50.5004
        39.5004
  -9072083.69948  -7011137.44946
                  21553103.5864                                   21553099.3014
                                                                        50.7504
        39.2504
   -603560.74648   -432189.51245
                  21451269.5394                                   21451264.9574
                                                                        50.5004
        35.2504
   6772483.54347   5290591.85544
                  23496497.5314                                   23496490.6724
                                                                        45.0004
        26.5004
  -6359338.44148  -4902903.48446
                  22413789.5944                                   22413786.5864
                                                                        48.5004
        36.2504
   7880924.46946   6175251.43443
                  24392008.9224                                   24392005.1604
                                                                        41.5004
        22.2504
  -3927254.37147  -3046570.15644
                  23244956.1884                                   23244952.0554
                                                                        45.0004
        28.0004
 09 10 21 23 59  0.0000000  0  9G02G04G05G10G13G23G29G16G25
    728738.87948    601141.52346
                  20780341.7344                                   20780335.8984
                                                                        52.5004
        41.5004
   8221411.57047   6413676.89145
                  22935070.6484                                   22935066.8554
                                                                        46.7504
        32.2504
 -10045317.05148  -7772771.89846
                  22296304.7664                                   22296300.7274
                                                                        51.0004
        39.0004
  -9243250.69548  -7144514.32046
                  21520531.6024                                   21520527.3914
                                                                        50.2504
        39.0004
   -673415.14148   -486621.49645
                  21437976.8594                                   21437972.0204
                                                                        50.5004
        35.5004
   6768025.48847   5287118.04744
                  23495649.3914                                   23495642.5984
                                                                        44.0004
        24.0004
  -6496526.62548  -5009803.28546
                  22387683.6884                                   22387680.2194
                                                                        48.7504
        36.7504
   7720869.12146   6050532.93843
                  24361550.3834                                   24361546.6414
                                                                        41.5004
        22.5004
  -4081864.83247  -3167045.84844
                  23215534.8834                                   23215530.5704
                                                                        44.5004
        27.5004
 09 10 21 23 59 30.0000000  0  9G02G04G05G10G13G23G29G16G25
    669762.33248    555185.74247
                  20769119.4224                                   20769112.9774
                                                                        52.2504
        42.0004
   8226995.87947   6418028.29345
                  22936133.4384                                   22936129.5664
                                                                        47.0004
        31.7504
 -10229417.06248  -7916226.44546
                  22261271.6484                                   22261267.5044
                                                                        50.7504
        39.0004
  -9413945.02348  -7277522.89846
                  21488049.6024                                   21488045.6134
                                                                        51.2504
        40.0004
   -742595.82048   -540528.56245
                  21424812.1484                                   21424807.5354
                                                                        51.0004
        35.5004
   6763956.27747   5283947.17243
                  23494875.1564                                   23494868.6054
                                                                        43.5004
        22.5004
  -6633124.39548  -5116242.97346
                  22361689.8134                                   22361686.2464
                                                                        48.7504
        37.0004
   7561321.76647   5926210.18043
                  24331190.5164                                   24331185.9414
                                                                        42.0004
        22.0004
  -4235968.41847  -3287126.57444
                  23186209.5474                                   23186205.4734
                                                                        45.5004
        28.5004
