     2.11           OBSERVATION DATA    G (GPS)             RINEX VERSION / TYPE
teqc  2019Feb25                         20221121 12:28:31UTCPGM / RUN BY / DATE
OSX ker:10.11.6|Core i5|gcc 4.3 -m64|OSX ker:10.10+|=+      COMMENT
BIT 2 OF LLI FLAGS DATA COLLECTED UNDER A/S CONDITION       COMMENT
04712921                                                    MARKER NAME
2921                                                        MARKER NUMBER
-Unknown-           -Unknown-                               OBSERVER / AGENCY
0220400471          TRIMBLE R7          2.30                REC # / TYPE / VERS
-Unknown-           TRM39105.00     NONE                    ANT # / TYPE
  1449459.2310 -1709242.5999  5952442.7474                  APPROX POSITION XYZ
        0.0000        0.0000        0.0000                  ANTENNA: DELTA H/E/N
     1     1                                                WAVELENGTH FACT L1/2
    20    L1    L2    L5    L6    L7    L8    C1    P1    C2# / TYPES OF OBSERV
          P2    C5    C6    C7    C8    S1    S2    S5    S6# / TYPES OF OBSERV
          S7    S8                                          # / TYPES OF OBSERV
    30.0000                                                 INTERVAL
    15                                                      LEAP SECONDS
Forced Modulo Decimation to 30 seconds                      COMMENT
 SNR is mapped to RINEX snr flag value [0-9]                COMMENT
  L1 & L2: min(max(int(snr_dBHz/6), 0), 9)                  COMMENT
teqc edited: Beidou # 1 - 37 excluded                       COMMENT
  2009    10    19    23    10   30.0000000     GPS         TIME OF FIRST OBS
                                                            END OF HEADER
 09 10 19 23 10 30.0000000  0  8G02G04G10G13G23G29G30G31
   -161996.36358   -107056.43057
                  20668236.0164                                   20668230.1724
                                                                        51.2504
        43.2504
    -51712.70358    -34683.44156
                  21139826.2114                                   21139822.7424
                                                                        51.5004
        41.0004
   -269063.38756   -176454.79754
                  23585580.3204                                   23585577.1954
                                                                        41.5004
        26.0004
   -185969.04358   -127150.56656
                  21649908.2194                                   21649903.7774
                                                                        50.0004
        36.5004
    -79571.57058    -53313.14855
                  22048015.8594                                   22048009.5314
                                                                        49.0004
        35.2504
   -221578.99257   -133947.41454
                  23850528.5474                                   23850525.1604
                                                                        43.5004
        27.5004
    -40821.55957    -26931.89554
                  23210985.2114                                   23210981.7624
                                                                        44.7504
        28.5004
    -49563.18757    -33358.37154
                  24253124.7194                                   24253120.9304
                                                                        42.2504
        26.5004
 09 10 19 23 11  0.0000000  0  8G02G04G10G13G23G29G30G31
   -290366.00048   -207084.73447
                  20643808.3204                                   20643802.3594
                                                                        51.7504
        42.5004
    -94013.25848    -67644.92246
                  21131777.0554                                   21131773.3984
                                                                        52.2504
        41.0004
   -481648.41847   -342105.45344
                  23545126.9454                                   23545123.1374
                                                                        42.7504
        26.7504
   -333812.47748   -242353.23046
                  21621774.6254                                   21621770.2074
                                                                        50.7504
        36.0004
   -143681.45348   -103268.94545
                  22035816.0634                                   22035809.9454
                                                                        49.5004
        34.0004
   -413579.06647   -283557.85544
                  23813992.3914                                   23813989.1454
                                                                        44.0004
        28.7504
    -74323.43047    -53037.26644
                  23204610.5004                                   23204606.9064
                                                                        45.5004
        29.7504
    -90767.10247    -65465.27744
                  24245283.6094                                   24245280.2034
                                                                        42.2504
        26.5004
 09 10 19 23 11 30.0000000  0  8G02G04G10G13G23G29G30G31
   -418132.03948   -306642.70347
                  20619495.2584                                   20619489.3284
                                                                        51.5004
        42.7504
   -135772.21148   -100184.37946
                  21123830.5164                                   21123826.6844
                                                                        51.2504
        40.0004
   -693971.84047   -507552.27344
                  23504723.3364                                   23504719.3674
                                                                        44.5004
        27.7504
   -480989.00048   -357036.27046
                  21593768.2274                                   21593763.5594
                                                                        51.0004
        36.0004
   -207134.86348   -152713.22345
                  22023741.3914                                   22023735.0594
                                                                        48.0004
        34.5004
   -605205.08647   -432876.90244
                  23777527.0314                                   23777523.8404
                                                                        44.2504
        29.0004
   -107232.93747    -78681.34844
                  23198348.0634                                   23198344.8554
                                                                        46.2504
        29.5004
   -131423.39547    -97145.36344
                  24237546.6484                                   24237543.0704
                                                                        42.5004
        27.2504
 09 10 19 23 12  0.0000000  0  8G02G04G10G13G23G29G30G31
   -544992.38348   -405494.88747
                  20595354.4224                                   20595348.5824
                                                                        51.7504
        43.0004
   -176690.25048   -132068.60546
                  21116043.8674                                   21116040.0394
                                                                        52.2504
        40.5004
   -905730.75447   -672559.24644
                  23464427.1724                                   23464422.8914
                                                                        44.5004
        28.2504
   -627195.55148   -470963.46946
                  21565946.0084                                   21565941.6174
                                                                        50.7504
        36.2504
   -269632.29748   -201412.55545
                  22011848.3754                                   22011842.4224
                                                                        48.7504
        34.7504
   -796153.71947   -581668.12944
                  23741190.6804                                   23741187.6764
                                                                        43.7504
        29.5004
   -139250.96547   -103630.50844
                  23192255.1884                                   23192252.4454
                                                                        45.7504
        28.7504
   -171233.81647   -128166.48444
                  24229971.0314                                   24229968.1054
                                                                        42.2504
        27.0004
 09 10 19 23 12 30.0000000  0  8G02G04G10G13G23G29G30G31
   -670853.69148   -503568.67247
                  20571403.8284                                   20571398.0084
                                                                        51.2504
        43.0004
   -216676.72748   -163226.92646
                  21108434.7664                                   21108431.3404
                                                                        51.0004
        41.0004
  -1116830.73447   -837052.77744
                  23424255.9384                                   23424252.4344
                                                                        44.2504
        28.5004
   -772338.19948   -584061.63346
                  21538326.1094                                   21538321.7664
                                                                        50.0004
        36.0004
   -331082.79748   -249296.09445
                  22000154.6414                                   22000148.6254
                                                                        48.5004
        33.7504
   -986329.91447   -729857.30144
                  23705001.5394                                   23704998.8324
                                                                        43.7504
        28.7504
   -170288.01647   -127815.11744
                  23186348.9144                                   23186345.6374
                                                                        44.5004
        27.7504
   -210107.71946   -158457.78944
                  24222573.8594                                   24222570.4104
                                                                        41.2504
        26.7504
 09 10 19 23 13  0.0000000  0  9G02G04G05G10G13G23G29G30G31
   -795686.96548   -600841.38747
                  20547648.8284                                   20547642.8404
                                                                        51.2504
        43.0004
   -255705.06648   -193638.64846
                  21101008.2504                                   21101004.4344
                                                                        51.5004
        40.7504
   -273465.74657   -172178.03954
                  24302947.5394                                   24302943.5044
                                                                        42.0004
        28.5004
  -1327241.46947  -1001009.24644
                  23384215.5394                                   23384212.6724
                                                                        44.5004
        28.7504
   -916387.44548   -696307.79346
                  21510914.3984                                   21510909.6954
                                                                        50.7504
        36.2504
   -391459.78948   -296343.09045
                  21988665.5234                                   21988658.9144
                                                                        49.2504
        34.2504
  -1175703.56647   -877421.05944
                  23668964.2734                                   23668961.6564
                                                                        44.2504
        29.2504
   -200319.53947   -151216.35544
                  23180633.7114                                   23180630.3714
                                                                        44.5004
        27.7504
   -248019.62946   -187999.56644
                  24215358.8594                                   24215356.1374
                                                                        40.0004
        26.0004
 09 10 19 23 13 30.0000000  0  9G02G04G05G10G13G23G29G30G31
   -919490.82448   -697311.93747
                  20524089.5554                                   20524084.0434
                                                                        52.0004
        43.0004
   -293776.47748   -223304.69946
                  21093763.1564                                   21093759.6024
                                                                        52.5004
        40.5004
   -485314.43747   -337254.86744
                  24262634.1334                                   24262630.2074
                                                                        42.0004
        29.2504
  -1536960.12547  -1164426.34844
                  23344307.7734                                   23344305.2114
                                                                        43.5004
        29.0004
  -1059341.50848   -807700.53946
                  21483711.1484                                   21483706.7584
                                                                        51.0004
        36.2504
   -450764.20748   -342554.32045
                  21977380.2034                                   21977373.7854
                                                                        48.5004
        34.2504
  -1364271.98047  -1024357.47744
                  23633081.2814                                   23633078.1454
                                                                        43.5004
        29.5004
   -229347.56647   -173835.71144
                  23175110.0234                                   23175107.0704
                                                                        44.5004
        27.5004
   -284971.15646   -216793.07444
                  24208327.2274                                   24208324.4804
                                                                        40.7504
        24.7504
 09 10 19 23 14  0.0000000  0  9G02G04G05G10G13G23G29G30G31
  -1042275.15248   -792988.04347
                  20500724.6024                                   20500718.7974
                                                                        51.7504
        42.7504
   -330903.47348   -252234.82046
                  21086698.4454                                   21086694.3244
                                                                        52.2504
        40.5004
   -696569.98846   -501869.50044
                  24222432.6954                                   24222429.5784
                                                                        40.5004
        28.7504
  -1745995.52346  -1327311.09845
                  23304529.2734                                   23304526.9384
                                                                        41.7504
        30.0004
  -1201209.44548   -918246.99246
                  21456714.7734                                   21456710.2344
                                                                        51.0004
        36.0004
   -509008.60248   -387939.56645
                  21966296.5394                                   21966290.5554
                                                                        48.7504
        33.7504
  -1552043.44547  -1170673.09844
                  23597350.1724                                   23597346.3674
                                                                        44.5004
        29.2504
   -257385.06247   -195683.05544
                  23169774.6884                                   23169771.6374
                                                                        42.5004
        27.0004
   -320975.05146   -244848.13344
                  24201476.8754                                   24201473.3014
                                                                        40.5004
        26.0004
 09 10 19 23 14 30.0000000  0  9G02G04G05G10G13G23G29G30G31
  -1164051.15248   -887878.33247
                  20477551.6414                                   20477545.3984
                                                                        52.0004
        42.7504
   -367100.02348   -280439.92646
                  21079810.0864                                   21079806.6024
                                                                        51.5004
        40.5004
   -907243.48447   -666030.59844
                  24182343.6484                                   24182340.1954
                                                                        42.5004
        28.5004
  -1954357.93747  -1489671.38344
                  23264880.0164                                   23264876.7034
                                                                        43.0004
        29.7504
  -1342002.18048  -1027955.64146
                  21429922.6724                                   21429918.4304
                                                                        50.7504
        36.0004
   -566206.63348   -432509.41845
                  21955412.3594                                   21955406.4414
                                                                        49.0004
        34.5004
  -1739027.75847  -1316375.24644
                  23561768.3284                                   23561764.2934
                                                                        44.7504
        29.5004
   -284447.71147   -216770.76244
                  23164624.2034                                   23164621.6294
                                                                        43.0004
        27.0004
   -356046.19146   -272176.38344
                  24194802.9534                                   24194799.6094
                                                                        40.5004
        25.2504
 09 10 19 23 15  0.0000000  0  9G02G04G05G10G13G23G29G30G31
  -1284826.39148   -981988.79347
                  20454568.4774                                   20454562.3674
                                                                        52.2504
        42.7504
   -402376.48448   -307928.10546
                  21073097.4144                                   21073094.0314
                                                                        52.0004
        40.5004
  -1117341.00847   -829742.89144
                  24142363.0314                                   24142359.4144
                                                                        43.0004
        28.0004
  -2162053.61347  -1651512.12944
                  23225356.7814                                   23225353.4614
                                                                        42.7504
        29.5004
  -1481726.65648  -1136831.88746
                  21403334.0164                                   21403329.3954
                                                                        50.7504
        36.0004
   -622368.57048   -476272.05145
                  21944725.0944                                   21944719.1564
                                                                        49.0004
        34.2504
  -1925230.28947  -1461468.03144
                  23526334.5944                                   23526331.3714
                                                                        44.2504
        29.2504
   -310546.46947   -237107.52744
                  23159658.3054                                   23159655.1174
                                                                        44.2504
        27.0004
   -390195.09046   -298786.10944
                  24188304.3444                                   24188301.5274
                                                                        40.7504
        25.5004
 09 10 19 23 15 30.0000000  0  9G02G04G05G10G13G23G29G30G31
  -1404612.80148  -1075328.77047
                  20431773.6954                                   20431767.9804
                                                                        51.7504
        43.0004
   -436747.17648   -334710.47346
                  21066557.0864                                   21066553.5004
                                                                        51.7504
        40.2504
  -1326873.62947   -993014.99244
                  24102490.1954                                   24102486.4454
                                                                        43.2504
        27.2504
  -2369093.53947  -1812841.98044
                  23185958.5314                                   23185954.6024
                                                                        44.2504
        29.5004
  -1620394.34048  -1244884.62946
                  21376946.6334                                   21376941.8714
                                                                        51.0004
        36.0004
   -677508.25848   -519238.06645
                  21934232.2114                                   21934226.0554
                                                                        48.5004
        34.2504
  -2110661.91047  -1605960.03944
                  23491047.7814                                   23491044.2344
                                                                        44.7504
        28.5004
   -335697.02047   -256705.48044
                  23154873.0394                                   23154869.6484
                                                                        44.5004
        27.5004
   -423436.54746   -324688.57443
                  24181978.7194                                   24181975.1134
                                                                        41.2504
        23.7504
 09 10 19 23 16  0.0000000  0  9G02G04G05G10G13G23G29G30G31
  -1523430.41048  -1167913.90647
                  20409163.6024                                   20409157.9654
                                                                        52.0004
        43.2504
   -470234.58648   -360804.58646
                  21060184.3594                                   21060180.8834
                                                                        51.7504
        40.0004
  -1535860.23047  -1155861.66844
                  24062721.1804                                   24062717.6844
                                                                        42.0004
        27.0004
  -2575496.04347  -1973675.09444
                  23146681.2814                                   23146677.6844
                                                                        42.7504
        29.0004
  -1758024.31248  -1352128.73046
                  21350756.3134                                   21350751.8554
                                                                        51.5004
        36.5004
   -731647.85248   -561424.63745
                  21923929.8284                                   21923923.4804
                                                                        49.0004
        34.2504
  -2295341.07847  -1749865.69144
                  23455903.9454                                   23455901.2074
                                                                        44.0004
        29.5004
   -359922.93747   -275582.81644
                  23150262.6884                                   23150259.0784
                                                                        44.0004
        27.2504
   -455793.92247   -349902.10244
                  24175821.5554                                   24175817.7504
                                                                        43.0004
        24.5004
 09 10 19 23 16 30.0000000  0  9G02G04G05G10G13G23G29G30G31
  -1641295.15248  -1259756.56647
                  20386734.5864                                   20386728.9384
                                                                        52.2504
        43.2504
   -502857.50448   -386225.10946
                  21053976.2424                                   21053973.1484
                                                                        51.5004
        40.2504
  -1744315.93447  -1318294.67244
                  24023053.3594                                   24023049.7584
                                                                        42.5004
        28.5004
  -2781276.26647  -2134023.33244
                  23107521.9224                                   23107519.1024
                                                                        42.7504
        28.0004
  -1894632.26248  -1458576.39846
                  21324760.5864                                   21324755.8364
                                                                        51.0004
        36.0004
   -784806.26248   -602846.69545
                  21913813.7274                                   21913807.6644
                                                                        49.0004
        34.2504
  -2479282.51647  -1893196.61345
                  23420901.2814                                   23420898.6134
                                                                        43.2504
        30.5004
   -383243.87147   -293754.93744
                  23145824.8914                                   23145821.1524
                                                                        45.2504
        26.5004
   -487286.32447   -374441.59444
                  24169828.8914                                   24169824.9104
                                                                        42.2504
        24.5004
 09 10 19 23 17  0.0000000  0  9G02G04G05G10G13G23G29G30G31
   -182798.96148   -123265.98847
                  20664277.2584                                   20664271.4224
                                                                        52.0004
        42.5004
   1040787.03948    816614.80946
                  21347722.4224                                   21347719.0234
                                                                        51.0004
        40.0004
   -376828.69147   -252720.16044
                  24283277.6564                                   24283274.4774
                                                                        42.0004
        28.0004
  -1411021.43047  -1066292.21144
                  23368272.5474                                   23368270.4304
                                                                        42.5004
        29.5004
   -454808.98048   -336636.10546
                  21598749.5704                                   21598745.1214
                                                                        51.2504
        36.2504
    738419.81348    584082.77045
                  22203674.0784                                   22203668.0234
                                                                        49.0004
        33.7504
  -1087074.18747   -808358.78945
                  23685830.1094                                   23685827.1214
                                                                        44.2504
        30.5004
   1169741.05947    916363.14544
                  23441347.9454                                   23441344.5824
                                                                        44.7504
        27.5004
   1057488.07447    829278.74244
                  24463789.7034                                   24463785.4264
                                                                        42.5004
        25.0004
 09 10 19 23 17 30.0000000  0  9G02G04G05G10G13G23G29G30G31
   -298807.30148   -213662.11347
                  20642201.4384                                   20642195.7894
                                                                        52.5004
        43.0004
   1009836.45348    792497.44946
                  21341832.8754                                   21341829.1334
                                                                        51.5004
        40.7504
   -584268.75046   -414361.71544
                  24243802.7034                                   24243799.7114
                                                                        40.7504
        29.0004
  -1615601.42647  -1225705.06645
                  23329342.6564                                   23329339.6524
                                                                        43.0004
        30.5004
   -589420.96548   -441528.58646
                  21573134.2114                                   21573129.6684
                                                                        51.5004
        36.5004
    687166.89848    544145.50445
                  22193920.9224                                   22193914.6804
                                                                        48.7504
        33.2504
  -1269584.45747   -950574.55945
                  23651098.8524                                   23651096.5744
                                                                        43.5004
        30.5004
   1148169.96947    899554.61744
                  23437243.4384                                   23437239.9064
                                                                        44.5004
        27.0004
   1027666.80146    806041.41744
                  24458114.6094                                   24458110.8794
                                                                        40.2504
        25.7504
 09 10 19 23 18  0.0000000  0  9G02G04G05G10G13G23G29G30G31
   -413910.46548   -303352.91447
                  20620298.1024                                   20620292.4804
                                                                        52.0004
        43.0004
    979695.16848    769010.75846
                  21336096.9774                                   21336093.4804
                                                                        51.7504
        40.5004
   -791222.81246   -575624.58244
                  24204420.3364                                   24204417.8754
                                                                        40.5004
        29.2504
  -1819602.91447  -1384667.22345
                  23290522.7664                                   23290519.5394
                                                                        45.0004
        31.5004
   -723057.02048   -545660.59046
                  21547703.8364                                   21547699.7304
                                                                        51.2504
        37.0004
    636840.23448    504930.09845
                  22184344.2344                                   22184337.6884
                                                                        49.5004
        33.5004
  -1451399.81247  -1092248.78145
                  23616500.8754                                   23616498.0084
                                                                        43.0004
        30.2504
   1127444.50047    883404.91844
                  23433298.7274                                   23433296.2194
                                                                        44.0004
        26.5004
    998653.05546    783433.28144
                  24452593.2974                                   24452589.7034
                                                                        40.0004
        26.7504
 09 10 19 23 18 30.0000000  0  9G02G04G05G10G13G23G29G30G31
   -528121.45348   -392348.49247
                  20598564.6484                                   20598558.6054
                                                                        51.7504
        42.5004
    950347.44948    746142.36346
                  21330512.3674                                   21330509.1604
                                                                        51.0004
        40.0004
   -997702.41846   -736517.80944
                  24165129.4694                                   24165126.1724
                                                                        41.2504
        29.5004
  -2023037.36347  -1543187.57045
                  23251811.0314                                   23251807.3444
                                                                        45.7504
        32.5004
   -855729.68448   -649041.90646
                  21522457.1414                                   21522452.8674
                                                                        51.7504
        36.0004
    587424.09848    466424.04345
                  22174940.4924                                   22174933.9774
                                                                        49.2504
        34.5004
  -1632531.68447  -1233390.51644
                  23582032.5394                                   23582029.0044
                                                                        44.0004
        29.0004
   1107547.94947    867901.11744
                  23429512.6334                                   23429509.7974
                                                                        44.5004
        28.2504
    970430.79346    761441.79744
                  24447223.2424                                   24447219.5864
                                                                        40.7504
        25.0004
 09 10 19 23 19  0.0000000  0  9G02G04G05G10G13G23G29G30G31
   -641452.46548   -480658.42247
                  20576998.3284                                   20576992.4964
                                                                        52.2504
        43.0004
    921778.82848    723881.11346
                  21325075.8914                                   21325072.1644
                                                                        51.5004
        40.2504
  -1203719.00046   -897050.27745
                  24125925.5084                                   24125922.1294
                                                                        41.7504
        30.5004
  -2225916.02047  -1701274.80545
                  23213203.9774                                   23213200.7424
                                                                        47.0004
        30.7504
   -987450.72748   -751681.71546
                  21497391.5314                                   21497387.1374
                                                                        51.0004
        36.5004
    538903.82048    428616.09445
                  22165707.4144                                   22165700.9654
                                                                        49.0004
        33.7504
  -1812991.19947  -1374008.54345
                  23547692.2194                                   23547689.0314
                                                                        44.5004
        30.0004
   1088464.89147    853031.22744
                  23425881.3594                                   23425878.8364
                                                                        42.5004
        27.5004
    942984.75446    740055.07444
                  24441999.8524                                   24441996.7704
                                                                        40.2504
        24.2504
 09 10 19 23 19 30.0000000  0  9G02G04G05G10G13G23G29G30G31
   -753916.36748   -568292.65247
                  20555597.0004                                   20555591.4104
                                                                        52.5004
        42.7504
    893973.43048    702214.57446
                  21319784.5474                                   21319781.1024
                                                                        51.2504
        40.7504
  -1409283.86747  -1057230.62544
                  24086807.9614                                   24086804.0004
                                                                        42.0004
        29.2504
  -2428250.16047  -1858937.73044
                  23174700.5234                                   23174697.4384
                                                                        45.5004
        28.5004
  -1118232.69148   -853589.73446
                  21472504.3364                                   21472500.2934
                                                                        50.7504
        36.5004
    491263.52348    391493.62945
                  22156641.6094                                   22156635.0514
                                                                        50.2504
        34.0004
  -1992788.44147  -1514110.28145
                  23513478.2194                                   23513474.5744
                                                                        45.0004
        30.0004
   1070179.00047    838782.53544
                  23422401.5474                                   23422399.2584
                                                                        43.2504
        26.5004
    916299.50846    719261.34044
                  24436921.4144                                   24436919.2734
                                                                        40.2504
        25.5004
 09 10 19 23 20  0.0000000  0  9G02G04G05G10G13G23G29G30G31
   -865524.75848   -655260.25447
                  20534358.7664                                   20534353.2194
                                                                        52.7504
        43.2504
    866917.35248    681131.93046
                  21314636.1644                                   21314632.7464
                                                                        51.7504
        40.5004
  -1614407.89546  -1217067.50844
                  24047773.8054                                   24047769.9024
                                                                        41.0004
        28.0004
  -2630050.04747  -2016184.35244
                  23136299.3204                                   23136295.7894
                                                                        45.0004
        29.5004
  -1248086.42248   -954774.47346
                  21447793.9384                                   21447789.6684
                                                                        51.0004
        36.5004
    444489.94548    355046.67245
                  22147741.1484                                   22147734.7464
                                                                        49.2504
        34.0004
  -2171934.57447  -1653704.84844
                  23479388.1804                                   23479384.1524
                                                                        43.7504
        29.5004
   1052674.96547    825143.12144
                  23419070.2894                                   23419068.4064
                                                                        43.0004
        27.7504
    890359.53946    699048.33243
                  24431985.6954                                   24431982.9494
                                                                        40.7504
        22.7504
 09 10 19 23 20 30.0000000  0  9G02G04G05G10G13G23G29G30G31
   -976291.78148   -741572.23047
                  20513280.4454                                   20513274.8984
                                                                        53.0004
        43.2504
    840593.74648    660620.03146
                  21309626.9304                                   21309623.3594
                                                                        51.5004
        40.2504
  -1819104.37146  -1376571.32444
                  24008821.1174                                   24008817.8364
                                                                        41.2504
        28.0004
  -2831328.41047  -2173024.70745
                  23097997.1804                                   23097993.4804
                                                                        45.2504
        30.0004
  -1377025.71948  -1055246.64546
                  21423257.9614                                   21423253.5204
                                                                        51.5004
        36.5004
    398566.37548    319262.09045
                  22139001.8364                                   22138995.6024
                                                                        49.5004
        33.0004
  -2350441.14547  -1792800.86745
                  23445419.3594                                   23445415.8204
                                                                        44.0004
        30.2504
   1035934.85547    812098.93044
                  23415884.8524                                   23415882.6484
                                                                        43.7504
        27.5004
    865147.91846    679402.93444
                  24427188.2114                                   24427186.0274
                                                                        41.2504
        25.2504
 09 10 19 23 21  0.0000000  0  9G02G04G05G10G13G23G29G30G31
  -1086228.28548   -827237.02747
                  20492360.1564                                   20492354.4384
                                                                        52.5004
        42.7504
    814989.57848    640668.74646
                  21304754.4384                                   21304750.9884
                                                                        51.7504
        40.0004
  -2023382.39147  -1535748.99244
                  23969948.5004                                   23969945.1764
                                                                        43.0004
        29.0004
  -3032094.54347  -2329465.81645
                  23059792.6804                                   23059789.5594
                                                                        45.0004
        30.5004
  -1505060.91448  -1155014.33646
                  21398893.3524                                   21398889.0554
                                                                        51.0004
        36.5004
    353479.64548    284129.57845
                  22130422.7894                                   22130416.2114
                                                                        49.5004
        33.5004
  -2528317.42647  -1931405.69945
                  23411570.1414                                   23411567.2274
                                                                        43.5004
        30.5004
   1019944.05547    799638.57044
                  23412842.7114                                   23412839.3674
                                                                        44.0004
        26.5004
    840650.96546    660314.66444
                  24422526.6094                                   24422523.7854
                                                                        41.5004
        25.2504
 09 10 19 23 21 30.0000000  0  9G02G04G05G10G13G23G29G30G31
  -1195341.60548   -912260.37947
                  20471596.6094                                   20471591.2664
                                                                        52.2504
        42.5004
    790094.84448    621270.22346
                  21300016.9924                                   21300013.6884
                                                                        52.0004
        40.0004
  -2227248.30547  -1694605.52045
                  23931154.5784                                   23931151.3714
                                                                        45.2504
        31.5004
  -3232354.62147  -2485512.66045
                  23021684.9844                                   23021681.4184
                                                                        45.2504
        30.0004
  -1632198.60948  -1254082.68045
                  21374699.5394                                   21374695.3674
                                                                        51.2504
        35.5004
    309219.39148    249641.00445
                  22121999.5944                                   22121993.6414
                                                                        49.5004
        33.2504
  -2705569.27347  -2069523.84845
                  23377840.4304                                   23377837.3874
                                                                        42.5004
        31.5004
   1004691.53147    787753.45744
                  23409939.9304                                   23409936.6134
                                                                        45.0004
        26.7504
    816858.19547    641775.22344
                  24417999.1644                                   24417995.5044
                                                                        42.5004
        26.2504
 09 10 19 23 22  0.0000000  0  9G02G04G05G10G13G23G29G30G31
  -1303642.35548   -996650.54747
                  20450987.7584                                   20450981.8284
                                                                        52.5004
        43.2504
    765896.03548    602414.01646
                  21295412.2814                                   21295408.9264
                                                                        52.0004
        39.7504
  -2430711.80147  -1853148.42645
                  23892436.5784                                   23892433.2274
                                                                        44.7504
        31.2504
  -3432117.87147  -2641172.28945
                  22983670.7194                                   22983667.6414
                                                                        44.2504
        31.5004
  -1758449.75048  -1352460.18446
                  21350674.8524                                   21350670.9064
                                                                        50.7504
        36.2504
    265772.09448    215785.85945
                  22113732.1564                                   22113726.1644
                                                                        49.5004
        33.2504
  -2882206.07047  -2207162.77745
                  23344227.6334                                   23344224.3134
                                                                        43.7504
        31.0004
    990162.84847    776432.37944
                  23407175.2664                                   23407171.8404
                                                                        44.0004
        25.5004
    793754.89847    623772.94144
                  24413602.4224                                   24413598.8444
                                                                        43.0004
        27.7504
 09 10 19 23 22 30.0000000  0  9G02G04G05G10G13G23G29G30G31
  -1411140.26648  -1080415.15247
                  20430531.6334                                   20430526.1684
                                                                        51.2504
        42.7504
    742381.44148    584090.96546
                  21290937.5784                                   21290934.1214
                                                                        51.7504
        40.2504
  -2633781.51647  -2011384.55545
                  23853793.6884                                   23853790.2234
                                                                        44.2504
        31.0004
  -3631392.07447  -2796450.85545
                  22945750.5474                                   22945747.3714
                                                                        43.5004
        32.5004
  -1883823.20348  -1450153.79346
                  21326817.3524                                   21326813.2814
                                                                        51.0004
        36.2504
    223126.37148    182555.37145
                  22105616.7814                                   22105611.1374
                                                                        48.7504
        33.0004
  -3058235.55147  -2344328.52045
                  23310730.2974                                   23310727.3204
                                                                        43.7504
        31.7504
    976344.91847    765665.18044
                  23404545.4694                                   23404541.9774
                                                                        43.0004
        26.5004
    771328.26247    606297.69944
                  24409334.7274                                   24409331.0394
                                                                        42.7504
        26.7504
 09 10 19 23 23  0.0000000  0  9G02G04G05G10G13G23G29G30G31
  -1517844.51648  -1163561.30947
                  20410226.5394                                   20410220.7504
                                                                        52.0004
        43.0004
    719538.91048    566291.57846
                  21286591.0234                                   21286587.2274
                                                                        52.5004
        39.5004
  -2836465.14147  -2169319.76645
                  23815224.7274                                   23815221.0204
                                                                        44.5004
        31.0004
  -3830185.78547  -2951355.08645
                  22907921.0944                                   22907918.0984
                                                                        43.7504
        32.7504
  -2008327.92648  -1547170.46146
                  21303125.0864                                   21303120.7274
                                                                        51.2504
        36.7504
    181270.29748    149940.13345
                  22097652.4614                                   22097645.9844
                                                                        48.7504
        32.2504
  -3233665.27747  -2481027.09445
                  23277347.1954                                   23277343.6604
                                                                        44.0004
        30.0004
    963224.64547    755441.59844
                  23402049.3984                                   23402045.4344
                                                                        43.7504
        26.0004
    749566.87147    589340.96943
                  24405193.2504                                   24405189.9964
                                                                        43.0004
        23.7504
 09 10 19 23 23 30.0000000  0  9G02G04G05G10G13G23G29G30G31
  -1623762.02748  -1246094.44147
                  20390070.7274                                   20390065.3674
                                                                        52.7504
        43.0004
    697359.50848    549008.91846
                  21282370.1804                                   21282366.8794
                                                                        51.7504
        39.5004
  -3038768.54347  -2326958.71544
                  23776726.7114                                   23776723.5514
                                                                        43.2504
        28.5004
  -4028503.79747  -3105888.62545
                  22870182.4534                                   22870179.2304
                                                                        44.5004
        31.0004
  -2131969.98848  -1643514.93746
                  21279596.4694                                   21279592.2034
                                                                        50.7504
        36.2504
    140194.56648    117932.89845
                  22089835.8914                                   22089829.7274
                                                                        48.5004
        33.0004
  -3408500.50047  -2617262.39845
                  23244077.0084                                   23244073.4144
                                                                        43.0004
        30.5004
    950791.46547    745753.37544
                  23399682.3524                                   23399679.6024
                                                                        42.5004
        25.2504
    728460.24247    572894.25844
                  24401176.4924                                   24401172.9264
                                                                        42.2504
        25.2504
 09 10 19 23 24  0.0000000  0  9G02G04G05G10G13G23G29G30G31
  -1728902.89848  -1328022.36747
                  20370062.9224                                   20370057.4344
                                                                        52.7504
        43.0004
    675830.11748    532232.71946
                  21278273.5084                                   21278270.5434
                                                                        51.7504
        39.7504
  -3240700.68047  -2484308.44544
                  23738300.7424                                   23738296.7664
                                                                        44.2504
        28.5004
  -4226355.05547  -3260058.40645
                  22832532.6564                                   22832529.2344
                                                                        44.0004
        30.0004
  -2254759.69548  -1739195.23846
                  21256230.8524                                   21256226.1254
                                                                        50.5004
        36.5004
     99886.64148     86524.23845
                  22082165.8364                                   22082159.8134
                                                                        49.2504
        33.7504
  -3582749.19947  -2753040.56644
                  23210919.0634                                   23210915.0434
                                                                        43.5004
        29.7504
    939031.97747    736590.09044
                  23397444.6564                                   23397442.3794
                                                                        42.2504
        25.2504
    707994.95346    556947.28943
                  24397282.5634                                   24397278.3164
                                                                        39.7504
        22.2504
 09 10 19 23 24 30.0000000  0  9G02G04G05G10G13G23G29G30G31
  -1833275.00048  -1409351.33647
                  20350201.9924                                   20350196.3404
                                                                        52.7504
        43.2504
    654941.00448    515955.48446
                  21274298.0784                                   21274294.8364
                                                                        51.5004
        39.5004
  -3442267.52747  -2641373.42244
                  23699943.4924                                   23699939.7664
                                                                        44.0004
        29.5004
  -4423745.27747  -3413868.87545
                  22794970.3754                                   22794967.0274
                                                                        44.5004
        30.5004
  -2376703.87148  -1834216.70746
                  21233025.3674                                   21233020.9344
                                                                        51.5004
        36.5004
     60336.11748     55705.63745
                  22074639.1564                                   22074633.3754
                                                                        48.5004
        33.2504
  -3756417.54747  -2888366.44545
                  23177870.6804                                   23177867.0984
                                                                        44.0004
        30.0004
    927934.43047    727942.56644
                  23395333.0314                                   23395330.2234
                                                                        42.0004
        26.0004
    688160.43046    541491.75843
                  24393508.1644                                   24393504.0984
                                                                        39.5004
        21.7504
 09 10 19 23 25  0.0000000  0  9G02G04G05G10G13G23G29G30G31
  -1936884.55548  -1490086.03547
                  20330485.6884                                   20330479.8914
                                                                        52.2504
        42.7504
    634682.85248    500169.88746
                  21270443.3754                                   21270439.8484
                                                                        51.2504
        39.7504
  -3643474.66447  -2798158.18044
                  23661654.8134                                   23661651.5274
                                                                        43.7504
        29.2504
  -4620680.21947  -3567324.66845
                  22757495.2584                                   22757491.7734
                                                                        44.5004
        31.5004
  -2497808.90248  -1928584.28946
                  21209979.5864                                   21209975.6644
                                                                        50.7504
        36.2504
     21534.13748     25470.37945
                  22067255.0164                                   22067249.2114
                                                                        48.5004
        32.5004
  -3929510.44147  -3023243.98045
                  23144931.9614                                   23144928.8444
                                                                        43.7504
        30.5004
    917488.81347    719803.07444
                  23393346.1414                                   23393343.4224
                                                                        42.5004
        26.0004
    668946.95746    526520.12543
                  24389851.8594                                   24389848.2464
                                                                        37.5004
        20.2504
 09 10 19 23 25 30.0000000  0  9G02G04G05G10G13G23G29G30G31
   -464314.52348   -342628.74647
                  20610706.1414                                   20610700.7274
                                                                        52.2504
        43.5004
   2190467.99648   1712470.05146
                  21566499.3284                                   21566496.0904
                                                                        50.7504
        39.5004
  -2268900.23447  -1727061.14145
                  23923228.3524                                   23923225.0084
                                                                        43.7504
        31.7504
  -3241737.88747  -2492824.09045
                  23019899.0784                                   23019895.4844
                                                                        45.0004
        31.7504
  -1042656.52048   -794699.35946
                  21486886.2114                                   21486881.8754
                                                                        51.0004
        36.7504
   1558892.95348   1223412.31645
                  22359805.2274                                   22359799.6414
                                                                        49.2504
        33.5004
  -2526606.63747  -1930072.09445
                  23411895.7974                                   23411892.3134
                                                                        44.0004
        31.0004
   2483105.57047   1939764.18444
                  23691272.1174                                   23691270.0314
                                                                        42.5004
        27.0004
   2225766.49646   1739626.39543
                  24686104.1884                                   24686100.8014
                                                                        38.5004
        21.7504
 09 10 19 23 26  0.0000000  0  9G02G04G05G10G13G23G29G30G31
   -566417.17648   -422189.25047
                  20591276.8284                                   20591271.1604
                                                                        52.2504
        43.0004
   2171446.96548   1697648.49646
                  21562879.7974                                   21562876.2304
                                                                        50.0004
        39.2504
  -2469401.85547  -1883296.15645
                  23885073.5634                                   23885070.0784
                                                                        44.2504
        31.7504
  -3437775.06247  -2645580.29745
                  22982594.2504                                   22982591.0904
                                                                        44.5004
        32.2504
  -1162100.00848   -887772.33646
                  21464157.0234                                   21464152.8164
                                                                        50.5004
        37.0004
   1521562.09848   1194323.19945
                  22352701.5474                                   22352695.3634
                                                                        49.0004
        33.0004
  -2698561.45347  -2064062.86745
                  23379173.8754                                   23379170.2384
                                                                        44.2504
        31.5004
   2473935.08246   1932618.32844
                  23689527.4924                                   23689524.8984
                                                                        41.7504
        27.7504
   2207769.13346   1725602.52043
                  24682679.6884                                   24682675.9184
                                                                        36.0004
        22.0004
 09 10 19 23 26 30.0000000  0  9G02G04G05G10G13G23G29G30G31
   -667774.18048   -501168.90647
                  20571989.5554                                   20571983.8754
                                                                        52.5004
        43.2504
   2153033.30948   1683300.19146
                  21559375.7114                                   21559372.0514
                                                                        50.7504
        39.2504
  -2669556.55947  -2039260.89145
                  23846985.6484                                   23846982.4454
                                                                        43.0004
        30.0004
  -3633368.53547  -2797990.80945
                  22945373.9844                                   22945371.0704
                                                                        44.7504
        32.5004
  -1280719.53548   -980203.26646
                  21441584.6094                                   21441580.4774
                                                                        51.2504
        36.2504
   1484955.63748   1165798.48845
                  22345736.1024                                   22345729.8754
                                                                        49.0004
        33.0004
  -2869951.64847  -2197613.69545
                  23346559.0634                                   23346555.9734
                                                                        45.0004
        32.5004
   2465389.18047   1925959.17644
                  23687901.1954                                   23687898.9614
                                                                        42.7504
        28.5004
   2190367.22346   1712042.65643
                  24679368.3444                                   24679365.3094
                                                                        39.5004
        22.7504
 09 10 19 23 27  0.0000000  0  9G02G04G05G10G13G23G29G30G31
   -768391.52348   -579571.93447
                  20552842.5554                                   20552836.7544
                                                                        52.5004
        43.5004
   2135217.63348   1669417.82046
                  21555985.6334                                   21555982.6844
                                                                        51.0004
        39.5004
  -2869369.11747  -2194958.93045
                  23808961.9454                                   23808959.0004
                                                                        43.2504
        30.7504
  -3828523.37947  -2950059.41845
                  22908237.1954                                   22908234.0354
                                                                        45.0004
        31.7504
  -1398521.54748  -1071997.14846
                  21419167.6174                                   21419163.4344
                                                                        51.0004
        36.5004
   1449064.77348   1137831.57045
                  22338905.7034                                   22338900.0084
                                                                        49.2504
        33.5004
  -3040782.44947  -2330728.61345
                  23314051.5394                                   23314048.3204
                                                                        45.2504
        32.7504
   2457457.56347   1919778.72744
                  23686392.3204                                   23686389.2424
                                                                        43.0004
        26.2504
   2173550.64847   1698938.76244
                  24676168.0004                                   24676164.5704
                                                                        42.0004
        26.0004
 09 10 19 23 27 30.0000000  0  9G02G04G05G10G13G23G29G30G31
   -868278.77048   -657406.13747
                  20533834.5314                                   20533829.0554
                                                                        52.5004
        42.7504
   2117988.42648   1655992.41446
                  21552706.9694                                   21552703.8134
                                                                        51.2504
        39.5004
  -3068847.64547  -2350396.67245
                  23771002.7424                                   23770999.1844
                                                                        43.5004
        31.2504
  -4023247.20347  -3101792.17645
                  22871182.7894                                   22871179.3484
                                                                        45.7504
        32.7504
  -1515514.54348  -1163160.52046
                  21396904.4064                                   21396900.1254
                                                                        50.5004
        37.2504
   1413877.40248   1110412.89845
                  22332209.7114                                   22332203.7894
                                                                        49.2504
        32.2504
  -3211061.23447  -2463413.48845
                  23281648.1094                                   23281645.1024
                                                                        44.5004
        32.0004
   2450127.28547   1914066.85944
                  23684997.1804                                   23684994.1994
                                                                        42.5004
        27.0004
   2157307.41847   1686281.57444
                  24673077.9614                                   24673074.4534
                                                                        43.0004
        27.2504
 09 10 19 23 28  0.0000000  0  9G02G04G05G10G13G23G29G30G31
   -967437.23448   -734672.49247
                  20514965.3594                                   20514959.7424
                                                                        52.2504
        43.0004
   2101341.86348   1643020.74646
                  21549539.4304                                   21549536.0944
                                                                        50.7504
        39.0004
  -3267992.07847  -2505574.13745
                  23733106.8444                                   23733103.5744
                                                                        44.0004
        30.2504
  -4217539.52747  -3253188.80945
                  22834209.9224                                   22834206.7734
                                                                        45.7504
        31.7504
  -1631698.99248  -1253693.65646
                  21374795.4304                                   21374791.0314
                                                                        51.0004
        37.0004
   1379389.77348   1083539.25445
                  22325646.8674                                   22325641.1994
                                                                        48.2504
        32.7504
  -3380786.91847  -2595667.23045
                  23249350.3284                                   23249347.6334
                                                                        45.7504
        33.2504
   2443393.89546   1908820.12144
                  23683715.4694                                   23683712.2854
                                                                        41.2504
        25.0004
   2141634.45347   1674069.21544
                  24670095.0084                                   24670091.4414
                                                                        43.5004
        28.5004
 09 10 19 23 28 30.0000000  0 10G02G04G05G10G25G13G23G29G30G31
  -1065873.29348   -811375.86347
                  20496233.6954                                   20496227.9414
                                                                        52.0004
        43.5004
   2085269.52048   1630496.82846
                  21546480.8444                                   21546477.6804
                                                                        50.7504
        39.0004
  -3466807.67647  -2660495.44545
                  23695273.2114                                   23695269.8484
                                                                        44.5004
        31.5004
  -4411405.60547  -3404253.27345
                  22797318.3054                                   22797314.8014
                                                                        45.7504
        31.5004
   2922245.09457   2315154.11753
                  24242266.4614                                   24242262.8324
                                                                        42.0004
        22.7504
  -1747082.46948  -1343602.77046
                  21352838.2584                                   21352834.2774
                                                                        51.0004
        37.5004
   1345592.66448   1057203.73045
                  22319215.7584                                   22319209.7384
                                                                        48.7504
        33.0004
  -3549964.82847  -2727494.09845
                  23217157.1724                                   23217153.5744
                                                                        45.2504
        31.2504
   2437246.60946   1904030.07043
                  23682545.8364                                   23682542.6374
                                                                        41.0004
        22.7504
   2126520.41047   1662292.01644
                  24667218.4844                                   24667215.7154
                                                                        44.0004
        27.7504
 09 10 19 23 29  0.0000000  0  9G02G04G05G10G25G13G23G29G30
  -1163594.24648   -887522.12147
                  20477638.2114                                   20477632.2234
                                                                        52.0004
        43.0004
   2069762.48848   1618413.57446
                  21543530.0234                                   21543526.3874
                                                                        51.0004
        39.2504
  -3665299.55147  -2815164.52045
                  23657502.1174                                   23657498.1094
                                                                        45.2504
        31.5004
  -4604849.82047  -3554988.99245
                  22760507.5084                                   22760503.7584
                                                                        46.5004
        32.2504
   2744134.52346   2176365.50843
                  24208374.1334                                   24208371.3444
                                                                        40.7504
        22.0004
  -1861671.20748  -1432892.91846
                  21331033.0554                                   21331028.9304
                                                                        50.2504
        36.7504
   1312477.51248   1031399.66045
                  22312913.9694                                   22312908.4414
                                                                        48.5004
        32.7504
  -3718599.41847  -2858897.55545
                  23185066.4614                                   23185063.3444
                                                                        45.0004
        30.2504
   2431675.41847   1899688.93043
                  23681485.4064                                   23681482.1374
                                                                        43.0004
        22.5004
 09 10 19 23 29 30.0000000  0  9G02G04G05G10G25G13G23G29G30
  -1260607.08248   -963116.57447
                  20459177.0634                                   20459171.1294
                                                                        51.7504
        43.5004
   2054810.15648   1606762.43846
                  21540684.4694                                   21540681.3164
                                                                        50.5004
        39.0004
  -3863474.11347  -2969586.36745
                  23619790.6644                                   23619787.1844
                                                                        45.0004
        32.0004
  -4797878.60547  -3705400.97345
                  22723774.9144                                   22723771.6134
                                                                        46.7504
        31.7504
   2566445.64846   2037907.23043
                  24174560.0004                                   24174557.6094
                                                                        40.5004
        20.5004
  -1975472.29748  -1521569.50446
                  21309377.7114                                   21309373.6804
                                                                        50.7504
        37.2504
   1280033.67248   1006118.53145
                  22306740.4144                                   22306734.8284
                                                                        48.7504
        33.0004
  -3886696.91847  -2989882.56645
                  23153078.7424                                   23153074.8914
                                                                        45.2504
        30.2504
   2426669.25446   1895788.11743
                  23680532.7894                                   23680529.4924
                                                                        41.5004
        23.0004
 09 10 19 23 30  0.0000000  0  9G02G04G05G10G25G13G23G29G30
  -1356912.27348  -1038159.50447
                  20440850.7194                                   20440845.0784
                                                                        51.7504
        43.2504
   2040409.55548   1595541.13746
                  21537944.3364                                   21537941.3914
                                                                        50.0004
        39.2504
  -4061330.04347  -3123759.89145
                  23582139.7424                                   23582136.8874
                                                                        44.7504
        32.2504
  -4990491.00847  -3855488.50845
                  22687121.7424                                   22687118.8794
                                                                        46.0004
        32.2504
   2389176.17646   1899775.19543
                  24140826.6564                                   24140823.8054
                                                                        40.5004
        19.0004
  -2088485.58648  -1609632.22346
                  21287872.2114                                   21287868.6254
                                                                        50.7504
        37.7504
   1248258.95348    981358.98845
                  22300693.9064                                   22300688.3914
                                                                        48.0004
        33.0004
  -4054255.57447  -3120447.77045
                  23121193.2974                                   23121190.2074
                                                                        44.5004
        31.5004
   2422224.02746   1892324.33243
                  23679686.6254                                   23679684.0124
                                                                        40.5004
        23.0004
 09 10 19 23 30 30.0000000  0  9G02G04G05G10G25G13G23G29G30
  -1452505.66848  -1112647.96947
                  20422659.6174                                   20422653.9414
                                                                        53.0004
        43.2504
   2026562.64848   1584750.97346
                  21535309.5944                                   21535306.6804
                                                                        50.5004
        39.0004
  -4258860.56247  -3277679.57845
                  23544550.7034                                   23544548.2154
                                                                        45.0004
        31.7504
  -5182680.35947  -4005246.33645
                  22650549.4384                                   22650546.6844
                                                                        46.0004
        33.0004
   2212334.18846   1761976.33643
                  24107174.5234                                   24107172.0554
                                                                        41.2504
        22.0004
  -2200705.56248  -1697076.41046
                  21266517.5784                                   21266513.8594
                                                                        50.5004
        36.7504
   1217154.76248    957121.93445
                  22294775.0234                                   22294769.3404
                                                                        48.5004
        32.7504
  -4221269.27747  -3250588.49245
                  23089412.0704                                   23089409.0124
                                                                        45.5004
        32.0004
   2418341.01647   1889298.62144
                  23678948.3444                                   23678945.5124
                                                                        42.5004
        25.7504
 09 10 19 23 31  0.0000000  0  9G02G04G05G10G25G13G23G29G30
  -1547389.50048  -1186583.41047
                  20404604.0234                                   20404598.1454
                                                                        52.0004
        43.2504
   2013265.73848   1574389.79746
                  21532779.2734                                   21532776.0824
                                                                        51.0004
        38.5004
  -4456067.66847  -3431347.35945
                  23507023.0944                                   23507020.2974
                                                                        44.5004
        31.5004
  -5374447.39547  -4154675.05545
                  22614057.3444                                   22614053.7934
                                                                        46.5004
        33.0004
   2035919.26246   1624510.33643
                  24073604.3364                                   24073601.5314
                                                                        41.5004
        22.5004
  -2312134.31648  -1783903.63746
                  21245312.9844                                   21245309.4304
                                                                        50.7504
        36.5004
   1186716.20348    933403.53945
                  22288982.9304                                   22288977.0784
                                                                        48.7504
        33.2504
  -4387738.59047  -3380304.98045
                  23057733.6174                                   23057730.9534
                                                                        45.2504
        31.2504
   2415013.93046   1886706.07444
                  23678315.4224                                   23678311.9144
                                                                        41.7504
        26.5004
 09 10 19 23 31 30.0000000  0  9G02G04G05G10G25G13G23G29G30
  -1641568.29348  -1259969.45747
                  20386682.6804                                   20386677.0554
                                                                        52.5004
        43.2504
   2000511.15648   1564451.19546
                  21530352.1724                                   21530349.1564
                                                                        51.0004
        38.7504
  -4652954.85247  -3584765.74245
                  23469557.1644                                   23469553.5634
                                                                        45.5004
        32.5004
  -5565795.93447  -4303777.80145
                  22577645.3834                                   22577641.4774
                                                                        47.5004
        33.5004
   1859929.21947   1487375.51243
                  24040114.2424                                   24040112.1214
                                                                        42.0004
        22.7504
  -2422777.23848  -1870118.59046
                  21224258.3204                                   21224253.9804
                                                                        50.7504
        36.2504
   1156936.25048    910198.39145
                  22283315.8054                                   22283309.9264
                                                                        48.2504
        33.0004
  -4553666.37947  -3509599.47745
                  23026159.4614                                   23026156.1174
                                                                        45.0004
        31.7504
   2412234.42247   1884540.20744
                  23677786.2274                                   23677783.5204
                                                                        43.5004
        27.7504
 09 10 19 23 32  0.0000000  0  9G02G04G05G10G25G13G23G29G30
  -1735048.75848  -1332811.39547
                  20368893.8524                                   20368887.7154
                                                                        51.5004
        43.2504
   1988290.35548   1554928.62146
                  21528026.7584                                   21528022.9924
                                                                        50.5004
        39.0004
  -4849526.45747  -3737938.30145
                  23432150.7664                                   23432147.1884
                                                                        46.0004
        31.5004
  -5756729.86747  -4452557.44945
                  22541311.3754                                   22541308.0554
                                                                        46.7504
        32.5004
   1684359.32847   1350567.86344
                  24006704.4534                                   24006701.7664
                                                                        42.5004
        24.5004
  -2532640.65648  -1955726.28946
                  21203351.3524                                   21203347.8014
                                                                        51.0004
        37.2504
   1127805.59448    887499.19545
                  22277772.6804                                   22277767.1994
                                                                        48.0004
        32.5004
  -4719056.58247  -3638475.00045
                  22994686.5164                                   22994684.0394
                                                                        45.0004
        33.0004
   2409992.50847   1882793.20344
                  23677359.7734                                   23677356.9264
                                                                        43.5004
        26.7504
 09 10 19 23 32 30.0000000  0  9G02G04G05G10G25G13G23G29G30
  -1827836.04748  -1405113.27047
                  20351236.9844                                   20351231.4494
                                                                        51.7504
        42.7504
   1976595.66048   1545815.95746
                  21525800.8984                                   21525797.5784
                                                                        50.5004
        38.7504
  -5045786.14547  -3890867.84845
                  23394803.5394                                   23394799.4454
                                                                        45.2504
        32.0004
  -5947252.80547  -4601016.87145
                  22505055.9454                                   22505052.8284
                                                                        46.7504
        32.0004
   1509207.23447   1214085.82443
                  23973373.8754                                   23973371.6994
                                                                        42.5004
        23.0004
  -2641729.12148  -2040730.25846
                  21182593.1024                                   21182588.9494
                                                                        51.0004
        36.7504
   1099317.09448    865300.38745
                  22272351.5314                                   22272345.8404
                                                                        48.0004
        32.7504
  -4883912.45347  -3766934.15645
                  22963315.1484                                   22963312.5944
                                                                        45.0004
        33.0004
   2408279.53547   1881458.42644
                  23677033.8204                                   23677030.6954
                                                                        44.5004
        27.7504
 09 10 19 23 33  0.0000000  0  9G02G04G05G10G25G13G23G29G30
  -1919934.23448  -1476878.25847
                  20333711.5084                                   20333705.5864
                                                                        52.0004
        42.7504
   1965420.73848   1537108.24646
                  21523674.3674                                   21523671.1804
                                                                        50.5004
        38.0004
  -5241736.21947  -4043556.17245
                  23357515.3284                                   23357511.6254
                                                                        45.0004
        31.5004
  -6137367.08647  -4749157.90645
                  22468878.3524                                   22468874.6884
                                                                        46.2504
        32.2504
   1334471.35946   1077928.14843
                  23940122.8914                                   23940119.7664
                                                                        41.0004
        22.7504
  -2750046.57848  -2125133.48446
                  21161980.6414                                   21161976.7854
                                                                        49.7504
        37.0004
   1071464.29748    843596.89145
                  22267051.2034                                   22267045.3874
                                                                        48.5004
        32.2504
  -5048236.11747  -3894978.57045
                  22932045.6484                                   22932042.9924
                                                                        44.7504
        32.5004
   2407088.34847   1880530.14544
                  23676806.6804                                   23676804.2584
                                                                        43.7504
        25.7504
 09 10 19 23 33 30.0000000  0  9G02G04G05G10G25G13G23G29G30
  -2011345.48448  -1548107.60247
                  20316316.2894                                   20316310.9344
                                                                        51.7504
        43.2504
   1954760.00848   1528801.08246
                  21521646.2344                                   21521642.5394
                                                                        50.7504
        38.5004
  -5437378.47347  -4196004.54345
                  23320285.7894                                   23320282.8014
                                                                        44.5004
        31.7504
  -6327073.96147  -4896981.45745
                  22432778.5704                                   22432774.6604
                                                                        46.2504
        33.0004
   1160150.65246    942093.89543
                  23906950.0234                                   23906947.3404
                                                                        40.7504
        21.5004
  -2857595.77748  -2208938.06246
                  21141514.6024                                   21141510.9224
                                                                        50.5004
        36.7504
   1044241.49248    822384.39845
                  22261871.0704                                   22261865.4224
                                                                        48.0004
        32.0004
  -5212029.09447  -4022609.46145
                  22900876.9384                                   22900874.0744
                                                                        44.7504
        33.0004
   2406411.89847   1880003.00843
                  23676678.0234                                   23676675.1174
                                                                        42.7504
        23.5004
 09 10 19 23 34  0.0000000  0  9G02G04G05G10G25G13G23G29G30
  -2102074.46548  -1618805.56647
                  20299051.3204                                   20299045.6024
                                                                        52.0004
        43.2504
   1944606.40648   1520888.28146
                  21519714.1414                                   21519711.0984
                                                                        50.5004
        38.0004
  -5632714.98047  -4348214.75445
                  23283114.3364                                   23283111.1334
                                                                        44.2504
        31.7504
  -6516374.67647  -5044488.46945
                  22396755.6644                                   22396752.5904
                                                                        47.0004
        34.0004
    986244.36746    806582.67643
                  23873856.8754                                   23873853.9224
                                                                        41.5004
        21.5004
  -2964379.68748  -2292146.33246
                  21121194.4844                                   21121190.6174
                                                                        50.2504
        36.5004
   1017642.82447    801658.16445
                  22256809.0704                                   22256803.6454
                                                                        46.5004
        31.7504
  -5375292.35947  -4149827.57845
                  22869809.0084                                   22869805.6174
                                                                        44.7504
        32.7504
   2406243.46946   1879871.75443
                  23676646.0084                                   23676642.5234
                                                                        41.5004
        21.7504
 09 10 19 23 34 30.0000000  0  9G02G04G05G10G25G13G23G29G30
   -616699.02748   -461370.33647
                  20581708.8754                                   20581703.2894
                                                                        53.0004
        43.0004
   3510379.66048   2740971.11346
                  21817671.0394                                   21817668.1374
                                                                        50.5004
        38.0004
  -4252318.53147  -3272581.09845
                  23545794.8364                                   23545791.9344
                                                                        44.7504
        32.7504
  -5129842.62947  -3964073.82045
                  22660603.8444                                   22660600.5394
                                                                        47.2504
        34.2504
   2388179.22346   1898999.54343
                  24140636.4144                                   24140633.4264
                                                                        41.2504
        22.5004
  -1494975.64848  -1147156.14846
                  21400812.6174                                   21400808.4454
                                                                        49.7504
        36.5004
   2567085.53547   2009016.16045
                  22551658.2114                                   22551652.8054
                                                                        47.2504
        31.7504
  -3962600.73047  -3049028.91845
                  23138635.4924                                   23138631.6724
                                                                        45.0004
        32.2504
   3981998.02347   3107732.42243
                  23976502.2424                                   23976498.2384
                                                                        42.0004
        22.0004
 09 10 19 23 35  0.0000000  0  9G02G04G05G10G25G13G23G29G30
   -706065.37548   -531006.52047
                  20564703.2814                                   20564697.3674
                                                                        52.5004
        43.2504
   3501236.14848   2733846.57846
                  21815931.4224                                   21815928.2384
                                                                        51.0004
        38.5004
  -4447040.80147  -3424312.73445
                  23508740.9844                                   23508737.1954
                                                                        46.0004
        32.7504
  -5318329.10247  -4110946.37545
                  22624736.7274                                   22624733.5354
                                                                        47.2504
        34.7504
   2215105.59047   1764137.12143
                  24107700.8914                                   24107698.7074
                                                                        42.0004
        22.7504
  -1600230.99648  -1229173.19146
                  21380783.2344                                   21380779.0474
                                                                        50.0004
        37.0004
   2541724.52747   1989254.29745
                  22546832.1804                                   22546826.2424
                                                                        47.0004
        31.7504
  -4124802.30947  -3175419.73845
                  23107769.6334                                   23107766.0314
                                                                        44.0004
        32.2504
   3982832.12147   3108382.32444
                  23976661.0234                                   23976658.0124
                                                                        43.5004
        24.0004
 09 10 19 23 35 30.0000000  0  9G02G04G05G10G25G13G23G29G30
   -794761.32048   -600120.46947
                  20547825.1174                                   20547819.3714
                                                                        51.7504
        43.0004
   3492582.07848   2727103.28546
                  21814284.1484                                   21814281.2274
                                                                        50.7504
        37.2504
  -4641464.10947  -3575811.38345
                  23471743.1094                                   23471739.8524
                                                                        46.5004
        33.5004
  -5506416.28548  -4257507.74645
                  22588944.7504                                   22588940.9534
                                                                        48.0004
        33.2504
   2042440.91047   1629593.20743
                  24074844.6024                                   24074841.2774
                                                                        43.0004
        22.7504
  -1704732.64148  -1310603.01646
                  21360897.4144                                   21360893.2974
                                                                        49.7504
        37.0004
   2516968.16847   1969963.62945
                  22542120.9534                                   22542114.9844
                                                                        47.7504
        30.7504
  -4286480.73047  -3301402.85945
                  23077002.6414                                   23076999.7424
                                                                        44.5004
        32.7504
   3984151.96147   3109410.78944
                  23976912.9384                                   23976909.4734
                                                                        45.0004
        24.0004
 09 10 19 23 36  0.0000000  0  9G02G04G05G10G25G13G23G29G30
   -882786.09048   -668711.25047
                  20531074.5474                                   20531069.1844
                                                                        51.5004
        42.7504
   3484416.23048   2720740.58246
                  21812730.1804                                   21812727.1684
                                                                        50.5004
        38.0004
  -4835586.65247  -3727075.72345
                  23434802.8524                                   23434799.3444
                                                                        45.2504
        32.7504
  -5694102.29747  -4403756.55545
                  22553229.2194                                   22553225.1024
                                                                        47.5004
        33.7504
   1870188.37147   1495370.49243
                  24042065.7974                                   24042062.7304
                                                                        42.5004
        22.7504
  -1808480.14848  -1391445.24646
                  21341154.8364                                   21341150.5274
                                                                        49.2504
        37.0004
   2492814.38347   1951142.47745
                  22537524.5084                                   22537518.8284
                                                                        46.7504
        31.2504
  -4447633.93447  -3426976.74645
                  23046336.1884                                   23046332.9694
                                                                        45.0004
        32.7504
   3985953.97347   3110814.99643
                  23977255.4384                                   23977252.1134
                                                                        45.5004
        23.7504
 09 10 19 23 36 30.0000000  0  9G02G04G05G10G25G13G23G29G30
   -970140.50048   -736779.56647
                  20514451.7274                                   20514445.6994
                                                                        52.0004
        43.7504
   3476734.91848   2714755.34046
                  21811268.3054                                   21811265.1914
                                                                        50.2504
        38.5004
  -5029407.60247  -3878104.99645
                  23397920.1644                                   23397916.0394
                                                                        44.5004
        31.7504
  -5881386.04347  -4549691.91845
                  22517589.8204                                   22517586.7194
                                                                        46.5004
        33.0004
   1698349.32046   1361470.00443
                  24009365.8284                                   24009363.0124
                                                                        41.7504
        23.7504
  -1911474.44948  -1471700.55146
                  21321555.6564                                   21321551.5784
                                                                        49.5004
        36.7504
   2469259.54747   1932788.03945
                  22533042.5234                                   22533036.7194
                                                                        47.7504
        31.2504
  -4608260.34847  -3552140.14845
                  23015769.9144                                   23015766.9224
                                                                        44.2504
        33.0004
   3988233.98447   3112591.65244
                  23977689.1644                                   23977686.0044
                                                                        45.0004
        26.2504
 09 10 19 23 37  0.0000000  0  9G02G04G05G10G25G13G23G29G30
  -1056827.11348   -804327.53947
                  20497955.3984                                   20497950.4024
                                                                        52.2504
        42.7504
   3469533.80548   2709144.23846
                  21809897.6174                                   21809894.4884
                                                                        51.0004
        38.0004
  -5222927.39847  -4028899.60945
                  23361093.8444                                   23361090.3164
                                                                        44.5004
        31.0004
  -6068267.74247  -4695314.02345
                  22482027.4304                                   22482024.2894
                                                                        47.5004
        34.0004
   1526923.96547   1227891.87944
                  23976744.9694                                   23976742.0744
                                                                        42.2504
        24.0004
  -2013717.03548  -1551370.09846
                  21302099.5864                                   21302095.8714
                                                                        49.5004
        37.0004
   2446299.30547   1914896.91045
                  22528673.3674                                   22528667.5984
                                                                        47.0004
        31.0004
  -4768360.51247  -3676893.52045
                  22985304.3754                                   22985301.1024
                                                                        44.7504
        33.0004
   3990986.71947   3114736.68844
                  23978212.7734                                   23978209.9304
                                                                        44.0004
        25.5004
 09 10 19 23 37 30.0000000  0  9G02G04G05G10G25G13G23G29G30
  -1142848.29348   -871356.93047
                  20481586.0314                                   20481580.5234
                                                                        52.2504
        43.2504
   3462807.98848   2703903.37946
                  21808617.9774                                   21808614.4534
                                                                        51.0004
        38.0004
  -5416146.82447  -4179460.18745
                  23324325.7034                                   23324321.8874
                                                                        45.5004
        32.0004
  -6254748.21948  -4840623.46145
                  22446541.6254                                   22446537.7774
                                                                        48.5004
        34.0004
   1355912.19547   1094635.94544
                  23944202.5314                                   23944199.0044
                                                                        42.0004
        24.5004
  -2115210.58648  -1630456.02346
                  21282786.0784                                   21282782.2034
                                                                        50.0004
        36.2504
   2423928.37147   1897464.95745
                  22524416.4694                                   22524410.7074
                                                                        47.0004
        31.7504
  -4927935.06647  -3801237.32445
                  22954937.8364                                   22954934.8914
                                                                        45.0004
        34.0004
   3994205.59047   3117244.89844
                  23978825.4924                                   23978822.7624
                                                                        43.5004
        26.2504
 09 10 19 23 38  0.0000000  0  9G02G04G05G10G25G13G23G29G30
  -1228205.85548   -937869.04747
                  20465342.9534                                   20465337.5514
                                                                        52.7504
        43.2504
   3456553.55948   2699029.82046
                  21807427.7974                                   21807424.3014
                                                                        50.7504
        38.0004
  -5609066.28147  -4329787.04345
                  23287614.4144                                   23287610.8794
                                                                        45.7504
        33.5004
  -6440827.48447  -4985620.26645
                  22411131.6564                                   22411128.1564
                                                                        46.7504
        34.5004
   1185314.26646    961702.49243
                  23911738.9454                                   23911735.3014
                                                                        41.2504
        23.5004
  -2215956.62548  -1708959.40246
                  21263614.4694                                   21263610.4534
                                                                        50.5004
        37.2504
   2402142.62548   1880489.07845
                  22520270.3834                                   22520264.8914
                                                                        48.0004
        31.0004
  -5086983.25447  -3925170.98445
                  22924672.0394                                   22924669.1054
                                                                        43.7504
        33.5004
   3997885.84846   3120112.65244
                  23979525.0944                                   23979522.5394
                                                                        41.2504
        24.5004
 09 10 19 23 38 30.0000000  0  9G02G04G05G10G25G13G23G29G30
  -1312904.02748  -1003867.70747
                  20449225.5554                                   20449219.9184
                                                                        52.0004
        43.5004
   3450764.91048   2694519.18846
                  21806325.8444                                   21806322.7424
                                                                        49.7504
        37.7504
  -5801687.46147  -4479881.43445
                  23250960.0554                                   23250956.8524
                                                                        46.2504
        34.5004
  -6626506.84048  -5130305.49245
                  22375798.1564                                   22375795.0474
                                                                        48.0004
        35.0004
   1015129.77346    829091.31343
                  23879354.0164                                   23879350.5314
                                                                        41.2504
        23.5004
  -2315958.44548  -1786882.88746
                  21244585.0944                                   21244580.9534
                                                                        50.5004
        37.0004
   2380936.36347   1863964.73045
                  22516235.5634                                   22516230.0394
                                                                        46.7504
        31.2504
  -5245506.83247  -4048695.83245
                  22894506.1724                                   22894503.0474
                                                                        44.5004
        33.5004
   4002020.11746   3123334.15243
                  23980311.1804                                   23980309.3134
                                                                        39.5004
        22.7504
 09 10 19 23 39  0.0000000  0  9G02G04G05G10G25G13G23G29G30
  -1396943.76648  -1069353.21547
                  20433233.0474                                   20433227.9304
                                                                        52.0004
        43.0004
   3445438.28148   2690368.52046
                  21805312.7734                                   21805309.3954
                                                                        50.2504
        38.0004
  -5994010.07047  -4629743.17245
                  23214361.9144                                   23214358.6024
                                                                        46.2504
        34.2504
  -6811786.43047  -5274679.25845
                  22340540.9304                                   22340537.9104
                                                                        47.2504
        35.5004
    845359.38746    696802.79343
                  23847046.6254                                   23847044.2234
                                                                        40.7504
        22.7504
  -2415217.55948  -1864227.68746
                  21225696.5234                                   21225692.1994
                                                                        49.5004
        37.5004
   2360305.27047   1847888.57445
                  22512309.2194                                   22512303.7384
                                                                        46.2504
        30.5004
  -5403505.63747  -4171811.79345
                  22864439.7734                                   22864437.2034
                                                                        43.2504
        33.5004
   4006603.40246   3126905.50843
                  23981184.4064                                   23981181.1054
                                                                        41.7504
        22.2504
 09 10 19 23 39 30.0000000  0  9G02G04G05G10G25G13G23G29G30
  -1480327.35948  -1134327.53147
                  20417365.7894                                   20417360.3404
                                                                        52.2504
        43.2504
   3440569.65648   2686574.69146
                  21804386.0314                                   21804382.6214
                                                                        49.2504
        36.7504
  -6186034.08247  -4779372.25445
                  23177821.2274                                   23177817.3244
                                                                        46.5004
        33.5004
  -6996665.88347  -5418741.26645
                  22305359.2194                                   22305356.0274
                                                                        46.5004
        35.0004
    676003.47347    564837.26643
                  23814819.7664                                   23814816.9574
                                                                        42.2504
        22.7504
  -2513735.91048  -1940995.25846
                  21206949.2894                                   21206944.6884
                                                                        50.0004
        37.0004
   2340245.17247   1832257.32445
                  22508491.7664                                   22508485.7544
                                                                        46.2504
        30.5004
  -5560978.96547  -4294518.28945
                  22834473.8674                                   22834470.3054
                                                                        44.2504
        33.0004
   4011630.66847   3130822.83643
                  23982141.0704                                   23982137.8244
                                                                        42.5004
        22.7504
 09 10 19 23 40  0.0000000  0  9G02G04G05G10G25G13G23G29G30
  -1563056.05548  -1198791.48847
                  20401623.3364                                   20401617.9224
                                                                        51.7504
        43.0004
   3436155.32448   2683134.94146
                  21803546.2584                                   21803543.0124
                                                                        48.7504
        37.2504
  -6377759.50447  -4928768.68745
                  23141337.1174                                   23141333.4804
                                                                        46.0004
        33.0004
  -7181144.59047  -5562490.91445
                  22270253.7734                                   22270250.8054
                                                                        47.0004
        34.5004
    507063.03147    433195.40644
                  23782671.3914                                   23782668.0944
                                                                        43.2504
        25.5004
  -2611514.69948  -2017186.54346
                  21188342.8594                                   21188338.3984
                                                                        48.7504
        37.0004
   2320752.01647   1817067.86344
                  22504782.2114                                   22504776.9414
                                                                        46.0004
        29.7504
  -5717926.77047  -4416815.25045
                  22804607.6024                                   22804604.2704
                                                                        45.0004
        33.2504
   4017096.67247   3135082.09444
                  23983181.8674                                   23983178.0124
                                                                        43.5004
        24.7504
 09 10 19 23 40 30.0000000  0  9G02G04G05G10G25G13G23G29G30
  -1645131.21548  -1262746.14547
                  20386004.7114                                   20385999.2074
                                                                        51.5004
        43.2504
   3432192.16448   2680046.80946
                  21802791.9614                                   21802788.8134
                                                                        49.5004
        37.5004
  -6569185.67647  -5077931.92645
                  23104909.9454                                   23104906.0234
                                                                        46.5004
        33.5004
  -7365222.16447  -5705927.91845
                  22235225.1724                                   22235221.5234
                                                                        47.2504
        34.2504
    338539.37146    301878.30144
                  23750602.9144                                   23750599.0594
                                                                        41.7504
        25.5004
  -2708555.04348  -2092802.35546
                  21169876.2504                                   21169872.0704
                                                                        49.0004
        36.5004
   2301822.13347   1802317.32445
                  22501180.2504                                   22501174.8054
                                                                        46.2504
        31.0004
  -5874348.26247  -4538702.15645
                  22774842.0084                                   22774838.0004
                                                                        44.0004
        33.2504
   4022997.16847   3139679.89843
                  23984304.8444                                   23984300.5944
                                                                        42.7504
        22.7504
 09 10 19 23 41  0.0000000  0  9G02G04G05G10G25G13G23G29G30
  -1726556.40648  -1326194.34047
                  20370509.8754                                   20370504.3914
                                                                        52.0004
        43.2504
   3428673.73048   2677305.10246
                  21802122.6484                                   21802119.3834
                                                                        50.0004
        37.5004
  -6760314.39547  -5226863.35545
                  23068539.1254                                   23068535.4224
                                                                        47.2504
        32.7504
  -7548900.06247  -5849053.59445
                  22200272.3444                                   22200269.3874
                                                                        46.5004
        34.2504
    170431.31646    170885.04743
                  23718612.3754                                   23718608.9224
                                                                        41.5004
        22.2504
  -2804860.70748  -2167845.64546
                  21151549.9384                                   21151545.8674
                                                                        50.0004
        37.2504
   2283449.65647   1788001.12945
                  22497683.9384                                   22497678.5164
                                                                        46.5004
        31.2504
  -6030244.71547  -4660179.90245
                  22745175.6414                                   22745172.3204
                                                                        44.5004
        32.7504
   4029325.18847   3144610.77743
                  23985508.5634                                   23985505.4304
                                                                        42.5004
        23.5004
 09 10 19 23 41 30.0000000  0  9G02G04G05G10G25G13G23G29G30
  -1807331.83248  -1389136.17247
                  20355138.9304                                   20355133.7274
                                                                        51.5004
        42.7504
   3425598.24648   2674908.53546
                  21801537.1954                                   21801533.8954
                                                                        48.5004
        37.2504
  -6951144.05947  -5375561.87545
                  23032225.3444                                   23032221.5554
                                                                        46.0004
        33.0004
  -7732176.03147  -5991866.02745
                  22165396.3054                                   22165393.2704
                                                                        46.0004
        34.7504
      2741.13746     40217.30943
                  23686701.7034                                   23686698.7974
                                                                        40.5004
        22.7504
  -2900431.58648  -2242316.37546
                  21133363.3284                                   21133359.3204
                                                                        48.5004
        37.5004
   2265631.94147   1774117.16444
                  22494293.7424                                   22494287.6804
                                                                        47.0004
        29.7504
  -6185614.17247  -4781247.04345
                  22715609.4144                                   22715606.4694
                                                                        44.2504
        32.7504
   4036077.03546   3149871.83643
                  23986793.2734                                   23986790.5944
                                                                        40.7504
        23.0004
 09 10 19 23 42  0.0000000  0  9G02G04G05G10G25G13G23G29G30
  -1887458.12548  -1451572.19147
                  20339891.4534                                   20339885.7664
                                                                        51.5004
        42.5004
   3422962.82848   2672854.86746
                  21801035.8054                                   21801032.7464
                                                                        49.7504
        37.5004
  -7141673.41047  -5524026.28145
                  22995969.4694                                   22995965.4224
                                                                        47.5004
        34.2504
  -7915049.53548  -6134364.85945
                  22130596.9694                                   22130593.5904
                                                                        48.0004
        35.0004
   -164529.18046    -90123.19143
                  23654871.3204                                   23654868.1294
                                                                        40.0004
        23.0004
  -2995268.37548  -2316215.14146
                  21115316.5784                                   21115312.2584
                                                                        49.7504
        37.2504
   2248366.13747   1760663.28145
                  22491007.8524                                   22491002.3204
                                                                        47.0004
        31.0004
  -6340455.35947  -4901902.51645
                  22686144.0164                                   22686141.2424
                                                                        45.0004
        33.0004
   4043248.85246   3155460.14543
                  23988157.7974                                   23988155.6564
                                                                        39.5004
        23.5004
 09 10 19 23 42 30.0000000  0  9G02G04G05G10G25G13G23G29G30
  -1966937.57048  -1513504.15247
                  20324767.2114                                   20324761.6844
                                                                        51.7504
        43.5004
   3420763.37548   2671140.99246
                  21800617.1484                                   21800613.7074
                                                                        48.5004
        37.0004
  -7331902.68447  -5672256.89545
                  22959769.6414                                   22959766.1294
                                                                        47.7504
        34.0004
  -8097520.39847  -6276550.07845
                  22095874.2034                                   22095870.3914
                                                                        47.5004
        35.2504
   -331379.21546   -220136.15644
                  23623120.9384                                   23623118.0044
                                                                        39.5004
        24.5004
  -3089373.23448  -2389543.60246
                  21097409.0704                                   21097404.7274
                                                                        49.5004
        37.0004
   2231647.20747   1747635.55545
                  22487826.5784                                   22487820.5434
                                                                        47.0004
        30.7504
  -6494768.39547  -5022146.51645
                  22656779.6564                                   22656776.8324
                                                                        45.0004
        33.7504
   4050835.25446   3161371.50443
                  23989601.0554                                   23989599.2854
                                                                        40.2504
        23.5004
 09 10 19 23 43  0.0000000  0  9G02G04G05G10G25G13G23G29G30
  -2045771.74648  -1574933.46947
                  20309765.4384                                   20309759.7664
                                                                        52.0004
        42.7504
   3418996.56348   2669764.22346
                  21800281.1954                                   21800278.0204
                                                                        49.0004
        37.5004
  -7521831.13747  -5820253.12545
                  22923627.3594                                   22923624.1334
                                                                        47.0004
        34.2504
  -8279587.44947  -6418420.50445
                  22061227.1484                                   22061224.5664
                                                                        47.5004
        34.7504
   -497807.41446   -349820.39144
                  23591451.6174                                   23591447.6724
                                                                        40.7504
        25.2504
  -3182746.88748  -2462302.30546
                  21079640.3444                                   21079636.1214
                                                                        50.0004
        37.0004
   2215471.84047   1735031.37545
                  22484748.6174                                   22484742.5784
                                                                        46.5004
        31.7504
  -6648552.41447  -5141978.33645
                  22627515.6724                                   22627512.8444
                                                                        45.2504
        34.0004
   4058831.79747   3167602.51244
                  23991123.5704                                   23991120.8364
                                                                        43.0004
        25.0004
 09 10 19 23 43 30.0000000  0  9G02G04G05G10G25G13G23G29G30
   -548539.44948   -408258.98047
                  20594679.3364                                   20594673.9264
                                                                        51.0004
        43.0004
   4993078.07048   3896321.18046
                  22099818.9224                                   22099815.9734
                                                                        49.7504
        36.7504
  -6136032.62547  -4740410.14145
                  23187336.2504                                   23187332.2934
                                                                        47.5004
        34.0004
  -6885824.94147  -5332371.79345
                  22326451.9454                                   22326448.4734
                                                                        47.0004
        35.5004
    911611.80546    748428.39544
                  23859654.3674                                   23859651.2584
                                                                        40.0004
        24.0004
  -1699968.62548  -1306890.70746
                  21361803.8284                                   21361800.1954
                                                                        49.7504
        37.2504
   3775256.03947   2950447.66445
                  22781565.2584                                   22781559.5984
                                                                        46.2504
        30.5004
  -5226381.75847  -4033793.48045
                  22898145.9144                                   22898142.8954
                                                                        45.0004
        34.0004
   5642652.73446   4401748.60244
                  24292514.7734                                   24292512.3134
                                                                        41.5004
        25.2504
 09 10 19 23 44  0.0000000  0  9G02G04G05G10G25G13G23G29G30
   -626088.46148   -468686.82847
                  20579922.0314                                   20579916.5234
                                                                        52.0004
        42.7504
   4992164.11348   3895609.00446
                  22099644.8284                                   22099641.5984
                                                                        50.7504
        37.5004
  -6325359.73447  -4887937.60545
                  23151308.1024                                   23151304.6804
                                                                        46.5004
        34.5004
  -7067085.28147  -5473613.77045
                  22291958.8914                                   22291956.0904
                                                                        47.5004
        35.5004
    746028.14546    619402.19144
                  23828145.3284                                   23828141.7624
                                                                        40.7504
        27.2504
  -1791886.46548  -1378515.05146
                  21344312.4614                                   21344308.5084
                                                                        49.5004
        36.7504
   3760154.41447   2938680.18045
                  22778691.7504                                   22778685.6454
                                                                        46.5004
        30.7504
  -5379106.95347  -4152800.13745
                  22869083.2344                                   22869080.0164
                                                                        44.5004
        34.7504
   5651453.18447   4408606.03143
                  24294189.9694                                   24294186.9734
                                                                        43.5004
        22.2504
 09 10 19 23 44 30.0000000  0  9G02G04G05G10G25G13G23G29G30
   -702997.90248   -528616.31647
                  20565286.7274                                   20565281.8674
                                                                        52.0004
        42.5004
   4991670.52748   3895224.35546
                  22099551.0474                                   22099548.2234
                                                                        50.5004
        36.5004
  -6514386.39547  -5035231.01245
                  23115337.5234                                   23115334.3444
                                                                        47.7504
        34.2504
  -7247941.74248  -5614540.93045
                  22257543.3754                                   22257539.9144
                                                                        48.5004
        35.5004
    580867.69947    490705.79344
                  23796716.0394                                   23796712.5434
                                                                        42.5004
        25.7504
  -1883079.41848  -1449574.56646
                  21326959.3444                                   21326955.1564
                                                                        50.2504
        37.5004
   3745582.98847   2927325.82445
                  22775918.8284                                   22775913.4494
                                                                        46.5004
        30.5004
  -5531302.91447  -4271394.43445
                  22840121.2274                                   22840118.3594
                                                                        45.5004
        34.2504
   5660647.77747   4415770.62543
                  24295938.8984                                   24295936.2934
                                                                        43.0004
        22.7504
 09 10 19 23 45  0.0000000  0  8G02G04G05G10G25G13G23G29
   -779269.59048   -588048.86347
                  20550773.0084                                   20550767.2544
                                                                        51.5004
        42.5004
   4991593.59448   3895164.43846
                  22099536.1094                                   22099533.3324
                                                                        49.2504
        36.7504
  -6703112.40247  -5182290.20345
                  23079424.4774                                   23079420.5204
                                                                        47.7504
        34.2504
  -7428393.79748  -5755152.90245
                  22223204.2034                                   22223201.1454
                                                                        48.5004
        35.5004
    416131.18047    362339.60244
                  23765367.1334                                   23765364.4344
                                                                        43.0004
        26.2504
  -1973548.64548  -1520070.09046
                  21309743.5314                                   21309739.2704
                                                                        50.0004
        37.0004
   3731538.37947   2916381.96545
                  22773245.8914                                   22773240.4534
                                                                        45.7504
        31.2504
  -5682968.89847  -4389575.77745
                  22811260.1414                                   22811256.9804
                                                                        44.5004
        34.5004
 09 10 19 23 45 30.0000000  0  8G02G04G05G10G25G13G23G29
   -854904.83648   -646985.41447
                  20536379.8754                                   20536374.3444
                                                                        51.7504
        43.0004
   4991930.02048   3895426.67246
                  22099599.9924                                   22099597.0044
                                                                        49.5004
        37.0004
  -6891537.38748  -5329114.87545
                  23043568.6564                                   23043564.3204
                                                                        48.0004
        34.2504
  -7608440.81648  -5895449.23445
                  22188942.7894                                   22188939.3794
                                                                        48.5004
        35.5004
    251820.11747    234305.07044
                  23734099.9304                                   23734096.4184
                                                                        43.0004
        25.7504
  -2063296.15648  -1590003.25446
                  21292664.8754                                   21292660.9344
                                                                        49.7504
        37.0004
   3718016.36747   2905845.32045
                  22770673.0314                                   22770667.3834
                                                                        46.5004
        30.7504
  -5834104.25047  -4507343.60245
                  22782500.5474                                   22782497.0664
                                                                        45.0004
        33.5004
 09 10 19 23 46  0.0000000  0  8G02G04G05G10G25G13G23G29
   -929902.13348   -705424.77747
                  20522108.2034                                   20522102.7664
                                                                        52.0004
        44.0004
   4992679.32448   3896010.57446
                  22099742.5554                                   22099739.6604
                                                                        49.5004
        37.5004
  -7079657.23048  -5475701.75445
                  23007770.4454                                   23007766.5354
                                                                        48.0004
        34.7504
  -7788079.23447  -6035427.12945
                  22154758.4224                                   22154755.2894
                                                                        47.5004
        35.0004
     87938.77747    106605.44543
                  23702914.3984                                   23702911.0554
                                                                        42.0004
        23.7504
  -2152319.93048  -1659372.45746
                  21275724.4774                                   21275720.2814
                                                                        50.2504
        37.2504
   3705016.15647   2895715.33244
                  22768199.3754                                   22768193.6764
                                                                        46.2504
        29.7504
  -5984705.03547  -4624694.83245
                  22753841.6564                                   22753838.7234
                                                                        45.5004
        34.0004
 09 10 19 23 46 30.0000000  0  8G02G04G05G10G25G13G23G29
  -1004259.75848   -763365.64847
                  20507958.3054                                   20507952.8014
                                                                        51.2504
        42.5004
   4993841.07448   3896915.86746
                  22099963.7274                                   22099961.0904
                                                                        49.5004
        37.0004
  -7267468.31648  -5622048.02345
                  22972030.8754                                   22972027.3054
                                                                        48.2504
        34.0004
  -7967305.50047  -6175083.89145
                  22120653.2114                                   22120649.6134
                                                                        47.7504
        35.0004
    -75509.11746    -20756.51043
                  23671811.1334                                   23671807.5554
                                                                        41.7504
        22.0004
  -2240618.69948  -1728176.74246
                  21258921.4694                                   21258917.5234
                                                                        50.0004
        37.2504
   3692537.01247   2885991.30544
                  22765824.7584                                   22765818.5354
                                                                        45.0004
        29.2504
  -6134767.70747  -4741626.82445
                  22725285.4614                                   22725282.0514
                                                                        46.0004
        34.0004
 09 10 19 23 47  0.0000000  0  8G02G04G05G10G25G13G23G29
  -1077980.98448   -820810.72347
                  20493929.9614                                   20493924.1644
                                                                        52.2504
        43.0004
   4995410.58248   3898138.87146
                  22100262.7974                                   22100259.4924
                                                                        49.0004
        36.7504
  -7454972.00847  -5768154.79745
                  22936349.6564                                   22936346.8204
                                                                        47.7504
        33.7504
  -8146120.38747  -6314420.08646
                  22086624.9304                                   22086621.8634
                                                                        47.0004
        36.0004
   -238523.52746   -147780.73843
                  23640790.8524                                   23640787.1564
                                                                        41.0004
        22.5004
  -2328195.11348  -1796418.18046
                  21242256.5164                                   21242252.5784
                                                                        49.0004
        37.2504
   3680573.75447   2876669.26645
                  22763548.3594                                   22763542.2704
                                                                        46.5004
        30.2504
  -6284292.53147  -4858139.38745
                  22696831.7504                                   22696828.3794
                                                                        45.5004
        33.5004
 09 10 19 23 47 30.0000000  0  8G02G04G05G10G25G13G23G29
  -1151070.20748   -877763.35247
                  20480021.3674                                   20480015.8484
                                                                        52.0004
        42.5004
   4997381.17248   3899674.40246
                  22100637.4774                                   22100633.8674
                                                                        49.0004
        36.5004
  -7642169.98847  -5914023.34445
                  22900727.5084                                   22900724.1914
                                                                        47.7504
        34.7504
  -8324525.97748  -6453437.38346
                  22052676.0474                                   22052672.3794
                                                                        48.5004
        36.0004
   -401106.42647   -274468.76244
                  23609852.5704                                   23609848.9414
                                                                        44.0004
        24.0004
  -2415053.46948  -1864100.00446
                  21225727.8914                                   21225723.8054
                                                                        49.5004
        36.5004
   3669119.87947   2867744.14845
                  22761368.6954                                   22761362.2424
                                                                        46.0004
        30.0004
  -6433282.36747  -4974235.24645
                  22668479.8054                                   22668476.5204
                                                                        45.7504
        34.5004
 09 10 19 23 48  0.0000000  0  8G02G04G05G10G25G13G23G29
  -1223531.47348   -934226.69547
                  20466232.5004                                   20466226.8324
                                                                        52.0004
        43.0004
   4999746.93848   3901517.84446
                  22101087.8914                                   22101084.2624
                                                                        48.7504
        36.2504
  -7829064.87548  -6059655.73845
                  22865163.0234                                   22865159.3594
                                                                        48.0004
        35.2504
  -8502524.36348  -6592137.42646
                  22018804.0704                                   22018800.5824
                                                                        48.0004
        36.0004
   -563259.05547   -400821.50044
                  23578995.7424                                   23578992.7034
                                                                        43.5004
        26.7504
  -2501198.05948  -1931225.69146
                  21209334.9614                                   21209331.1454
                                                                        49.5004
        37.7504
   3658169.10547   2859211.13345
                  22759284.4774                                   22759278.7774
                                                                        46.0004
        30.2504
  -6581739.23447  -5089915.96945
                  22640229.5634                                   22640226.6174
                                                                        46.0004
        34.0004
 09 10 19 23 48 30.0000000  0  8G02G04G05G10G25G13G23G29
  -1295368.41848   -990203.51247
                  20452562.0634                                   20452556.5204
                                                                        52.0004
        42.7504
   5002502.13348   3903664.68445
                  22101612.1884                                   22101609.1454
                                                                        48.7504
        35.5004
  -8015658.01248  -6205053.02745
                  22829654.9774                                   22829651.2344
                                                                        48.0004
        35.7504
  -8680116.56247  -6730520.89546
                  21985009.3754                                   21985005.6454
                                                                        47.7504
        36.0004
   -724982.68047   -526840.00444
                  23548221.4844                                   23548217.4104
                                                                        44.2504
        27.5004
  -2586632.80548  -1997798.19546
                  21193077.5634                                   21193073.2774
                                                                        49.7504
        37.0004
   3647714.98447   2851065.05544
                  22757295.3914                                   22757289.4454
                                                                        44.7504
        29.0004
  -6729664.67247  -5205182.67645
                  22612080.3054                                   22612077.0594
                                                                        45.5004
        34.0004
 09 10 19 23 49  0.0000000  0  8G02G04G05G10G25G13G23G29
  -1366581.77048  -1045694.41847
                  20439010.6024                                   20439005.1414
                                                                        52.2504
        43.0004
   5005644.30148   3906113.07046
                  22102210.5084                                   22102207.0664
                                                                        48.5004
        36.2504
  -8201947.91048  -6350213.97745
                  22794205.5004                                   22794201.9264
                                                                        48.2504
        35.2504
  -8857301.07447  -6868586.74646
                  21951292.3834                                   21951288.4804
                                                                        47.0004
        36.2504
   -886274.96547   -652522.28144
                  23517527.2274                                   23517524.7384
                                                                        44.7504
        27.0004
  -2671358.07848  -2063817.92646
                  21176954.6174                                   21176950.6764
                                                                        49.0004
        37.0004
   3637754.84847   2843303.89144
                  22755399.5864                                   22755393.9344
                                                                        44.2504
        29.0004
  -6877055.66447  -5320032.42645
                  22584032.4694                                   22584029.6294
                                                                        47.2504
        34.0004
 09 10 19 23 49 30.0000000  0  8G02G04G05G10G25G13G23G29
  -1437177.91048  -1100704.41047
                  20425576.7734                                   20425571.2114
                                                                        51.7504
        42.5004
   5009165.43048   3908856.80945
                  22102880.0944                                   22102877.1214
                                                                        48.7504
        35.5004
  -8387938.96147  -6495142.07445
                  22758812.3204                                   22758808.9064
                                                                        47.7504
        35.7504
  -9034082.58648  -7006338.52746
                  21917651.9534                                   21917648.6414
                                                                        48.0004
        36.5004
  -1047139.75847   -777871.45344
                  23486916.4614                                   23486913.3714
                                                                        43.5004
        26.5004
  -2755380.25048  -2129289.76246
                  21160966.0164                                   21160961.5594
                                                                        48.7504
        37.0004
   3628279.87147   2835920.79344
                  22753597.1024                                   22753590.9384
                                                                        45.2504
        28.0004
  -7023918.36747  -5434470.85945
                  22556085.7504                                   22556082.6844
                                                                        47.2504
        34.7504
 09 10 19 23 50  0.0000000  0  8G02G04G05G10G25G13G23G29
  -1507159.32048  -1155235.35947
                  20412259.4844                                   20412253.9694
                                                                        52.2504
        42.5004
   5013060.92248   3911892.25046
                  22103621.4774                                   22103618.3794
                                                                        49.0004
        36.0004
  -8573631.49247  -6639837.55545
                  22723476.1414                                   22723472.6764
                                                                        46.7504
        35.5004
  -9210461.04748  -7143776.29346
                  21884087.8594                                   21884084.3754
                                                                        48.2504
        36.5004
  -1207576.77747   -902887.23444
                  23456386.2034                                   23456382.3134
                                                                        43.0004
        27.2504
  -2838702.17248  -2194215.92246
                  21145110.2424                                   21145106.0354
                                                                        49.5004
        37.0004
   3619285.25047   2828912.02044
                  22751884.7194                                   22751879.1524
                                                                        44.7504
        28.7504
  -7170252.32447  -5548497.32445
                  22528239.1804                                   22528236.0704
                                                                        47.7504
        34.2504
 09 10 19 23 50 30.0000000  0  8G02G04G05G10G25G13G23G29
  -1576527.71948  -1209288.66847
                  20399059.5084                                   20399053.6414
                                                                        52.5004
        42.5004
   5017327.68048   3915217.01246
                  22104433.6254                                   22104430.7154
                                                                        49.2504
        36.0004
  -8759024.72747  -6784299.80945
                  22688196.9694                                   22688193.7344
                                                                        46.5004
        35.2504
  -9386435.56648  -7280899.25046
                  21850601.0004                                   21850597.7194
                                                                        48.7504
        36.5004
  -1367584.84447  -1027568.84844
                  23425937.8984                                   23425934.1684
                                                                        42.5004
        25.7504
  -2921325.10948  -2258597.48846
                  21129387.6724                                   21129383.6484
                                                                        49.2504
        36.7504
   3610767.81347   2822275.03544
                  22750264.7734                                   22750258.5744
                                                                        46.2504
        29.5004
  -7316056.25448  -5662110.76245
                  22500493.1024                                   22500489.7424
                                                                        48.0004
        34.7504
 09 10 19 23 51  0.0000000  0  8G02G04G05G10G25G13G23G29
  -1645281.56648  -1262863.09447
                  20385975.7194                                   20385970.5164
                                                                        51.7504
        42.5004
   5021965.11748   3918830.63346
                  22105315.8204                                   22105312.9574
                                                                        49.0004
        36.5004
  -8944114.94147  -6928525.89546
                  22652975.8134                                   22652972.0704
                                                                        46.7504
        36.2504
  -9562002.59848  -7417704.64846
                  21817192.2894                                   21817188.0274
                                                                        48.7504
        36.2504
  -1527159.77347  -1151912.85944
                  23395571.5474                                   23395568.3484
                                                                        42.0004
        26.2504
  -3003247.69948  -2322433.26246
                  21113798.5704                                   21113794.5984
                                                                        49.5004
        37.2504
   3602726.58647   2816009.13744
                  22748734.1804                                   22748728.5124
                                                                        46.5004
        29.7504
  -7461327.11747  -5775308.78545
                  22472849.4304                                   22472846.2774
                                                                        47.2504
        35.0004
 09 10 19 23 51 30.0000000  0  8G02G04G05G10G25G13G23G29
  -1713422.49648  -1315959.96147
                  20373009.0784                                   20373003.4574
                                                                        52.2504
        42.2504
   5026969.25848   3922729.89846
                  22106267.8134                                   22106264.7384
                                                                        50.0004
        36.0004
  -9128902.19947  -7072515.96546
                  22617811.9384                                   22617808.5944
                                                                        46.7504
        36.5004
  -9737161.89548  -7554192.38746
                  21783860.3984                                   21783856.6024
                                                                        49.0004
        36.7504
  -1686300.90646  -1275918.85544
                  23365288.0084                                   23365284.2664
                                                                        41.7504
        24.0004
  -3084471.89848  -2385724.80946
                  21098341.6644                                   21098337.5904
                                                                        49.7504
        36.2504
   3595157.11347   2810110.85244
                  22747294.0864                                   22747288.2274
                                                                        46.2504
        29.5004
  -7606064.64847  -5888091.28545
                  22445306.4694                                   22445303.8134
                                                                        47.0004
        34.5004
 09 10 19 23 52  0.0000000  0  8G02G04G05G10G25G13G23G29
  -1780954.59048  -1368582.35247
                  20360158.2194                                   20360152.4064
                                                                        52.0004
        43.2504
   5032334.64848   3926910.70345
                  22107289.2114                                   22107286.1684
                                                                        49.7504
        35.5004
  -9313387.92247  -7216271.03946
                  22582705.6954                                   22582701.8244
                                                                        47.5004
        36.5004
  -9911914.64148  -7690363.36346
                  21750605.6724                                   21750602.1914
                                                                        49.2504
        36.5004
  -1845009.68747  -1399588.10543
                  23335086.2974                                   23335082.6724
                                                                        42.0004
        23.5004
  -3165001.77748  -2448475.39146
                  21083017.7504                                   21083013.4224
                                                                        50.5004
        36.7504
   3588053.55947   2804575.64144
                  22745941.9694                                   22745936.7664
                                                                        45.7504
        29.0004
  -7750270.14547  -6000459.15245
                  22417865.4694                                   22417862.0434
                                                                        46.5004
        35.0004
 09 10 19 23 52 30.0000000  0  8G02G04G05G10G25G13G23G29
   -272455.18448   -193128.24647
                  20647216.0084                                   20647210.5044
                                                                        52.0004
        42.7504
   6613480.01248   5158972.04745
                  22408171.2034                                   22408167.9534
                                                                        49.5004
        35.5004
  -7922143.14147  -6132184.16446
                  22847450.2734                                   22847446.9104
                                                                        47.5004
        36.5004
  -8510832.50848  -6598611.07846
                  22017222.7894                                   22017219.8014
                                                                        49.0004
        36.2504
   -427857.21146   -295313.48044
                  23604762.0944                                   23604758.0864
                                                                        41.5004
        24.7504
  -1669414.34448  -1283082.56646
                  21367618.3364                                   21367614.2894
                                                                        51.0004
        37.0004
   5156834.41847   4027002.23044
                  23044471.4614                                   23044465.1174
                                                                        45.2504
        28.5004
  -6318516.02347  -4884806.47745
                  22690318.5944                                   22690315.7304
                                                                        47.2504
        34.5004
 09 10 19 23 53  0.0000000  0  8G02G04G05G10G25G13G23G29
   -338770.18748   -244802.14847
                  20634596.7504                                   20634590.7384
                                                                        51.5004
        43.0004
   6619561.94148   5163711.07845
                  22409328.3834                                   22409325.7234
                                                                        49.5004
        35.2504
  -8106019.43047  -6275464.38346
                  22812459.8914                                   22812456.1054
                                                                        46.5004
        36.0004
  -8684766.12148  -6734143.73446
                  21984123.9614                                   21984120.7074
                                                                        48.7504
        37.0004
   -585692.50047   -418301.85544
                  23574726.9694                                   23574722.7504
                                                                        43.0004
        26.5004
  -1748556.68448  -1344751.96546
                  21352557.8364                                   21352553.8554
                                                                        51.2504
        36.7504
   5150655.53947   4022187.55544
                  23043295.4384                                   23043289.3984
                                                                        45.7504
        27.5004
  -6461651.05147  -4996340.20745
                  22663081.0784                                   22663077.9964
                                                                        47.5004
        35.0004
 09 10 19 23 53 30.0000000  0  8G02G04G05G10G25G13G23G29
   -404479.23048   -296004.01647
                  20622092.9844                                   20622087.1764
                                                                        52.0004
        42.5004
   6625996.85948   5168724.96945
                  22410553.4454                                   22410550.4384
                                                                        49.7504
        35.5004
  -8289590.13747  -6418506.53945
                  22777527.7734                                   22777523.8364
                                                                        46.7504
        35.5004
  -8858288.67648  -6869356.11346
                  21951104.1724                                   21951100.6094
                                                                        49.7504
        37.0004
   -743089.60947   -540948.93044
                  23544774.8444                                   23544771.6214
                                                                        42.5004
        26.5004
  -1827007.14848  -1405882.21546
                  21337629.4844                                   21337625.3874
                                                                        51.5004
        37.0004
   5144933.48047   4017728.79744
                  23042206.3204                                   23042200.5554
                                                                        45.0004
        28.2504
  -6604249.96547  -5107456.27345
                  22635945.4144                                   22635942.2774
                                                                        47.7504
        35.0004
 09 10 19 23 54  0.0000000  0  8G02G04G05G10G25G13G23G29
   -469581.22348   -346732.84847
                  20609704.1564                                   20609698.3284
                                                                        52.0004
        43.0004
   6632784.83648   5174014.21145
                  22411845.0084                                   22411842.1134
                                                                        50.0004
        34.7504
  -8472851.45347  -6561307.45345
                  22742653.8984                                   22742650.3244
                                                                        46.5004
        35.7504
  -9031397.43748  -7004246.04346
                  21918162.6414                                   21918159.3204
                                                                        49.5004
        36.5004
   -900044.80547   -663251.69144
                  23514907.6094                                   23514903.7544
                                                                        42.0004
        27.0004
  -1904765.02048  -1466472.70346
                  21322832.9614                                   21322829.0044
                                                                        51.2504
        37.0004
   5139666.78947   4013624.82044
                  23041204.1954                                   23041198.5354
                                                                        45.2504
        27.2504
  -6746309.92647  -5218152.35545
                  22608912.4304                                   22608909.3984
                                                                        47.2504
        34.5004
 09 10 19 23 54 30.0000000  0  8G02G04G05G10G25G13G23G29
   -534080.88748   -396992.30947
                  20597430.3524                                   20597424.6914
                                                                        52.5004
        42.5004
   6639919.41448   5179573.69945
                  22413202.4844                                   22413199.6454
                                                                        48.5004
        35.5004
  -8655806.60947  -6703869.85245
                  22707838.4924                                   22707835.1134
                                                                        47.5004
        35.2504
  -9204094.43048  -7138815.11346
                  21885299.5554                                   21885295.7274
                                                                        49.2504
        37.5004
  -1056559.84847   -785211.44544
                  23485122.6644                                   23485120.3634
                                                                        42.5004
        27.5004
  -1981835.50848  -1526527.59846
                  21308166.4924                                   21308162.4884
                                                                        51.7504
        36.7504
   5134849.05947   4009870.80144
                  23040287.3834                                   23040281.5274
                                                                        45.2504
        28.0004
  -6887832.69547  -5328429.84445
                  22581981.3914                                   22581978.2934
                                                                        47.0004
        35.5004
 09 10 19 23 55  0.0000000  0  8G02G04G05G10G25G13G23G29
   -597977.78548   -446782.10547
                  20585271.4304                                   20585265.5514
                                                                        51.7504
        42.2504
   6647399.02348   5185402.03945
                  22414625.6884                                   22414622.8874
                                                                        48.7504
        34.5004
  -8838452.16047  -6846191.00046
                  22673082.4694                                   22673079.0784
                                                                        47.5004
        36.7504
  -9376376.84048  -7273061.10546
                  21852515.1174                                   21852511.5084
                                                                        48.2504
        37.2504
  -1212631.47747   -906825.66044
                  23455424.4534                                   23455421.2194
                                                                        42.0004
        27.2504
  -2058217.93748  -1586046.35246
                  21293631.3364                                   21293627.2894
                                                                        51.5004
        37.0004
   5130478.20747   4006464.94944
                  23039455.7424                                   23039449.9454
                                                                        46.2504
        28.0004
  -7028815.82847  -5438286.89845
                  22555153.3284                                   22555150.0434
                                                                        46.2504
        35.5004
 09 10 19 23 55 30.0000000  0  8G02G04G05G10G25G13G23G29
   -661273.77748   -496103.66847
                  20573226.2734                                   20573220.6484
                                                                        51.2504
        42.7504
   6655219.69148   5191496.14545
                  22416114.2194                                   22416110.9574
                                                                        48.0004
        34.5004
  -9020787.96948  -6988270.82046
                  22638385.0784                                   22638381.3404
                                                                        48.2504
        37.0004
  -9548244.04748  -7406983.57846
                  21819809.5944                                   21819805.9184
                                                                        50.0004
        37.0004
  -1368259.00046  -1028093.87944
                  23425808.8914                                   23425806.1644
                                                                        41.0004
        27.2504
  -2133914.52048  -1645030.69546
                  21279226.7894                                   21279222.6374
                                                                        51.0004
        36.5004
   5126550.25847   4003404.16044
                  23038708.1174                                   23038702.7274
                                                                        45.0004
        28.5004
  -7169259.04747  -5547723.13745
                  22528427.9454                                   22528424.2814
                                                                        47.2504
        35.0004
 09 10 19 23 56  0.0000000  0  8G02G04G05G10G25G13G23G29
   -723970.14548   -544957.99647
                  20561295.6414                                   20561290.1254
                                                                        52.0004
        42.7504
   6663378.49247   5197853.69545
                  22417666.6414                                   22417663.4574
                                                                        47.7504
        35.5004
  -9202813.21948  -7130108.64846
                  22603747.0164                                   22603743.2814
                                                                        48.5004
        36.7504
  -9719695.21148  -7540581.86746
                  21787183.7274                                   21787180.3284
                                                                        49.7504
        36.7504
  -1523440.84046  -1149014.76244
                  23396278.9844                                   23396275.4064
                                                                        40.7504
        26.7504
  -2208927.02048  -1703482.00446
                  21264952.5314                                   21264948.4844
                                                                        51.0004
        36.5004
   5123061.78947   4000685.89844
                  23038044.8134                                   23038038.6524
                                                                        46.2504
        29.7504
  -7309161.28947  -5656737.84445
                  22501805.7034                                   22501802.1684
                                                                        47.0004
        35.5004
 09 10 19 23 56 30.0000000  0  8G02G04G05G10G25G13G23G29
   -786065.69148   -593344.15647
                  20549479.5004                                   20549473.7194
                                                                        51.7504
        42.5004
   6671875.23848   5204474.50845
                  22419283.6884                                   22419280.8204
                                                                        48.2504
        34.5004
  -9384524.16448  -7271701.57446
                  22569168.2664                                   22569164.9224
                                                                        48.7504
        36.7504
  -9890726.54748  -7673853.01646
                  21754637.8284                                   21754634.2544
                                                                        49.7504
        37.2504
  -1678172.94146  -1269585.17244
                  23366834.0554                                   23366830.8794
                                                                        40.7504
        26.2504
  -2283253.81648  -1761398.96946
                  21250808.4534                                   21250804.2074
                                                                        50.5004
        36.7504
   5120012.20347   3998309.68045
                  23037464.3914                                   23037458.0124
                                                                        45.0004
        30.0004
  -7448519.05147  -5765328.30545
                  22475286.7424                                   22475283.1764
                                                                        47.0004
        34.7504
 09 10 19 23 57  0.0000000  0  8G02G04G05G10G25G13G23G29
   -847563.54348   -641264.57447
                  20537776.4694                                   20537771.0944
                                                                        52.0004
        42.2504
   6680705.07448   5211354.85945
                  22420963.9844                                   22420960.5984
                                                                        48.0004
        34.2504
  -9565921.12548  -7413049.84046
                  22534649.8674                                   22534646.3794
                                                                        48.7504
        37.5004
 -10061338.70348  -7806797.52346
                  21722171.2504                                   21722167.7894
                                                                        49.7504
        37.2504
  -1832455.72347  -1389805.56244
                  23337475.6884                                   23337471.8754
                                                                        42.0004
        26.0004
  -2356898.33648  -1818784.30546
                  21236794.3364                                   21236790.4694
                                                                        51.5004
        36.5004
   5117396.14147   3996271.17244
                  23036966.3204                                   23036960.3874
                                                                        44.0004
        27.7504
  -7587333.01647  -5873495.02345
                  22448871.1724                                   22448867.5044
                                                                        46.5004
        35.5004
 09 10 19 23 57 30.0000000  0  8G02G04G05G10G25G13G23G29
   -908469.11748   -688723.45347
                  20526186.4614                                   20526180.9964
                                                                        52.2504
        42.5004
   6689861.30948   5218489.59845
                  22422706.4384                                   22422703.6374
                                                                        48.5004
        34.5004
  -9747007.27748  -7554155.88346
                  22500190.1564                                   22500186.4304
                                                                        49.0004
        36.7504
 -10231534.53948  -7939417.65646
                  21689784.0084                                   21689780.6844
                                                                        50.0004
        37.5004
  -1986291.63347  -1509677.73444
                  23308201.3674                                   23308198.0514
                                                                        42.2504
        27.0004
  -2429866.22348  -1875642.46146
                  21222909.2894                                   21222905.2704
                                                                        51.5004
        36.5004
   5115206.18047   3994564.72744
                  23036549.7974                                   23036544.0164
                                                                        43.7504
        28.2504
  -7725606.30547  -5981240.46145
                  22422558.6644                                   22422555.0234
                                                                        47.5004
        35.5004
 09 10 19 23 58  0.0000000  0  8G02G04G05G10G25G13G23G29
   -968778.15248   -735717.51647
                  20514710.2894                                   20514705.0784
                                                                        52.0004
        42.7504
   6699346.23048   5225880.42245
                  22424511.0944                                   22424508.0354
                                                                        48.0004
        34.0004
  -9927775.93747  -7695014.55146
                  22465790.9384                                   22465786.9774
                                                                        47.5004
        37.2504
 -10401307.39848  -8071708.17246
                  21657476.9534                                   21657473.9144
                                                                        50.0004
        37.2504
  -2139673.23446  -1629195.78944
                  23279013.5554                                   23279010.1054
                                                                        41.7504
        26.7504
  -2502153.11348  -1931969.98846
                  21209153.6174                                   21209149.3204
                                                                        50.7504
        37.0004
   5113444.29347   3993191.80144
                  23036214.3674                                   23036208.6414
                                                                        44.0004
        28.7504
  -7863332.35948  -6088559.46145
                  22396350.3444                                   22396346.7934
                                                                        48.0004
        35.5004
 09 10 19 23 58 30.0000000  0  8G02G04G05G10G25G13G23G29
  -1028490.68748   -782246.81247
                  20503347.7274                                   20503341.8914
                                                                        52.5004
        42.7504
   6709158.50847   5233526.35245
                  22426378.4384                                   22426375.3874
                                                                        46.7504
        34.0004
 -10108224.72348  -7835623.98046
                  22431452.7584                                   22431449.0234
                                                                        48.5004
        37.2504
 -10570654.97348  -8203667.29746
                  21625251.2034                                   21625247.8404
                                                                        49.0004
        38.0004
  -2292598.17647  -1748358.07444
                  23249913.3524                                   23249909.3204
                                                                        43.0004
        27.0004
  -2573758.73048  -1987766.55546
                  21195527.0314                                   21195523.4224
                                                                        51.0004
        37.0004
   5112108.49247   3992150.86744
                  23035960.2814                                   23035954.4144
                                                                        45.0004
        27.2504
  -8000508.94947  -6195450.35545
                  22370246.5864                                   22370243.2274
                                                                        47.2504
        35.0004
 09 10 19 23 59  0.0000000  0  8G02G04G05G10G25G13G23G29
  -1087610.59448   -828314.31647
                  20492097.2344                                   20492091.4574
                                                                        51.7504
        42.5004
   6719292.61747   5241423.09845
                  22428306.7194                                   22428303.8164
                                                                        47.5004
        34.5004
 -10288354.85948  -7975985.09846
                  22397174.8284                                   22397171.0004
                                                                        48.2504
        37.0004
 -10739578.59048  -8335296.07846
                  21593106.1334                                   21593103.0354
                                                                        48.7504
        37.5004
  -2445067.44547  -1867165.30544
                  23220899.2734                                   23220895.7234
                                                                        42.7504
        28.5004
  -2644688.03148  -2043036.18446
                  21182030.3524                                   21182026.0004
                                                                        50.0004
        36.5004
   5111193.32047   3991437.69944
                  23035786.0314                                   23035780.1254
                                                                        45.0004
        27.0004
  -8137137.34047  -6301914.02045
                  22344247.0634                                   22344243.5984
                                                                        46.2504
        35.5004
 09 10 19 23 59 30.0000000  0  8G02G04G05G10G25G13G23G29
  -1146143.37948   -873924.32447
                  20480959.2734                                   20480953.0824
                                                                        51.2504
        42.7504
   6729741.47347   5249564.96945
                  22430295.2114                                   22430292.0084
                                                                        47.7504
        33.7504
 -10468169.54348  -8116100.44946
                  22362957.7034                                   22362953.7854
                                                                        48.2504
        37.2504
 -10908080.73048  -8466596.43746
                  21561041.6414                                   21561038.3674
                                                                        49.0004
        38.0004
  -2597083.62147  -1985619.51644
                  23191971.2814                                   23191967.7584
                                                                        43.2504
        26.5004
  -2714945.91848  -2097782.56246
                  21168660.2814                                   21168656.5124
                                                                        50.0004
        36.2504
   5110691.25047   3991046.60244
                  23035690.3364                                   23035684.4614
                                                                        43.7504
        28.0004
  -8273220.87947  -6407953.16045
                  22318351.1094                                   22318347.8794
                                                                        47.5004
        35.5004
