     2.11           OBSERVATION DATA    G (GPS)             RINEX VERSION / TYPE
teqc  2019Feb25                         20221121 12:28:39UTCPGM / RUN BY / DATE
OSX ker:10.11.6|Core i5|gcc 4.3 -m64|OSX ker:10.10+|=+      COMMENT
BIT 2 OF LLI FLAGS DATA COLLECTED UNDER A/S CONDITION       COMMENT
04712960                                                    MARKER NAME
2960                                                        MARKER NUMBER
-Unknown-           -Unknown-                               OBSERVER / AGENCY
0220400471          TRIMBLE R7          2.30                REC # / TYPE / VERS
-Unknown-           TRM39105.00     NONE                    ANT # / TYPE
  1449459.7119 -1709242.1061  5952441.9190                  APPROX POSITION XYZ
        0.0000        0.0000        0.0000                  ANTENNA: DELTA H/E/N
     1     1                                                WAVELENGTH FACT L1/2
    20    L1    L2    L5    L6    L7    L8    C1    P1    C2# / TYPES OF OBSERV
          P2    C5    C6    C7    C8    S1    S2    S5    S6# / TYPES OF OBSERV
          S7    S8                                          # / TYPES OF OBSERV
    30.0000                                                 INTERVAL
    15                                                      LEAP SECONDS
Forced Modulo Decimation to 30 seconds                      COMMENT
 SNR is mapped to RINEX snr flag value [0-9]                COMMENT
  L1 & L2: min(max(int(snr_dBHz/6), 0), 9)                  COMMENT
teqc edited: Beidou # 1 - 37 excluded                       COMMENT
  2009    10    23     0     0    0.0000000     GPS         TIME OF FIRST OBS
                                                            END OF HEADER
 09 10 23  0  0  0.0000000  0 10G02G04G05G10G13G23G25G29G16G07
  -8371485.05148  -6484069.49646
                  20773723.2194                                   20773716.5784
                                                                        52.0004
        41.5004
   -923675.68047   -712635.69145
                  23056467.4144                                   23056464.0864
                                                                        45.0004
        31.5004
 -19637423.35248 -15230253.47746
                  22042952.3984                                   22042947.9414
                                                                        50.0004
        39.2504
 -18714299.09848 -14508333.22346
                  21289750.6884                                   21289746.1374
                                                                        51.0004
        40.0004
  -9715525.39148  -7528140.58245
                  21413556.7974                                   21413551.2734
                                                                        49.5004
        35.5004
  -2321467.77347  -1794052.01644
                  23591159.4774                                   23591153.2274
                                                                        42.2504
        25.0004
 -15236855.78547 -11852354.93744
                  23024184.0944                                   23024179.1684
                                                                        45.2504
        29.2504
 -15814561.53948 -12257602.03946
                  22229702.2034                                   22229698.4384
                                                                        49.7504
        37.2504
  -3277453.72746  -2518683.26643
                  24159569.2344                                   24159564.2234
                                                                        41.2504
        21.5004
  -2030877.14146  -1567267.12143
                  24316541.5864                                   24316536.9384
                                                                        41.5004
        23.7504
 09 10 23  0  0 30.0000000  0 10G02G04G05G10G13G23G25G29G16G07
  -8424985.68048  -6525758.23846
                  20763542.2194                                   20763535.6294
                                                                        52.2504
        41.7504
   -915590.48847   -706335.53945
                  23058006.1724                                   23058002.1374
                                                                        46.0004
        32.0004
 -19818099.77048 -15371040.23846
                  22008570.8134                                   22008566.8404
                                                                        49.5004
        39.5004
 -18880296.82448 -14637682.07046
                  21258162.1414                                   21258158.3914
                                                                        51.0004
        40.0004
  -9778351.38348  -7577095.89545
                  21401601.1254                                   21401595.8594
                                                                        48.7504
        35.7504
  -2322246.43047  -1794658.77343
                  23591011.2734                                   23591005.2774
                                                                        42.2504
        22.7504
 -15386131.40647 -11968673.57844
                  22995777.3674                                   22995772.6804
                                                                        44.2504
        28.0004
 -15945447.74248 -12359591.29746
                  22204795.3594                                   22204791.5314
                                                                        49.2504
        37.0004
  -3432143.09446  -2639220.39843
                  24130133.0474                                   24130128.3914
                                                                        40.0004
        23.0004
  -2223360.42246  -1717254.02344
                  24279912.8524                                   24279908.4614
                                                                        39.5004
        24.5004
 09 10 23  0  1  0.0000000  0 10G02G04G05G10G13G23G25G29G16G07
  -8477905.88748  -6566994.73446
                  20753471.8834                                   20753465.2384
                                                                        52.7504
        41.5004
   -907235.28947   -699824.99645
                  23059595.9224                                   23059592.6374
                                                                        46.0004
        31.5004
 -19998391.69548 -15511527.40646
                  21974262.4534                                   21974258.5274
                                                                        50.0004
        39.7504
 -19045803.88348 -14766648.50846
                  21226667.3284                                   21226663.2854
                                                                        51.0004
        40.2504
  -9840520.88748  -7625539.68745
                  21389770.7504                                   21389765.3674
                                                                        48.7504
        35.5004
  -2322667.85947  -1794987.10243
                  23590931.2344                                   23590923.8054
                                                                        42.5004
        23.0004
 -15534880.98447 -12084582.31644
                  22967471.3754                                   22967466.5824
                                                                        45.0004
        29.7504
 -16075730.06248 -12461109.99246
                  22180003.6954                                   22179999.6914
                                                                        49.5004
        36.5004
  -3586301.50446  -2759343.84043
                  24100796.6954                                   24100792.7814
                                                                        39.2504
        21.7504
  -2415541.58846  -1867005.53143
                  24243342.2894                                   24243336.8524
                                                                        39.7504
        22.5004
 09 10 23  0  1 30.0000000  0 10G02G04G05G10G13G23G25G29G16G07
  -8530245.39548  -6607778.73046
                  20743512.1564                                   20743505.8054
                                                                        52.7504
        41.5004
   -898610.68047   -693104.51645
                  23061237.2584                                   23061233.5314
                                                                        46.7504
        30.0004
 -20178297.27348 -15651713.54746
                  21940027.5474                                   21940023.1174
                                                                        50.5004
        39.5004
 -19210818.01648 -14895230.89146
                  21195265.9144                                   21195262.1414
                                                                        52.0004
        40.5004
  -9902033.66848  -7673471.72745
                  21378065.5084                                   21378060.1414
                                                                        49.7504
        35.5004
  -2322733.87147  -1795038.50044
                  23590918.7894                                   23590911.9804
                                                                        43.2504
        24.0004
 -15683100.77747 -12200078.17644
                  22939265.9144                                   22939261.4144
                                                                        44.5004
        29.5004
 -16205407.66048 -12562157.52346
                  22155326.8594                                   22155322.8554
                                                                        50.0004
        37.7504
  -3739926.27046  -2879051.44943
                  24071563.5004                                   24071559.3754
                                                                        38.5004
        21.7504
  -2607416.27746  -2016518.28543
                  24206829.2114                                   24206824.1174
                                                                        40.7504
        22.0004
 09 10 23  0  2  0.0000000  0 10G02G04G05G10G13G23G25G29G16G07
  -8582002.87548  -6648109.21146
                  20733662.9844                                   20733656.6334
                                                                        53.0004
        41.2504
   -889716.54347   -686174.03945
                  23062929.7734                                   23062925.9494
                                                                        46.5004
        30.2504
 -20357811.19548 -15791594.49246
                  21905867.2974                                   21905863.0004
                                                                        50.0004
        39.7504
 -19375334.73848 -15023425.68446
                  21163959.6724                                   21163955.5234
                                                                        51.2504
        40.5004
  -9962888.67248  -7720891.24645
                  21366484.7504                                   21366479.4264
                                                                        49.2504
        35.0004
  -2322444.12947  -1794812.65244
                  23590973.9224                                   23590966.9804
                                                                        43.2504
        24.0004
 -15830786.92247 -12315158.30545
                  22911162.3834                                   22911157.9184
                                                                        44.5004
        30.0004
 -16334475.81648 -12662730.17646
                  22130766.4064                                   22130761.9224
                                                                        49.2504
        37.2504
  -3893012.07846  -2998339.07443
                  24042433.1334                                   24042428.0394
                                                                        40.2504
        22.7504
  -2798979.11346  -2165788.02044
                  24170375.9614                                   24170371.5634
                                                                        41.5004
        24.5004
 09 10 23  0  2 30.0000000  0 10G02G04G05G10G13G23G25G29G16G07
  -8633180.77748  -6687988.07446
                  20723924.0634                                   20723917.9574
                                                                        53.0004
        41.5004
   -880556.46947   -679036.31644
                  23064673.1804                                   23064668.8634
                                                                        47.0004
        29.7504
 -20536932.82848 -15931169.73846
                  21871781.3364                                   21871776.7304
                                                                        50.0004
        39.7504
 -19539353.39148 -15151232.37946
                  21132747.7974                                   21132743.5004
                                                                        51.7504
        39.2504
 -10023088.62148  -7767800.32445
                  21355029.0394                                   21355024.4384
                                                                        49.0004
        35.0004
  -2321802.96147  -1794312.95744
                  23591095.3134                                   23591089.0784
                                                                        43.2504
        25.2504
 -15977939.22747 -12429822.54745
                  22883159.8754                                   22883155.8984
                                                                        42.0004
        30.5004
 -16462933.82048 -12762827.35246
                  22106321.3594                                   22106317.5044
                                                                        49.2504
        38.0004
  -4045558.31246  -3117206.28943
                  24013404.0864                                   24013399.5204
                                                                        40.0004
        22.0004
  -2990228.78947  -2314813.70344
                  24133982.5084                                   24133978.4064
                                                                        42.0004
        27.0004
 09 10 23  0  3  0.0000000  0 10G02G04G05G10G13G23G25G29G16G07
  -8683784.60948  -6727419.62546
                  20714294.4304                                   20714288.0044
                                                                        52.5004
        41.5004
   -871136.26647   -671695.92245
                  23066465.7114                                   23066462.5124
                                                                        46.2504
        30.5004
 -20715665.55548 -16070441.90246
                  21837769.0394                                   21837765.0824
                                                                        50.2504
        40.0004
 -19702877.15648 -15278653.45746
                  21101629.9614                                   21101625.6914
                                                                        51.5004
        39.5004
 -10082639.02348  -7814203.21545
                  21343697.0314                                   21343692.0354
                                                                        49.7504
        35.0004
  -2320817.18746  -1793544.86744
                  23591283.2814                                   23591277.1524
                                                                        41.2504
        25.7504
 -16124559.34447 -12544072.04744
                  22855259.0164                                   22855255.0164
                                                                        42.2504
        28.5004
 -16590786.64148 -12862452.91846
                  22081991.7504                                   22081988.0474
                                                                        49.2504
        37.5004
  -4197567.84046  -3235655.29743
                  23984477.8754                                   23984472.8094
                                                                        40.5004
        22.7504
  -3181165.77047  -2463595.73444
                  24097648.1024                                   24097644.1844
                                                                        42.0004
        25.5004
 09 10 23  0  3 30.0000000  0 10G02G04G05G10G13G23G25G29G16G07
  -8733816.98848  -6766405.87546
                  20704773.5944                                   20704767.0664
                                                                        52.2504
        41.7504
   -861460.34847   -664156.26245
                  23068306.5944                                   23068303.5474
                                                                        47.0004
        30.2504
 -20894008.64848 -16209410.49646
                  21803831.9384                                   21803827.3324
                                                                        50.2504
        39.5004
 -19865905.44148 -15405688.45346
                  21070606.6174                                   21070603.0124
                                                                        51.0004
        40.0004
 -10141543.39848  -7860102.72345
                  21332488.2344                                   21332482.6054
                                                                        49.5004
        34.7504
  -2319491.27046  -1792511.68743
                  23591535.1564                                   23591529.3834
                                                                        41.2504
        21.7504
 -16270647.50847 -12657907.03144
                  22827459.7584                                   22827455.0514
                                                                        42.0004
        28.5004
 -16718033.17248 -12961606.06646
                  22057777.6484                                   22057773.9184
                                                                        49.0004
        38.0004
  -4349039.52346  -3353685.19543
                  23955653.7894                                   23955648.5084
                                                                        41.0004
        21.2504
  -3371789.74246  -2612133.86744
                  24061373.4694                                   24061369.4884
                                                                        40.0004
        26.0004
 09 10 23  0  4  0.0000000  0 10G02G04G05G10G13G23G25G29G16G07
  -8783280.74248  -6804949.06247
                  20695360.9614                                   20695354.3244
                                                                        53.0004
        42.0004
   -851532.09847   -656419.98844
                  23070195.8594                                   23070192.7304
                                                                        46.2504
        29.7504
 -21071962.65248 -16348075.85546
                  21769968.8914                                   21769964.1334
                                                                        51.0004
        40.7504
 -20028439.30548 -15532338.17646
                  21039677.3134                                   21039673.8204
                                                                        51.0004
        40.2504
 -10199805.02048  -7905501.38745
                  21321400.8134                                   21321395.9534
                                                                        50.2504
        34.5004
  -2317829.60246  -1791216.95343
                  23591852.0474                                   23591845.3794
                                                                        41.5004
        22.5004
 -16416203.31647 -12771327.21944
                  22799761.0704                                   22799756.7274
                                                                        43.2504
        28.0004
 -16844675.03548 -13060288.08246
                  22033678.4924                                   22033674.7274
                                                                        49.7504
        38.0004
  -4499973.80546  -3471296.34843
                  23926931.3754                                   23926926.8594
                                                                        38.7504
        21.5004
  -3562098.36346  -2760426.14844
                  24025159.0314                                   24025155.1884
                                                                        39.0004
        26.0004
 09 10 23  0  4 30.0000000  0 10G02G04G05G10G13G23G25G29G16G07
  -8832172.20348  -6843046.32047
                  20686057.1644                                   20686050.7704
                                                                        53.0004
        42.0004
   -841349.40247   -648485.46544
                  23072133.7664                                   23072130.3164
                                                                        46.2504
        29.7504
 -21249520.01248 -16486432.18046
                  21736180.4614                                   21736175.8484
                                                                        50.7504
        40.5004
 -20190471.48848 -15658597.01246
                  21008844.1094                                   21008840.1174
                                                                        51.0004
        40.7504
 -10257420.65248  -7950396.64845
                  21310436.9144                                   21310432.4414
                                                                        50.0004
        34.7504
  -2315830.04747  -1789658.91444
                  23592232.2424                                   23592225.6684
                                                                        43.0004
        24.0004
 -16561220.58247 -12884327.68444
                  22772165.3914                                   22772161.1294
                                                                        43.2504
        28.0004
 -16970705.49648 -13158493.67646
                  22009695.5234                                   22009692.1454
                                                                        49.7504
        37.5004
  -4650363.11346  -3588482.87943
                  23898313.8054                                   23898308.4304
                                                                        40.2504
        20.0004
  -3752085.16846  -2908467.62144
                  23989005.9534                                   23989001.6764
                                                                        38.2504
        24.2504
 09 10 23  0  5  0.0000000  0 10G02G04G05G10G13G23G25G29G16G07
  -8880492.93748  -6880698.84047
                  20676862.1484                                   20676855.8914
                                                                        52.7504
        42.0004
   -830914.02847   -640354.03045
                  23074119.8444                                   23074116.2664
                                                                        46.7504
        31.0004
 -21426679.84848 -16624478.77046
                  21702467.9844                                   21702463.3364
                                                                        50.5004
        40.5004
 -20352001.11748 -15784464.22746
                  20978105.9454                                   20978101.8954
                                                                        50.7504
        40.2504
 -10314391.96148  -7994789.88745
                  21299595.5474                                   21299590.8524
                                                                        49.2504
        35.2504
  -2313495.53947  -1787839.85944
                  23592677.3834                                   23592669.7664
                                                                        44.5004
        25.7504
 -16705697.43047 -12996907.02044
                  22744672.5944                                   22744667.7464
                                                                        44.0004
        28.0004
 -17096124.47748 -13256222.82446
                  21985829.5554                                   21985825.1094
                                                                        49.5004
        37.7504
  -4800206.30546  -3705243.93743
                  23869799.1644                                   23869793.6484
                                                                        41.0004
        19.2504
  -3941746.76247  -3056255.78344
                  23952913.8984                                   23952909.7234
                                                                        42.2504
        25.7504
 09 10 23  0  5 30.0000000  0 10G02G04G05G10G13G23G25G29G16G07
  -8928247.83248  -6917910.44546
                  20667774.5394                                   20667768.2464
                                                                        51.5004
        41.7504
   -820232.34847   -632030.63744
                  23076152.3674                                   23076148.5354
                                                                        46.0004
        29.5004
 -21603443.52048 -16762216.64546
                  21668830.9144                                   21668826.4734
                                                                        50.5004
        40.5004
 -20513029.57848 -15909940.92646
                  20947463.6024                                   20947459.1174
                                                                        51.0004
        39.7504
 -10370724.06248  -8038685.05545
                  21288876.3204                                   21288871.2934
                                                                        48.7504
        35.2504
  -2310832.33247  -1785764.73044
                  23593184.1024                                   23593176.9104
                                                                        43.7504
        25.7504
 -16849636.09047 -13109066.91444
                  22717281.7274                                   22717276.8874
                                                                        44.0004
        28.5004
 -17220933.31248 -13353476.52046
                  21962079.0634                                   21962075.2504
                                                                        50.5004
        38.0004
  -4949504.63346  -3821580.39543
                  23841389.0784                                   23841383.1994
                                                                        39.0004
        20.5004
  -4131084.32446  -3203791.48043
                  23916884.6644                                   23916879.5274
                                                                        41.5004
        23.7504
 09 10 23  0  6  0.0000000  0 10G02G04G05G10G13G23G25G29G16G07
  -7400018.14848  -5727082.10947
                  20958587.1884                                   20958580.6414
                                                                        52.0004
        42.0004
    766112.13747    604081.91044
                  23378023.6884                                   23378019.9804
                                                                        44.7504
        29.5004
 -20204385.89848 -15672041.83246
                  21935062.7344                                   21935058.0904
                                                                        51.0004
        40.5004
 -19098132.27748 -14807423.53546
                  21216709.2114                                   21216704.8524
                                                                        52.0004
        40.2504
  -8850998.39848  -6854483.25445
                  21578070.0314                                   21578065.3714
                                                                        48.7504
        35.0004
   -732424.67647   -555836.76243
                  23893545.0164                                   23893537.8554
                                                                        42.2504
        22.5004
 -15417611.24647 -11993203.31244
                  22989786.8984                                   22989781.8244
                                                                        44.7504
        28.2504
 -15769710.13348 -12222653.37546
                  22238237.9844                                   22238233.6764
                                                                        50.0004
        38.5004
  -3522833.32846  -2709888.54743
                  24112875.4924                                   24112870.7424
                                                                        40.0004
        22.0004
  -2744669.43447  -2123468.11743
                  24180710.0704                                   24180705.3594
                                                                        43.0004
        23.5004
 09 10 23  0  6 30.0000000  0 10G02G04G05G10G13G23G25G29G16G07
  -7446646.03948  -5763415.50446
                  20949714.0474                                   20949707.5514
                                                                        52.0004
        41.7504
    777279.44547    612783.66844
                  23380148.5314                                   23380144.7504
                                                                        44.5004
        28.7504
 -20380353.94548 -15809159.73046
                  21901576.7114                                   21901572.4924
                                                                        50.7504
        40.0004
 -19258155.56648 -14932116.97746
                  21186257.7974                                   21186253.5554
                                                                        51.7504
        40.0004
  -8906058.55948  -6897387.27345
                  21567592.8914                                   21567588.3594
                                                                        48.7504
        35.0004
   -729113.22747   -553256.49243
                  23894175.2034                                   23894167.9224
                                                                        42.2504
        21.2504
 -15560469.43747 -12104521.35544
                  22962602.1174                                   22962597.4064
                                                                        45.0004
        28.2504
 -15893298.71948 -12318956.27046
                  22214719.5234                                   22214715.6414
                                                                        50.0004
        37.7504
  -3671037.67646  -2825372.48443
                  24084672.8754                                   24084668.9924
                                                                        40.2504
        22.0004
  -2933350.79647  -2270492.49943
                  24144805.5634                                   24144800.3164
                                                                        43.0004
        22.2504
 09 10 23  0  7  0.0000000  0 10G02G04G05G10G13G23G25G29G16G07
  -7492711.85548  -5799310.88746
                  20940948.2274                                   20940941.4734
                                                                        51.5004
        41.5004
    788686.64547    621672.37944
                  23382319.3364                                   23382315.1804
                                                                        43.5004
        28.2504
 -20555921.38748 -15945965.45346
                  21868167.5314                                   21868163.4184
                                                                        51.0004
        40.2504
 -19417673.65648 -15056416.75446
                  21155902.4774                                   21155898.3284
                                                                        51.5004
        40.0004
  -8960484.77348  -6939797.30945
                  21557235.7974                                   21557231.3244
                                                                        48.7504
        35.0004
   -725481.41846   -550426.54743
                  23894865.2974                                   23894858.7194
                                                                        39.5004
        21.5004
 -15702784.50047 -12215416.17644
                  22935520.0474                                   22935515.4534
                                                                        44.5004
        27.7504
 -16016274.81248 -12414781.79346
                  22191318.2344                                   22191314.3364
                                                                        50.2504
        38.0004
  -3818692.03546  -2940427.79343
                  24056575.5474                                   24056571.2584
                                                                        41.2504
        22.7504
  -3121699.12547  -2417257.38343
                  24108964.0634                                   24108959.1054
                                                                        42.2504
        23.5004
 09 10 23  0  7 30.0000000  0 10G02G04G05G10G13G23G25G29G16G07
  -7538219.24248  -5834771.14846
                  20932288.2664                                   20932281.8634
                                                                        53.0004
        41.7504
    800329.28547    630744.53544
                  23384534.8204                                   23384531.3794
                                                                        44.5004
        29.0004
 -20731087.96948 -16082458.83646
                  21834834.3594                                   21834829.7304
                                                                        50.2504
        41.0004
 -19576686.79348 -15180323.05146
                  21125643.1804                                   21125638.4454
                                                                        51.5004
        40.2504
  -9014281.06248  -6981716.51245
                  21546998.6954                                   21546993.8874
                                                                        48.5004
        35.0004
   -721534.16446   -547350.79744
                  23895616.9614                                   23895610.3874
                                                                        41.2504
        24.5004
 -15844557.18047 -12325888.34044
                  22908541.6334                                   22908537.0744
                                                                        44.2504
        28.5004
 -16138639.13348 -12510130.48046
                  22168033.1724                                   22168029.0044
                                                                        50.2504
        37.5004
  -3965796.35946  -3055054.56643
                  24028582.6484                                   24028578.2854
                                                                        41.0004
        23.5004
  -3309714.18047  -2563762.57044
                  24073185.7344                                   24073181.3874
                                                                        43.5004
        27.2504
 09 10 23  0  8  0.0000000  0 10G02G04G05G10G13G23G25G29G16G07
  -7583164.50848  -5869793.40246
                  20923735.1484                                   20923728.9224
                                                                        51.7504
        41.2504
    812210.80147    640002.82445
                  23386796.0474                                   23386792.5594
                                                                        44.2504
        30.0004
 -20905847.73848 -16218635.23446
                  21801578.4304                                   21801573.9184
                                                                        49.5004
        40.5004
 -19735188.95748 -15303831.17246
                  21095481.2814                                   21095477.5634
                                                                        52.2504
        40.5004
  -9067443.56648  -7023141.84445
                  21536882.3834                                   21536877.7424
                                                                        48.0004
        35.5004
   -717268.83647   -544027.16844
                  23896428.6954                                   23896422.5594
                                                                        42.5004
        24.7504
 -15985780.35547 -12435932.33244
                  22881667.5944                                   22881663.0784
                                                                        44.5004
        29.7504
 -16260386.65248 -12604998.54346
                  22144865.1174                                   22144860.6884
                                                                        50.0004
        38.5004
  -4112343.92646  -3169247.51643
                  24000695.4304                                   24000690.8834
                                                                        41.5004
        23.5004
  -3497387.63346  -2710001.59044
                  24037472.6094                                   24037468.1294
                                                                        41.7504
        24.5004
 09 10 23  0  8 30.0000000  0 10G02G04G05G10G13G23G25G29G16G07
  -7627553.96548  -5904382.55146
                  20915288.2344                                   20915281.9344
                                                                        52.7504
        41.5004
    824322.95347    649440.81345
                  23389101.3834                                   23389097.3204
                                                                        45.5004
        30.2504
 -21080203.43048 -16354496.75046
                  21768400.0314                                   21768395.7704
                                                                        50.2504
        40.5004
 -19893183.71548 -15426943.93046
                  21065415.9304                                   21065411.6644
                                                                        52.2504
        41.0004
  -9119979.88347  -7064079.25045
                  21526885.1334                                   21526880.7194
                                                                        47.5004
        35.0004
   -712693.66046   -540462.09843
                  23897299.2664                                   23897292.9804
                                                                        41.5004
        23.0004
 -16126458.20347 -12545551.42644
                  22854897.4454                                   22854893.4184
                                                                        45.0004
        29.7504
 -16381521.32448 -12699389.13746
                  22121814.1724                                   22121810.0784
                                                                        50.2504
        38.0004
  -4258337.91446  -3283009.03943
                  23972913.8914                                   23972909.7504
                                                                        41.7504
        22.5004
  -3684722.44547  -2855976.63344
                  24001823.3914                                   24001819.9144
                                                                        42.2504
        27.5004
 09 10 23  0  9  0.0000000  0 10G02G04G05G10G13G23G25G29G16G07
  -7671386.18048  -5938537.50446
                  20906947.3054                                   20906940.8874
                                                                        52.2504
        41.0004
    836666.91447    659059.42645
                  23391450.0554                                   23391446.6054
                                                                        44.7504
        30.7504
 -21254150.92648 -16490040.18746
                  21735298.8914                                   21735294.1134
                                                                        50.0004
        40.5004
 -20050666.25448 -15549657.56246
                  21035447.7194                                   21035443.9614
                                                                        52.7504
        40.7504
  -9171888.28547  -7104527.38745
                  21517007.3134                                   21517002.2664
                                                                        47.2504
        35.5004
   -707808.47347   -536655.50843
                  23898229.1954                                   23898222.1454
                                                                        43.7504
        23.0004
 -16266585.92247 -12654741.87945
                  22828232.1884                                   22828227.2274
                                                                        44.5004
        30.0004
 -16502039.44948 -12793299.31646
                  22098879.6884                                   22098875.8834
                                                                        50.0004
        37.5004
  -4403773.91446  -3396335.77344
                  23945237.8444                                   23945234.1644
                                                                        41.0004
        24.2504
  -3871712.14147  -3001682.79344
                  23966240.8674                                   23966236.7734
                                                                        43.5004
        28.5004
 09 10 23  0  9 30.0000000  0 10G02G04G05G10G13G23G25G29G16G07
  -7714663.80148  -5972260.30946
                  20898712.0634                                   20898705.5434
                                                                        52.7504
        41.5004
    849239.45747    668856.18044
                  23393842.4304                                   23393838.7304
                                                                        44.7504
        29.5004
 -21427689.37948 -16625264.87946
                  21702275.0554                                   21702270.8404
                                                                        50.0004
        41.2504
 -20207636.23448 -15671971.80146
                  21005577.3594                                   21005573.1294
                                                                        52.2504
        39.7504
  -9223172.00847  -7144488.70745
                  21507248.2814                                   21507243.6414
                                                                        47.0004
        34.7504
   -702617.01647   -532610.25843
                  23899217.4844                                   23899210.0474
                                                                        43.5004
        22.5004
 -16406163.09847 -12763503.32044
                  22801671.6724                                   22801667.0354
                                                                        44.5004
        29.2504
 -16621941.46148 -12886729.45746
                  22076063.4144                                   22076059.1454
                                                                        51.2504
        38.5004
  -4548651.05146  -3509227.05143
                  23917668.2114                                   23917664.5864
                                                                        40.5004
        23.5004
  -4058355.21947  -3147118.90644
                  23930724.3204                                   23930719.4024
                                                                        44.5004
        28.5004
 09 10 23  0 10  0.0000000  0 10G02G04G05G10G13G23G25G29G16G07
  -7757387.80548  -6005551.73446
                  20890581.6174                                   20890575.0984
                                                                        52.7504
        41.2504
    862038.60247    678829.49244
                  23396278.1484                                   23396274.4494
                                                                        45.5004
        28.2504
 -21600816.87148 -16760169.38746
                  21669330.1414                                   21669325.7424
                                                                        50.0004
        40.0004
 -20364092.62548 -15793885.86346
                  20975804.7034                                   20975800.4344
                                                                        51.7504
        40.5004
  -9273832.41047  -7183964.32845
                  21497607.9454                                   21497603.0314
                                                                        47.5004
        34.5004
   -697121.69947   -528328.16443
                  23900263.1094                                   23900256.2464
                                                                        43.2504
        22.5004
 -16545187.98047 -12871834.43044
                  22775216.0314                                   22775211.5474
                                                                        44.5004
        29.0004
 -16741225.32448 -12979677.82446
                  22053364.4454                                   22053359.8874
                                                                        50.5004
        37.7504
  -4692967.28547  -3621681.31243
                  23890206.4924                                   23890201.9224
                                                                        42.2504
        23.7504
  -4244648.59047  -3292282.50844
                  23895273.7034                                   23895268.7114
                                                                        44.7504
        25.7504
 09 10 23  0 10 30.0000000  0 10G02G04G05G10G13G23G25G29G16G07
  -7799557.62148  -6038411.32446
                  20882556.9304                                   20882550.5704
                                                                        53.5004
        41.5004
    875063.94947    688979.07444
                  23398756.4774                                   23398752.8834
                                                                        45.2504
        27.7504
 -21773529.89548 -16894750.91446
                  21636463.7114                                   21636459.4494
                                                                        51.2504
        40.7504
 -20520031.44548 -15915396.59046
                  20946130.6414                                   20946126.3874
                                                                        52.5004
        40.5004
  -9323869.84448  -7222954.56245
                  21488085.9304                                   21488081.0634
                                                                        49.0004
        35.0004
   -691323.44546   -523809.96543
                  23901366.4774                                   23901359.0704
                                                                        41.0004
        21.7504
 -16683657.16847 -12979732.44145
                  22748865.8204                                   22748861.3634
                                                                        44.2504
        30.2504
 -16859888.51648 -13072142.54346
                  22030783.2894                                   22030779.1804
                                                                        50.0004
        38.2504
  -4836719.10246  -3733695.77043
                  23862851.5784                                   23862847.3404
                                                                        41.5004
        22.7504
  -4430587.74247  -3437170.09844
                  23859890.1024                                   23859885.6644
                                                                        45.0004
        24.5004
 09 10 23  0 11  0.0000000  0 10G02G04G05G10G13G23G25G29G16G07
  -7841177.83648  -6070842.67246
                  20874637.1254                                   20874630.5084
                                                                        53.0004
        41.0004
    888310.18047    699300.79344
                  23401277.5474                                   23401273.8874
                                                                        45.5004
        28.0004
 -21945830.31648 -17029010.98846
                  21603676.2664                                   21603672.0784
                                                                        51.2504
        40.7504
 -20675454.44948 -16036505.41046
                  20916554.3754                                   20916550.1414
                                                                        51.7504
        40.0004
  -9373288.93748  -7261462.91045
                  21478681.7424                                   21478676.7114
                                                                        48.5004
        34.0004
   -685228.13746   -519060.40643
                  23902524.7034                                   23902519.1844
                                                                        39.0004
        20.2504
 -16821572.25047 -13087198.68445
                  22722621.3594                                   22722617.2074
                                                                        44.7504
        30.0004
 -16977933.76248 -13164125.73046
                  22008320.0864                                   22008315.8524
                                                                        49.7504
        37.5004
  -4979908.02747  -3845271.55944
                  23835603.2814                                   23835599.0594
                                                                        42.7504
        24.7504
  -4616172.69147  -3581781.71544
                  23824574.0944                                   23824569.4264
                                                                        43.5004
        24.2504
 09 10 23  0 11 30.0000000  0 10G02G04G05G10G13G23G25G29G16G07
  -7882249.64548  -6102846.67646
                  20866821.1414                                   20866814.7734
                                                                        53.0004
        40.7504
    901775.08247    709792.87144
                  23403840.2034                                   23403836.0474
                                                                        45.2504
        28.7504
 -22117715.76648 -17162947.71946
                  21570967.5944                                   21570963.2034
                                                                        50.7504
        40.7504
 -20830360.21948 -16157211.20346
                  20887076.9144                                   20887072.6374
                                                                        52.5004
        40.5004
  -9422091.48447  -7299490.85945
                  21469394.9534                                   21469390.3794
                                                                        47.7504
        34.7504
   -678838.12546   -514081.20743
                  23903741.8054                                   23903735.3364
                                                                        40.5004
        22.5004
 -16958931.95747 -13194232.22344
                  22696483.2664                                   22696478.5514
                                                                        45.5004
        29.7504
 -17095360.21548 -13255626.73846
                  21985974.2664                                   21985970.4344
                                                                        49.7504
        38.0004
  -5122532.03547  -3956407.09844
                  23808462.8914                                   23808458.6914
                                                                        42.7504
        24.0004
  -4801400.88747  -3726115.40644
                  23789326.7114                                   23789321.3914
                                                                        43.7504
        24.0004
 09 10 23  0 12  0.0000000  0 10G02G04G05G10G13G23G25G29G16G07
  -7922774.87148  -6134424.77746
                  20859109.6094                                   20859103.1764
                                                                        53.0004
        41.0004
    915456.92647    720453.99244
                  23406443.6884                                   23406439.4574
                                                                        46.5004
        29.5004
 -22289184.99248 -17296560.12946
                  21538338.1564                                   21538333.5204
                                                                        50.2504
        41.2504
 -20984747.46948 -16277512.98846
                  20857698.0004                                   20857693.8204
                                                                        52.5004
        41.5004
  -9470279.08248  -7337039.60945
                  21460225.2274                                   21460220.4804
                                                                        48.2504
        34.5004
   -672156.38746   -508874.69143
                  23905013.1174                                   23905007.2734
                                                                        41.2504
        22.5004
 -17095734.31247 -13300831.44944
                  22670450.0554                                   22670445.9344
                                                                        45.0004
        29.7504
 -17212167.30148 -13346645.25046
                  21963746.9064                                   21963742.7734
                                                                        49.0004
        38.5004
  -5264589.46946  -4067101.23443
                  23781430.9384                                   23781425.9494
                                                                        41.2504
        22.0004
  -4986268.93047  -3870168.35544
                  23754147.2734                                   23754143.1764
                                                                        42.5004
        25.5004
 09 10 23  0 12 30.0000000  0 10G02G04G05G10G13G23G25G29G16G07
  -7962755.36748  -6165578.42646
                  20851501.5704                                   20851494.8674
                                                                        53.0004
        41.0004
    929352.84847    731281.93444
                  23409088.3284                                   23409084.3914
                                                                        45.0004
        28.7504
 -22460236.28548 -17429846.85246
                  21505787.8984                                   21505783.4344
                                                                        51.0004
        41.0004
 -21138615.19948 -16397409.97346
                  20828417.8914                                   20828414.0744
                                                                        52.0004
        41.5004
  -9517854.69948  -7374111.51245
                  21451171.8204                                   21451166.8834
                                                                        48.0004
        34.0004
   -665186.32447   -503443.52043
                  23906339.7584                                   23906333.8754
                                                                        42.7504
        22.5004
 -17231978.69547 -13406995.89144
                  22644524.4064                                   22644519.5354
                                                                        45.7504
        29.5004
 -17328354.35548 -13437180.59846
                  21941637.1804                                   21941633.5704
                                                                        49.7504
        38.5004
  -5406078.92247  -4177352.73043
                  23754505.2664                                   23754500.9494
                                                                        42.5004
        21.5004
  -5170774.85947  -4013939.15244
                  23719037.3444                                   23719032.8634
                                                                        43.5004
        27.0004
 09 10 23  0 13  0.0000000  0 10G02G04G05G10G13G23G25G29G16G07
  -8002193.42648  -6196309.38746
                  20843996.6254                                   20843990.3754
                                                                        53.0004
        41.0004
    943459.52347    742274.07044
                  23411772.1334                                   23411769.0594
                                                                        45.5004
        28.2504
 -22630868.85248 -17562807.30546
                  21473317.7274                                   21473313.2074
                                                                        51.5004
        41.0004
 -21291962.59048 -16516901.44946
                  20799236.8364                                   20799233.1884
                                                                        52.0004
        41.0004
  -9564820.93048  -7410708.58245
                  21442234.5944                                   21442229.8134
                                                                        48.5004
        34.7504
   -657931.50047   -497790.50043
                  23907720.9614                                   23907714.1134
                                                                        43.0004
        23.7504
 -17367664.72347 -13512725.25845
                  22618704.1484                                   22618698.9454
                                                                        45.7504
        30.2504
 -17443921.13748 -13527232.69146
                  21919645.5234                                   21919641.1954
                                                                        50.7504
        38.0004
  -5547000.05946  -4287161.46543
                  23727689.2194                                   23727684.4144
                                                                        41.5004
        20.5004
  -5354916.93447  -4157426.45744
                  23683996.5474                                   23683991.6954
                                                                        44.0004
        27.5004
 09 10 23  0 13 30.0000000  0 10G02G04G05G10G13G23G25G29G16G07
  -8041087.17248  -6226616.21946
                  20836595.3674                                   20836588.9184
                                                                        53.2504
        41.2504
    957778.27447    753431.44644
                  23414496.5554                                   23414493.6334
                                                                        44.7504
        27.5004
 -22801078.47748 -17695438.17246
                  21440928.0474                                   21440923.3094
                                                                        51.0004
        41.0004
 -21444785.16848 -16635983.99646
                  20770155.9614                                   20770151.8164
                                                                        51.5004
        40.2504
  -9611176.21948  -7446829.57445
                  21433413.3364                                   21433408.4454
                                                                        48.7504
        33.5004
   -650391.21546   -491915.02743
                  23909156.2344                                   23909148.6134
                                                                        41.5004
        23.5004
 -17502787.40647 -13618015.64144
                  22592990.9224                                   22592985.8754
                                                                        46.5004
        29.0004
 -17558864.31648 -13616798.82446
                  21897772.5554                                   21897768.6764
                                                                        49.5004
        38.2504
  -5687347.82447  -4396523.40643
                  23700981.6724                                   23700976.9064
                                                                        42.0004
        20.5004
  -5538688.78547  -4300625.18044
                  23649025.6174                                   23649021.2304
                                                                        42.2504
        28.0004
 09 10 23  0 14  0.0000000  0 10G02G04G05G10G13G23G25G29G16G07
  -6504018.70748  -5028900.54346
                  21129089.8204                                   21129083.6374
                                                                        52.7504
        41.2504
   2547724.74647   1992350.74244
                  23717053.9064                                   23717050.3284
                                                                        45.5004
        27.7504
 -21395439.25848 -16600134.87946
                  21708412.6094                                   21708408.0904
                                                                        52.0004
        41.0004
 -20021658.59848 -15527054.20746
                  21040967.8594                                   21040963.7274
                                                                        52.0004
        40.7504
  -8081502.84048  -6254876.29745
                  21724500.8594                                   21724495.4774
                                                                        49.2504
        34.0004
    932850.00846    741779.34043
                  24210435.8754                                   24210429.8754
                                                                        39.2504
        22.0004
 -16061922.77047 -12495264.00445
                  22867178.2344                                   22867173.3054
                                                                        46.0004
        30.0004
 -16097760.75848 -12478276.58646
                  22175811.3054                                   22175807.3874
                                                                        50.0004
        38.0004
  -4251697.50846  -3277834.85543
                  23974176.4144                                   23974172.0124
                                                                        41.0004
        19.7504
  -4146663.20347  -3215929.78944
                  23913919.0164                                   23913914.8164
                                                                        43.2504
        28.0004
 09 10 23  0 14 30.0000000  0 10G02G04G05G10G13G23G25G29G16G07
  -6541829.47348  -5058363.51246
                  21121894.8594                                   21121888.3444
                                                                        52.2504
        41.0004
   2562460.31647   2003832.96544
                  23719858.3054                                   23719854.1254
                                                                        46.0004
        28.2504
 -21564797.93748 -16732102.72346
                  21676184.3204                                   21676180.0784
                                                                        51.7504
        41.0004
 -20173428.68448 -15645316.64846
                  21012086.9224                                   21012082.7544
                                                                        51.7504
        40.7504
  -8126643.34848  -6290050.72745
                  21715910.4304                                   21715905.5984
                                                                        48.5004
        34.2504
    940952.20746    748092.52043
                  24211978.0634                                   24211971.3914
                                                                        38.5004
        20.0004
 -16195915.94147 -12599674.29344
                  22841680.3054                                   22841675.2504
                                                                        46.0004
        29.2504
 -16211454.91448 -12566869.44546
                  22154176.2894                                   22154172.2704
                                                                        50.0004
        38.0004
  -4390894.39546  -3386299.96543
                  23947688.5634                                   23947684.0274
                                                                        41.5004
        21.2504
  -4329687.27747  -3358545.89144
                  23879091.0394                                   23879085.8714
                                                                        43.0004
        28.5004
 09 10 23  0 15  0.0000000  0 10G02G04G05G10G13G23G25G29G16G07
  -6579103.40648  -5087408.17646
                  21114801.9534                                   21114795.3674
                                                                        52.7504
        40.7504
   2577398.72347   2015473.25044
                  23722700.7664                                   23722697.1454
                                                                        45.0004
        27.7504
 -21733731.93748 -16863739.62546
                  21644037.4614                                   21644032.7774
                                                                        51.5004
        40.5004
 -20324673.10548 -15763169.48446
                  20983306.1334                                   20983301.9184
                                                                        51.7504
        40.5004
  -8171181.49648  -6324755.77345
                  21707435.1254                                   21707430.6254
                                                                        48.7504
        33.7504
    949329.22346    754619.96143
                  24213572.4694                                   24213565.4454
                                                                        41.2504
        20.0004
 -16329344.31647 -12703644.48444
                  22816290.2664                                   22816285.2624
                                                                        45.2504
        28.2504
 -16324526.71148 -12654977.35246
                  22132659.0864                                   22132655.2664
                                                                        49.5004
        38.7504
  -4529516.19146  -3494316.95743
                  23921309.7584                                   23921305.5554
                                                                        41.5004
        22.2504
  -4512335.00047  -3500868.74644
                  23844334.1564                                   23844329.4304
                                                                        43.5004
        28.2504
 09 10 23  0 15 30.0000000  0 10G02G04G05G10G13G23G25G29G16G07
  -6615845.39548  -5116038.31646
                  21107810.0314                                   21107803.7154
                                                                        52.5004
        41.2504
   2592534.03547   2027266.94944
                  23725581.0084                                   23725577.7854
                                                                        43.5004
        28.5004
 -21902241.29348 -16995045.63746
                  21611970.8134                                   21611966.5744
                                                                        50.5004
        41.0004
 -20475393.04348 -15880613.60546
                  20954625.2274                                   20954620.8834
                                                                        52.5004
        40.7504
  -8215123.14548  -6358996.04345
                  21699073.6484                                   21699068.6604
                                                                        49.2504
        33.5004
    957974.89546    761356.67243
                  24215217.8914                                   24215210.9574
                                                                        39.5004
        20.7504
 -16462210.57447 -12807176.64145
                  22791006.0944                                   22791001.2624
                                                                        45.5004
        30.5004
 -16436977.21548 -12742601.14546
                  22111260.8914                                   22111256.6914
                                                                        50.0004
        39.2504
  -4667564.09847  -3601886.79343
                  23895040.5084                                   23895036.0394
                                                                        43.0004
        22.7504
  -4694607.96147  -3642899.58644
                  23809648.3754                                   23809644.1024
                                                                        42.2504
        27.5004
 09 10 23  0 16  0.0000000  0 10G02G04G05G10G13G23G25G29G16G07
  -6652054.97748  -5144253.59046
                  21100919.8364                                   21100913.4884
                                                                        52.2504
        41.0004
   2607866.20347   2039214.01244
                  23728498.3134                                   23728495.5124
                                                                        43.5004
        29.2504
 -22070323.62148 -17126018.91846
                  21579986.1644                                   21579981.6564
                                                                        50.7504
        40.7504
 -20625585.72748 -15997646.86746
                  20926044.1724                                   20926040.2234
                                                                        51.2504
        41.0004
  -8258467.98848  -6392771.25045
                  21690825.5704                                   21690820.6254
                                                                        49.0004
        34.2504
    966888.25446    768302.12143
                  24216914.0084                                   24216907.0634
                                                                        41.5004
        20.5004
 -16594511.16047 -12910268.06644
                  22765829.9384                                   22765825.3794
                                                                        46.5004
        29.0004
 -16548804.79348 -12829739.51246
                  22089980.5394                                   22089976.5984
                                                                        49.2504
        39.0004
  -4805035.11747  -3709007.08243
                  23868880.7274                                   23868876.5274
                                                                        43.0004
        23.0004
  -4876501.07046  -3784634.41844
                  23775035.4454                                   23775030.5824
                                                                        40.5004
        27.2504
 09 10 23  0 16 30.0000000  0 10G02G04G05G10G13G23G25G29G16G07
  -6687737.31648  -5172058.02746
                  21094129.5784                                   21094123.0634
                                                                        52.5004
        41.0004
   2623389.96947   2051310.42644
                  23731452.6884                                   23731449.5784
                                                                        42.7504
        27.7504
 -22237980.55548 -17256660.69546
                  21548081.9694                                   21548077.5474
                                                                        51.0004
        40.7504
 -20775253.23848 -16114270.87546
                  20897563.6174                                   20897559.3914
                                                                        52.5004
        41.5004
  -8301221.75848  -6426085.86345
                  21682689.4144                                   21682684.8284
                                                                        49.5004
        34.2504
    976062.43446    775450.64543
                  24218660.2584                                   24218653.4924
                                                                        41.2504
        22.2504
 -16726248.24247 -13012920.37144
                  22740761.2734                                   22740756.8014
                                                                        46.5004
        29.5004
 -16660012.12948 -12916394.57046
                  22068818.3054                                   22068814.3054
                                                                        49.2504
        38.5004
  -4941930.77947  -3815678.99943
                  23842830.2274                                   23842825.9304
                                                                        42.0004
        22.7504
  -5058015.10947  -3926073.88344
                  23740493.9144                                   23740489.1094
                                                                        42.5004
        25.2504
 09 10 23  0 17  0.0000000  0  9G02G04G05G10G13G25G29G16G07
  -6722891.83248  -5199451.16446
                  21087439.8444                                   21087433.5634
                                                                        52.0004
        41.0004
   2639105.05147   2063555.87544
                  23734443.7504                                   23734439.7424
                                                                        43.0004
        28.2504
 -22405208.68448 -17386968.37946
                  21516259.6644                                   21516255.3164
                                                                        51.0004
        41.0004
 -20924392.74648 -16230483.49646
                  20869183.3674                                   20869179.3794
                                                                        51.5004
        41.0004
  -8343384.42248  -6458939.88745
                  21674666.1954                                   21674661.2344
                                                                        49.0004
        34.2504
 -16857418.34847 -13115130.86744
                  22715800.7504                                   22715795.7934
                                                                        45.2504
        29.5004
 -16770597.37148 -13002564.94946
                  22047774.8364                                   22047770.5634
                                                                        48.7504
        38.5004
  -5078248.10946  -3921900.25444
                  23816889.6884                                   23816885.9804
                                                                        41.5004
        24.2504
  -5239145.15646  -4067214.14844
                  23706026.3284                                   23706021.1724
                                                                        40.5004
        26.0004
 09 10 23  0 17 30.0000000  0  9G02G04G05G10G13G25G29G16G07
  -6757519.14548  -5226433.48846
                  21080850.6334                                   21080844.0824
                                                                        52.2504
        41.5004
   2655010.30147   2075949.53944
                  23737470.0554                                   23737466.5394
                                                                        42.5004
        28.2504
 -22572004.80548 -17516939.38346
                  21484519.4454                                   21484515.1414
                                                                        50.0004
        41.5004
 -21073001.01648 -16346282.14146
                  20840903.9844                                   20840899.9454
                                                                        51.0004
        40.5004
  -8384956.72748  -6491333.86745
                  21666755.0234                                   21666750.1684
                                                                        49.2504
        33.5004
 -16988019.17647 -13216897.66044
                  22690948.1644                                   22690943.3874
                                                                        46.5004
        29.2504
 -16880557.83248 -13088248.48046
                  22026850.1174                                   22026845.8134
                                                                        48.5004
        38.0004
  -5213983.93047  -4027668.36744
                  23791060.3754                                   23791055.9384
                                                                        42.0004
        26.7504
  -5419887.25046  -4208052.08644
                  23671632.4064                                   23671627.8444
                                                                        41.2504
        26.2504
 09 10 23  0 18  0.0000000  0  9G02G04G05G10G13G25G29G16G07
  -6791613.83248  -5253000.78946
                  21074362.1094                                   21074355.9104
                                                                        51.0004
        41.0004
   2671110.48047   2088495.07444
                  23740533.7664                                   23740530.2624
                                                                        43.5004
        27.5004
 -22738360.32848 -17646567.03946
                  21452862.8364                                   21452858.3874
                                                                        50.2504
        40.7504
 -21221070.05148 -16461660.61746
                  20812727.8134                                   20812723.2704
                                                                        51.5004
        40.7504
  -8425933.74248  -6523264.02745
                  21658957.5554                                   21658952.9224
                                                                        48.7504
        33.5004
 -17118042.69947 -13318214.74244
                  22666205.3204                                   22666200.6724
                                                                        45.0004
        29.7504
 -16989886.01648 -13173439.28146
                  22006045.8364                                   22006041.3984
                                                                        48.7504
        38.2504
  -5349129.97347  -4132976.93444
                  23765342.8674                                   23765338.8444
                                                                        42.2504
        26.0004
  -5600231.49646  -4348580.02044
                  23637313.8754                                   23637308.9804
                                                                        41.5004
        27.0004
 09 10 23  0 18 30.0000000  0  9G02G04G05G10G13G25G29G16G07
  -6825171.73448  -5279149.80546
                  21067976.2974                                   21067970.2504
                                                                        51.2504
        40.2504
   2687409.42647   2101195.47744
                  23743635.4614                                   23743632.0594
                                                                        45.0004
        26.7504
 -22904268.50448 -17775846.14546
                  21421291.6094                                   21421287.2584
                                                                        50.5004
        41.2504
 -21368593.10948 -16576613.64846
                  20784654.8444                                   20784650.7344
                                                                        52.2504
        41.5004
  -8466312.03548  -6554727.62545
                  21651273.2814                                   21651269.0084
                                                                        49.2504
        33.5004
 -17247481.66447 -13419076.26244
                  22641573.7894                                   22641569.5314
                                                                        45.5004
        29.5004
 -17098576.84048 -13258133.45346
                  21985362.3674                                   21985358.1994
                                                                        49.0004
        38.2504
  -5483679.41847  -4237820.61744
                  23739739.2114                                   23739734.6134
                                                                        42.7504
        25.0004
  -5780169.26546  -4488791.24344
                  23603073.0944                                   23603068.0904
                                                                        41.7504
        27.7504
 09 10 23  0 19  0.0000000  0  9G02G04G05G10G13G25G29G16G07
  -6858196.92648  -5304883.72346
                  21061692.1804                                   21061686.0944
                                                                        52.0004
        41.0004
   2703901.99647   2114046.80944
                  23746773.8524                                   23746770.5234
                                                                        43.5004
        27.0004
 -23069729.64148 -17904776.89846
                  21389805.7194                                   21389801.1524
                                                                        50.2504
        41.2504
 -21515571.37548 -16691142.14546
                  20756685.7894                                   20756681.7274
                                                                        51.5004
        40.7504
  -8506096.55548  -6585728.56645
                  21643702.8444                                   21643697.9804
                                                                        49.2504
        34.0004
 -17376338.12947 -13519483.92644
                  22617053.2584                                   22617048.9694
                                                                        45.7504
        29.7504
 -17206631.41448 -13342331.82846
                  21964800.3284                                   21964796.2034
                                                                        49.0004
        39.0004
  -5617633.03547  -4342200.00044
                  23714248.3914                                   23714244.2704
                                                                        42.0004
        25.7504
  -5959701.04346  -4628686.07044
                  23568909.2274                                   23568904.2504
                                                                        41.5004
        28.7504
 09 10 23  0 19 30.0000000  0  9G02G04G05G10G13G25G29G16G07
  -6890698.63748  -5330209.73846
                  21055507.1334                                   21055500.8054
                                                                        51.5004
        40.7504
   2720579.08247   2127041.85544
                  23749947.3054                                   23749943.8204
                                                                        43.0004
        25.2504
 -23234749.57048 -18033363.83646
                  21358403.0164                                   21358398.9144
                                                                        50.0004
        41.2504
 -21662010.35248 -16805250.42246
                  20728819.5004                                   20728815.1994
                                                                        52.2504
        41.0004
  -8545296.38348  -6616273.98045
                  21636243.4384                                   21636238.8134
                                                                        49.2504
        34.0004
 -17504617.59447 -13619441.99244
                  22592642.7274                                   22592638.2934
                                                                        45.2504
        29.5004
 -17314056.31648 -13426039.55146
                  21944357.9064                                   21944354.1684
                                                                        48.0004
        38.7504
  -5750996.58247  -4446119.66044
                  23688870.2894                                   23688865.6804
                                                                        42.2504
        24.5004
  -6138830.96147  -4768267.77744
                  23534821.6644                                   23534816.8714
                                                                        42.0004
        29.7504
 09 10 23  0 20  0.0000000  0  9G02G04G05G10G13G25G29G16G07
  -6922679.68448  -5355130.02346
                  21049421.5394                                   21049414.9384
                                                                        51.5004
        40.5004
   2737437.36347   2140178.10244
                  23753155.7194                                   23753152.4694
                                                                        43.0004
        26.7504
 -23399328.21148 -18161606.88346
                  21327084.9384                                   21327080.3094
                                                                        50.0004
        41.0004
 -21807910.79348 -16918939.04746
                  20701055.1884                                   20701051.3284
                                                                        51.5004
        41.2504
  -8583914.88748  -6646366.31245
                  21628895.0314                                   21628890.1024
                                                                        49.2504
        34.0004
 -17632320.23847 -13718950.47345
                  22568341.4454                                   22568337.5824
                                                                        46.5004
        30.0004
 -17420853.09848 -13509257.83246
                  21924035.1414                                   21924031.0554
                                                                        48.0004
        38.0004
  -5883770.38747  -4549579.74244
                  23663604.5634                                   23663599.6484
                                                                        43.2504
        24.7504
  -6317557.67247  -4907535.27044
                  23500811.0004                                   23500806.4964
                                                                        42.5004
        29.0004
 09 10 23  0 20 30.0000000  0  9G02G04G05G10G13G25G29G16G07
  -6954143.28948  -5379647.11746
                  21043433.9844                                   21043427.5864
                                                                        51.0004
        40.7504
   2754473.16247   2153452.71544
                  23756397.1174                                   23756393.9104
                                                                        43.2504
        26.0004
 -23563465.55148 -18289506.08246
                  21295850.7814                                   21295845.9384
                                                                        50.5004
        40.7504
 -21953272.82048 -17032208.12946
                  20673393.7814                                   20673389.7854
                                                                        52.5004
        40.7504
  -8621955.63548  -6676008.50245
                  21621655.7034                                   21621651.1174
                                                                        49.2504
        33.2504
 -17759446.39447 -13818009.81244
                  22544150.1804                                   22544146.1604
                                                                        45.7504
        29.0004
 -17527022.54748 -13591987.30946
                  21903832.0314                                   21903827.6644
                                                                        48.5004
        38.5004
  -6015954.20346  -4652580.07444
                  23638450.8204                                   23638445.5274
                                                                        41.2504
        24.5004
  -6495879.40447  -5046487.18744
                  23466877.5554                                   23466872.9494
                                                                        42.5004
        28.2504
 09 10 23  0 21  0.0000000  0  9G02G04G05G10G13G25G29G16G07
  -6985095.11748  -5403765.44146
                  21037544.3914                                   21037537.6764
                                                                        52.0004
        40.5004
   2771679.81647   2166860.44144
                  23759671.3054                                   23759668.2704
                                                                        42.7504
        27.0004
 -23727164.02048 -18417063.32446
                  21264699.5234                                   21264695.3594
                                                                        50.7504
        41.0004
 -22098099.16448 -17145059.80146
                  20645834.4384                                   20645830.1294
                                                                        52.2504
        41.0004
  -8659425.35248  -6705205.85945
                  21614525.6644                                   21614520.9494
                                                                        49.5004
        33.0004
 -17885999.44547 -13916622.56645
                  22520068.2194                                   22520063.8634
                                                                        46.5004
        30.7504
 -17632568.33248 -13674230.78546
                  21883747.4694                                   21883743.2234
                                                                        49.0004
        38.2504
  -6147551.27047  -4755123.23843
                  23613408.2344                                   23613403.2704
                                                                        42.0004
        22.7504
  -6673798.42246  -5185125.33244
                  23433019.7584                                   23433015.6914
                                                                        39.7504
        27.2504
 09 10 23  0 21 30.0000000  0  9G02G04G05G10G13G25G29G16G07
  -7015536.60248  -5427486.08246
                  21031751.3054                                   21031745.0274
                                                                        51.5004
        41.0004
   2789055.93047   2180400.14844
                  23762978.8054                                   23762974.6994
                                                                        42.5004
        26.5004
 -23890421.28948 -18544276.73046
                  21233632.9614                                   21233628.6054
                                                                        50.5004
        41.5004
 -22242388.40248 -17257492.94946
                  20618377.0554                                   20618372.6174
                                                                        52.5004
        41.2504
  -8696324.98448  -6733958.87945
                  21607504.0554                                   21607499.3094
                                                                        49.5004
        33.0004
 -18011977.64147 -14014787.43045
                  22496095.4304                                   22496091.3404
                                                                        47.0004
        30.2504
 -17737489.62948 -13755987.63746
                  21863781.6564                                   21863777.3554
                                                                        48.0004
        38.5004
  -6278559.12946  -4857207.20743
                  23588477.9774                                   23588473.3404
                                                                        41.2504
        22.5004
  -6851311.13746  -5323446.86344
                  23399240.6484                                   23399236.0514
                                                                        40.2504
        25.7504
 09 10 23  0 22  0.0000000  0  9G02G04G05G10G13G25G29G16G07
  -7045469.89548  -5450810.71946
                  21026055.6024                                   21026049.0434
                                                                        51.5004
        41.0004
   2806598.71947   2194069.78144
                  23766317.1024                                   23766313.0634
                                                                        43.7504
        26.5004
 -24053236.71148 -18671145.85246
                  21202650.1884                                   21202645.6884
                                                                        51.0004
        41.7504
 -22386139.71548 -17369506.97346
                  20591021.9614                                   20591017.8014
                                                                        52.2504
        41.0004
  -8732657.77348  -6762270.14845
                  21600590.1414                                   21600585.5204
                                                                        49.2504
        32.0004
 -18137380.48847 -14112503.97745
                  22472232.3134                                   22472227.5124
                                                                        46.7504
        30.7504
 -17841786.50048 -13837257.91846
                  21843934.1254                                   21843930.3524
                                                                        48.2504
        39.0004
  -6408977.36346  -4958831.72343
                  23563659.8914                                   23563655.1604
                                                                        41.5004
        22.7504
  -7028415.59847  -5461450.32844
                  23365539.2504                                   23365534.4924
                                                                        42.0004
        27.5004
 09 10 23  0 22 30.0000000  0  9G02G04G05G10G13G25G29G16G07
  -5499471.26648  -4246136.46546
                  21320249.1094                                   21320242.5514
                                                                        51.5004
        40.5004
   4399730.01647   3435470.72744
                  24069479.4144                                   24069476.1914
                                                                        44.0004
        24.7504
 -22640179.16848 -17570061.99647
                  21471546.1954                                   21471541.6214
                                                                        52.0004
        42.2504
 -20953922.82448 -16253493.80946
                  20863563.8524                                   20863559.6374
                                                                        53.0004
        41.0004
  -7193000.39548  -5562537.15245
                  21893576.9614                                   21893572.3404
                                                                        49.5004
        32.2504
 -16686778.41447 -12982164.72745
                  22748272.2034                                   22748267.6724
                                                                        47.0004
        30.5004
 -16370031.25048 -12690435.70346
                  22124000.0084                                   22123996.2624
                                                                        49.5004
        38.5004
  -4963376.29746  -3832389.30943
                  23838749.1804                                   23838743.3714
                                                                        41.0004
        21.7504
  -5629678.68447  -4371525.44544
                  23631710.1094                                   23631705.0434
                                                                        43.7504
        29.0004
 09 10 23  0 23  0.0000000  0  9G02G04G05G10G13G25G29G16G07
  -5528388.62948  -4268669.47746
                  21314746.3444                                   21314739.9884
                                                                        51.0004
        40.5004
   4417604.51647   3449398.79744
                  24072880.5864                                   24072878.0634
                                                                        43.2504
        26.7504
 -22802101.91448 -17696235.52047
                  21440732.9774                                   21440728.9264
                                                                        51.0004
        42.0004
 -21096590.27748 -16364663.23846
                  20836414.8754                                   20836410.9774
                                                                        53.0004
        41.2504
  -7228201.53948  -5589966.58245
                  21886878.6564                                   21886874.0904
                                                                        49.2504
        32.2504
 -16811022.78947 -13078978.58244
                  22724629.8054                                   22724624.9344
                                                                        46.2504
        29.7504
 -16473074.36348 -12770729.04346
                  22104391.5944                                   22104387.9574
                                                                        48.7504
        38.5004
  -5092607.32446  -3933088.82443
                  23814156.6174                                   23814152.4734
                                                                        40.7504
        22.0004
  -5805953.54747  -4508882.44544
                  23598165.9384                                   23598160.9774
                                                                        43.2504
        28.2504
 09 10 23  0 23 30.0000000  0  9G02G04G05G10G13G25G29G16G07
  -5556803.38348  -4290810.84046
                  21309339.2034                                   21309333.2774
                                                                        51.2504
        40.7504
   4435639.08247   3463451.56644
                  24076312.8364                                   24076309.9654
                                                                        43.0004
        26.7504
 -22963578.16448 -17822061.22346
                  21410005.3594                                   21410000.8444
                                                                        52.0004
        41.7504
 -21238716.54348 -16475410.93746
                  20809369.1414                                   20809365.2034
                                                                        52.2504
        41.5004
  -7262842.63748  -5616959.64545
                  21880286.8284                                   21880281.9454
                                                                        49.2504
        33.2504
 -16934689.07847 -13175342.07845
                  22701096.6024                                   22701092.1174
                                                                        46.5004
        30.2504
 -16575492.12548 -12850535.07446
                  22084902.1564                                   22084898.4534
                                                                        50.0004
        38.2504
  -5221245.01646  -4033325.98043
                  23789677.8984                                   23789673.3714
                                                                        41.0004
        22.7504
  -5981812.45347  -4645915.34844
                  23564700.7344                                   23564696.2424
                                                                        43.0004
        28.7504
 09 10 23  0 24  0.0000000  0  9G02G04G05G10G13G25G29G16G07
  -5584717.14548  -4312561.81646
                  21304027.6884                                   21304021.0984
                                                                        52.0004
        40.2504
   4453831.94147   3477627.72744
                  24079775.3594                                   24079771.6724
                                                                        44.0004
        26.2504
 -23124606.91448 -17947538.17646
                  21379362.7034                                   21379357.8594
                                                                        51.7504
        41.0004
 -21380300.67248 -16585736.23446
                  20782426.5784                                   20782422.9024
                                                                        52.5004
        41.2504
  -7296925.88348  -5643517.96545
                  21873800.7664                                   21873796.1994
                                                                        48.5004
        33.0004
 -17057775.66447 -13271253.66845
                  22677674.3134                                   22677669.2384
                                                                        46.7504
        30.2504
 -16677285.10248 -12929854.32046
                  22065531.7114                                   22065527.6054
                                                                        49.5004
        38.2504
  -5349288.47746  -4133100.07843
                  23765311.8204                                   23765307.9144
                                                                        41.0004
        22.0004
  -6157252.01247  -4782621.47344
                  23531316.1414                                   23531311.2704
                                                                        43.0004
        29.2504
 09 10 23  0 24 30.0000000  0  9G02G04G05G10G13G25G29G16G07
  -5612130.55148  -4333922.90246
                  21298810.5704                                   21298804.4734
                                                                        51.7504
        40.2504
   4472181.77347   3491926.19144
                  24083267.5634                                   24083263.9064
                                                                        44.2504
        27.2504
 -23285184.97748 -18072663.95346
                  21348805.4304                                   21348800.8164
                                                                        51.5004
        41.5004
 -21521340.10248 -16695637.10246
                  20755587.9774                                   20755583.8874
                                                                        52.2504
        41.7504
  -7330452.63348  -5669642.76245
                  21867420.8284                                   21867416.1024
                                                                        48.5004
        33.0004
 -17180281.02047 -13366712.34845
                  22654362.2274                                   22654357.3094
                                                                        46.2504
        30.5004
 -16778451.02348 -13008684.93446
                  22046280.5234                                   22046276.7504
                                                                        50.0004
        38.5004
  -5476734.94546  -4232408.91843
                  23741060.2424                                   23741055.4414
                                                                        41.5004
        22.5004
  -6332268.71547  -4918998.13744
                  23498010.8364                                   23498006.3874
                                                                        43.0004
        29.0004
 09 10 23  0 25  0.0000000  0  9G02G04G05G10G13G25G29G16G07
  -5639047.68448  -4354897.28946
                  21293688.5634                                   21293681.8524
                                                                        51.0004
        40.5004
   4490684.46947   3506343.71544
                  24086788.4924                                   24086785.5204
                                                                        42.5004
        27.0004
 -23445313.31248 -18197439.27046
                  21318334.6334                                   21318329.6724
                                                                        52.2504
        41.7504
 -21661836.19548 -16805114.60946
                  20728852.2894                                   20728848.1054
                                                                        53.0004
        41.2504
  -7363427.18048  -5695337.23845
                  21861145.9384                                   21861141.4224
                                                                        48.5004
        32.0004
 -17302206.14547 -13461718.94544
                  22631160.2114                                   22631155.3524
                                                                        45.5004
        29.5004
 -16878992.29748 -13087028.79746
                  22027147.9384                                   22027144.0084
                                                                        50.5004
        38.2504
  -5603585.66447  -4331253.49243
                  23716921.0864                                   23716916.0704
                                                                        42.2504
        22.7504
  -6506862.25047  -5055045.05544
                  23464787.3594                                   23464782.3674
                                                                        43.0004
        28.7504
 09 10 23  0 25 30.0000000  0  9G02G04G05G10G13G25G29G16G07
  -5665468.61748  -4375485.02746
                  21288660.9304                                   21288654.4064
                                                                        51.7504
        40.2504
   4509339.25446   3520879.68844
                  24090338.5944                                   24090335.0664
                                                                        41.5004
        25.5004
 -23604988.89148 -18321861.80946
                  21287948.8984                                   21287944.1214
                                                                        52.5004
        41.0004
 -21801786.23048 -16914166.59047
                  20702220.4534                                   20702216.6054
                                                                        52.5004
        42.0004
  -7395849.97348  -5720601.76645
                  21854976.2814                                   21854971.6054
                                                                        48.0004
        32.5004
 -17423548.56647 -13556271.56644
                  22608069.8204                                   22608065.0594
                                                                        46.0004
        29.7504
 -16978907.18748 -13164884.58246
                  22008135.1724                                   22008131.0314
                                                                        50.5004
        39.0004
  -5729838.10547  -4429631.94944
                  23692896.4924                                   23692890.7234
                                                                        43.2504
        24.7504
  -6681028.04347  -5190758.64544
                  23431644.4454                                   23431639.6174
                                                                        42.0004
        27.7504
 09 10 23  0 26  0.0000000  0  9G02G04G05G10G13G25G29G16G07
  -5691392.82448  -4395685.70346
                  21283727.9534                                   21283721.3714
                                                                        51.2504
        40.5004
   4528146.35246   3535534.45344
                  24093916.0704                                   24093913.8794
                                                                        41.0004
        26.5004
 -23764207.34448 -18445928.13747
                  21257650.7974                                   21257646.3794
                                                                        52.0004
        42.0004
 -21941186.41448 -17022790.10946
                  20675693.8444                                   20675689.4804
                                                                        52.7504
        41.5004
  -7427721.51248  -5745436.72745
                  21848911.7274                                   21848906.7734
                                                                        48.0004
        32.5004
 -17544305.26647 -13650367.70744
                  22585090.7274                                   22585085.9184
                                                                        46.5004
        29.7504
 -17078192.64148 -13242249.91046
                  21989241.5554                                   21989237.8014
                                                                        50.7504
        38.7504
  -5855488.35947  -4527541.19544
                  23668985.4224                                   23668980.2774
                                                                        43.2504
        26.0004
  -6854761.70747  -5326135.53144
                  23398583.6804                                   23398579.6054
                                                                        43.0004
        29.2504
 09 10 23  0 26 30.0000000  0  9G02G04G05G10G13G25G29G16G07
  -5716821.31648  -4415500.12946
                  21278888.7584                                   21278882.4064
                                                                        50.7504
        39.5004
   4547105.63746   3550307.92243
                  24097524.9614                                   24097521.8984
                                                                        40.5004
        23.5004
 -23922967.26248 -18569637.16846
                  21227439.4614                                   21227435.2304
                                                                        51.7504
        41.5004
 -22080035.35948 -17130984.10246
                  20649271.7194                                   20649267.1454
                                                                        52.7504
        41.7504
  -7459042.68748  -5769842.84045
                  21842951.0234                                   21842946.4024
                                                                        48.0004
        33.0004
 -17664473.80147 -13744005.50845
                  22562223.4144                                   22562218.4494
                                                                        45.0004
        30.7504
 -17176848.84048 -13319124.93046
                  21970468.2814                                   21970463.9964
                                                                        50.0004
        38.7504
  -5980534.85547  -4624979.98043
                  23645189.8754                                   23645184.9924
                                                                        42.7504
        22.2504
  -7028058.55147  -5461171.99645
                  23365606.7974                                   23365602.1254
                                                                        43.5004
        30.0004
 09 10 23  0 27  0.0000000  0  9G02G04G05G10G13G25G29G16G07
  -5741760.34848  -4434933.13746
                  21274142.8444                                   21274136.5124
                                                                        51.2504
        39.5004
   4566209.08647   3565193.85943
                  24101159.9924                                   24101156.7894
                                                                        42.2504
        23.7504
 -24081270.62548 -18692990.38347
                  21197315.5234                                   21197311.0474
                                                                        52.2504
        42.0004
 -22218336.13748 -17238750.94546
                  20622953.7814                                   20622949.4964
                                                                        52.7504
        41.2504
  -7489820.68047  -5793825.64145
                  21837094.1414                                   21837089.4924
                                                                        47.7504
        32.0004
 -17784058.66047 -13837188.50044
                  22539466.6484                                   22539462.4264
                                                                        45.5004
        29.5004
 -17274878.59048 -13395511.81646
                  21951813.7894                                   21951809.5234
                                                                        51.0004
        39.5004
  -6104980.68047  -4721950.66844
                  23621508.3754                                   23621503.5904
                                                                        43.0004
        25.0004
  -7200921.69947  -5595870.51644
                  23332712.2344                                   23332707.3794
                                                                        43.2504
        28.5004
 09 10 23  0 27 30.0000000  0  9G02G04G05G10G13G25G29G16G07
  -5766212.76648  -4453986.96546
                  21269490.1644                                   21269483.0944
                                                                        51.5004
        39.5004
   4585453.91446   3580189.74643
                  24104822.9694                                   24104818.9884
                                                                        41.7504
        22.7504
 -24239117.50848 -18815987.93046
                  21167278.2664                                   21167274.0124
                                                                        52.0004
        41.7504
 -22356088.71148 -17346090.61346
                  20596740.4064                                   20596736.2584
                                                                        52.0004
        41.7504
  -7520058.70748  -5817387.78945
                  21831340.1334                                   21831335.0864
                                                                        48.0004
        32.2504
 -17903059.37947 -13929916.30545
                  22516821.8054                                   22516817.0474
                                                                        46.2504
        30.5004
 -17372284.00848 -13471412.19546
                  21933278.1884                                   21933274.0434
                                                                        50.2504
        38.7504
  -6228826.20747  -4818453.59444
                  23597941.6644                                   23597936.9264
                                                                        42.5004
        24.7504
  -7373348.81247  -5730229.29344
                  23299900.2894                                   23299895.1644
                                                                        43.0004
        28.5004
 09 10 23  0 28  0.0000000  0  9G02G04G05G10G13G25G29G16G07
  -5790178.09048  -4472661.24646
                  21264929.6484                                   21264922.9384
                                                                        51.5004
        40.0004
   4604840.30147   3595295.82843
                  24108511.6724                                   24108508.4224
                                                                        42.0004
        22.0004
 -24396503.89148 -18938626.69546
                  21137328.5784                                   21137324.2664
                                                                        51.7504
        41.7504
 -22493289.42648 -17453000.23446
                  20570631.8914                                   20570627.6724
                                                                        52.7504
        41.7504
  -7549756.55947  -5840528.98445
                  21825689.1724                                   21825684.4654
                                                                        47.7504
        32.5004
 -18021473.10247 -14022186.79345
                  22494288.0164                                   22494284.1844
                                                                        46.0004
        31.0004
 -17469061.61748 -13546823.37146
                  21914861.9144                                   21914857.9804
                                                                        50.2504
        38.5004
  -6352067.19947  -4914485.46544
                  23574489.1334                                   23574485.1134
                                                                        42.5004
        26.0004
  -7545335.18047  -5864244.65244
                  23267173.0314                                   23267167.2544
                                                                        43.0004
        28.5004
 09 10 23  0 28 30.0000000  0  9G02G04G05G10G13G25G29G16G07
  -5813658.23848  -4490957.47346
                  21260461.4384                                   21260454.9844
                                                                        51.5004
        40.0004
   4624366.50047   3610510.91044
                  24112227.6254                                   24112225.0704
                                                                        43.7504
        26.5004
 -24553429.00848 -19060906.04747
                  21107467.0704                                   21107462.1254
                                                                        51.0004
        42.0004
 -22629938.09848 -17559479.69546
                  20544628.7664                                   20544624.3954
                                                                        53.0004
        41.2504
  -7578917.03548  -5863251.47345
                  21820140.1254                                   21820135.3444
                                                                        48.5004
        32.7504
 -18139299.05947 -14113999.27345
                  22471866.8984                                   22471861.9304
                                                                        45.0004
        31.2504
 -17565212.34848 -13621746.01646
                  21896564.8754                                   21896561.1684
                                                                        50.0004
        39.0004
  -6474704.04347  -5010046.56644
                  23551152.6644                                   23551148.0314
                                                                        42.5004
        26.5004
  -7716878.27347  -5997914.57044
                  23234529.1644                                   23234523.8164
                                                                        42.5004
        29.2504
 09 10 23  0 29  0.0000000  0  9G02G04G05G10G13G25G29G16G07
  -5836654.53148  -4508876.68046
                  21256085.2734                                   21256078.8674
                                                                        51.5004
        40.0004
   4644030.69147   3625833.46944
                  24115969.4844                                   24115967.0394
                                                                        43.7504
        26.0004
 -24709890.01248 -19182823.71147
                  21077693.4304                                   21077688.8714
                                                                        51.5004
        42.7504
 -22766032.60548 -17665527.35546
                  20518730.8054                                   20518726.6024
                                                                        53.2504
        41.7504
  -7607541.71948  -5885556.50845
                  21814693.0474                                   21814688.0944
                                                                        49.0004
        31.7504
 -18256535.53947 -14205352.31645
                  22449557.5704                                   22449553.1094
                                                                        46.2504
        31.0004
 -17660735.05148 -13696179.31646
                  21878387.6804                                   21878383.7774
                                                                        50.0004
        39.2504
  -6596733.91447  -5105134.70344
                  23527930.8754                                   23527926.4574
                                                                        42.5004
        26.0004
  -7887974.64547  -6131236.41044
                  23201970.0784                                   23201965.3284
                                                                        43.5004
        29.2504
 09 10 23  0 29 30.0000000  0  9G02G04G05G10G13G25G29G16G07
  -5859169.72748  -4526421.00446
                  21251800.7274                                   21251794.2234
                                                                        51.2504
        40.0004
   4663829.83247   3641261.12944
                  24119737.1884                                   24119734.3204
                                                                        44.5004
        25.2504
 -24865886.60248 -19304379.50447
                  21048008.2504                                   21048003.7894
                                                                        51.5004
        42.2504
 -22901573.19548 -17771143.43746
                  20492938.0164                                   20492934.0664
                                                                        52.5004
        41.5004
  -7635634.24648  -5907446.82845
                  21809347.2194                                   21809342.2384
                                                                        48.2504
        31.5004
 -18373183.22747 -14296246.57845
                  22427360.2814                                   22427355.6094
                                                                        46.0004
        31.0004
 -17755630.59848 -13770123.88346
                  21860329.3834                                   21860325.8244
                                                                        49.0004
        39.0004
  -6718157.14547  -5199750.15244
                  23504824.6644                                   23504820.2074
                                                                        42.0004
        26.7504
  -8058623.16047  -6264209.27344
                  23169497.2344                                   23169491.8834
                                                                        44.7504
        29.7504
 09 10 23  0 30  0.0000000  0  9G02G04G05G10G13G25G29G16G07
  -5881203.82848  -4543590.44946
                  21247607.8444                                   21247601.5984
                                                                        50.7504
        40.0004
   4683763.95747   3656794.09044
                  24123530.9774                                   24123527.9494
                                                                        43.7504
        24.2504
 -25021415.66048 -19425570.96547
                  21018411.7664                                   21018407.0474
                                                                        52.0004
        42.0004
 -23036556.87148 -17876325.54746
                  20467251.4614                                   20467247.5434
                                                                        52.7504
        41.5004
  -7663194.95747  -5928922.77745
                  21804102.4844                                   21804097.5634
                                                                        47.0004
        31.5004
 -18489239.27047 -14386679.88745
                  22405275.7504                                   22405271.0664
                                                                        45.2504
        30.0004
 -17849897.41448 -13843578.51646
                  21842391.1644                                   21842387.6804
                                                                        50.0004
        38.7504
  -6838971.06247  -5293890.84844
                  23481834.6564                                   23481830.4024
                                                                        42.5004
        25.7504
  -8228818.98047  -6396829.39144
                  23137110.8914                                   23137105.0004
                                                                        43.7504
        29.2504
 09 10 23  0 30 30.0000000  0  9G02G04G05G10G13G25G29G16G07
  -4327336.60548  -3332784.83246
                  21543298.9454                                   21543292.5744
                                                                        50.0004
        39.2504
   6279252.12547   4900031.77043
                  24427141.4064                                   24427138.9694
                                                                        42.0004
        22.7504
 -23601049.25848 -18318791.96547
                  21288698.6954                                   21288694.0744
                                                                        51.5004
        42.0004
 -21595556.88748 -16753468.42246
                  20741464.8914                                   20741460.8674
                                                                        52.5004
        41.0004
  -6114803.47747  -4722384.00845
                  22098751.4144                                   22098746.4184
                                                                        47.5004
        32.0004
 -17029277.80947 -13249047.57845
                  22683096.6484                                   22683092.4414
                                                                        45.0004
        30.5004
 -16368111.03548 -12688939.77046
                  22124365.6724                                   22124362.0554
                                                                        49.5004
        39.0004
  -5383749.11747  -4159951.60244
                  23758754.1884                                   23758749.6644
                                                                        42.2504
        24.5004
  -6823132.77347  -5301489.50044
                  23404602.5864                                   23404598.0664
                                                                        43.0004
        29.2504
 09 10 23  0 31  0.0000000  0  9G02G04G05G10G13G25G29G16G07
  -4348413.97748  -3349208.76246
                  21539288.0314                                   21539281.7704
                                                                        50.7504
        39.7504
   6299450.00047   4915770.19943
                  24430984.9774                                   24430982.4654
                                                                        42.0004
        21.5004
 -23755638.88348 -18439251.42647
                  21259281.3284                                   21259276.6024
                                                                        51.2504
        42.0004
 -21729423.64148 -16857780.17646
                  20715991.2114                                   20715986.9304
                                                                        53.0004
        41.2504
  -6141306.84447  -4743036.10945
                  22093708.1564                                   22093703.5274
                                                                        47.5004
        32.0004
 -17144148.03947 -13338556.84045
                  22661237.9924                                   22661233.1994
                                                                        45.2504
        30.5004
 -16461120.22348 -12761414.44546
                  22106666.9694                                   22106663.0944
                                                                        48.5004
        39.5004
  -5503341.02347  -4253140.07444
                  23735996.2584                                   23735992.0274
                                                                        42.2504
        26.2504
  -6992415.27746  -5433397.94544
                  23372389.3364                                   23372384.9304
                                                                        41.5004
        27.7504
 09 10 23  0 31 30.0000000  0  9G02G04G05G10G13G25G29G16G07
  -4369016.16048  -3365262.41846
                  21535367.6564                                   21535361.3284
                                                                        51.0004
        39.7504
   6319776.61747   4931609.00843
                  24434853.6414                                   24434850.1134
                                                                        43.2504
        22.5004
 -23909756.48448 -18559343.06647
                  21229953.5864                                   21229949.0474
                                                                        52.0004
        42.5004
 -21862730.17248 -16961655.39546
                  20690623.5004                                   20690619.1684
                                                                        52.2504
        41.5004
  -6167285.51647  -4763279.32445
                  22088764.7734                                   22088760.3954
                                                                        47.2504
        32.0004
 -17258424.24647 -13427603.15645
                  22639491.8594                                   22639487.3444
                                                                        44.5004
        31.0004
 -16553500.46948 -12833399.07846
                  22089087.6094                                   22089083.4574
                                                                        49.2504
        39.2504
  -5622320.52047  -4345851.27044
                  23713355.3054                                   23713350.6334
                                                                        42.2504
        24.7504
  -7161237.33947  -5564947.63444
                  23340263.5234                                   23340259.0704
                                                                        42.7504
        28.0004
 09 10 23  0 32  0.0000000  0  9G02G04G05G10G13G25G29G16G07
  -4389144.74248  -3380947.02346
                  21531537.2894                                   21531530.8834
                                                                        50.5004
        39.2504
   6340229.99247   4947546.55944
                  24438746.5084                                   24438742.6954
                                                                        43.5004
        24.2504
 -24063400.10548 -18679065.37147
                  21200716.1174                                   21200711.6254
                                                                        50.7504
        42.2504
 -21995475.53548 -17065093.34046
                  20665362.5704                                   20665358.7304
                                                                        53.0004
        41.5004
  -6192741.80147  -4783115.47745
                  22083920.5314                                   22083916.0664
                                                                        47.2504
        32.0004
 -17372106.08247 -13516186.43045
                  22617859.0084                                   22617854.5664
                                                                        45.0004
        31.5004
 -16645251.41048 -12904893.35246
                  22071627.6484                                   22071624.0984
                                                                        48.2504
        39.0004
  -5740686.48847  -4438084.44944
                  23690831.0784                                   23690826.5594
                                                                        42.0004
        24.7504
  -7329596.69547  -5696136.80144
                  23308226.0234                                   23308221.5164
                                                                        44.5004
        28.2504
 09 10 23  0 32 30.0000000  0  9G02G04G05G10G13G25G29G16G07
  -4408803.86348  -3396265.81246
                  21527796.2814                                   21527789.9144
                                                                        51.5004
        39.5004
   6360806.21147   4963579.97744
                  24442661.1254                                   24442658.4304
                                                                        42.2504
        25.7504
 -24216571.45748 -18798419.68447
                  21171568.3914                                   21171564.2154
                                                                        51.7504
        42.2504
 -22127661.77348 -17168095.59846
                  20640208.7814                                   20640204.6334
                                                                        51.5004
        41.7504
  -6217680.00047  -4802547.94145
                  22079175.0234                                   22079170.4774
                                                                        47.5004
        31.2504
 -17485194.79347 -13604307.57445
                  22596338.7584                                   22596334.5164
                                                                        45.0004
        31.5004
 -16736376.02048 -12975899.55946
                  22054287.2114                                   22054283.5274
                                                                        49.7504
        38.2504
  -5858440.73446  -4529840.94144
                  23668422.8054                                   23668418.0474
                                                                        41.7504
        25.5004
  -7497492.49647  -5826964.72344
                  23276276.7664                                   23276271.5944
                                                                        45.2504
        29.5004
 09 10 23  0 33  0.0000000  0  9G02G04G05G10G13G25G29G16G07
  -4427992.68448  -3411218.13746
                  21524144.7114                                   21524138.3284
                                                                        50.5004
        39.2504
   6381505.26246   4979708.96544
                  24446600.6564                                   24446597.9184
                                                                        41.7504
        24.5004
 -24369265.94148 -18917402.42247
                  21142511.6724                                   21142507.6254
                                                                        51.0004
        42.5004
 -22259284.95748 -17270659.11746
                  20615161.6094                                   20615157.5434
                                                                        52.2504
        41.5004
  -6242100.05547  -4821576.57045
                  22074527.8524                                   22074523.2384
                                                                        47.5004
        30.2504
 -17597687.25047 -13691964.12945
                  22574932.5474                                   22574928.0314
                                                                        45.2504
        31.0004
 -16826871.66048 -13046415.60946
                  22037066.4844                                   22037062.4264
                                                                        49.0004
        38.7504
  -5975579.55946  -4621117.91844
                  23646131.8984                                   23646127.5004
                                                                        41.5004
        25.2504
  -7664919.60247  -5957427.41845
                  23244416.4694                                   23244411.9844
                                                                        44.0004
        30.2504
 09 10 23  0 33 30.0000000  0  9G02G04G05G10G13G25G29G16G07
  -4446717.58248  -3425808.94146
                  21520581.5864                                   21520574.8674
                                                                        50.0004
        39.2504
   6402321.58246   4995929.55143
                  24450561.7584                                   24450559.1174
                                                                        40.5004
        22.5004
 -24521486.61748 -19036015.95347
                  21113545.0314                                   21113540.7584
                                                                        51.7504
        42.0004
 -22390348.31248 -17372786.39846
                  20590221.1484                                   20590216.7074
                                                                        52.2504
        41.7504
  -6266008.60247  -4840206.64545
                  22069978.6484                                   22069973.8674
                                                                        46.5004
        31.0004
 -17709586.84047 -13779158.69145
                  22553639.0394                                   22553634.1174
                                                                        44.5004
        32.0004
 -16916742.53548 -13116444.81246
                  22019964.9224                                   22019960.6994
                                                                        49.2504
        38.5004
  -6092106.62947  -4711918.17644
                  23623957.4454                                   23623953.0164
                                                                        42.2504
        24.0004
  -7831879.96147  -6087526.43445
                  23212645.0314                                   23212639.9304
                                                                        45.0004
        30.7504
 09 10 23  0 34  0.0000000  0  9G02G04G05G10G13G25G29G16G07
  -4464982.24648  -3440041.12146
                  21517105.7274                                   21517099.2854
                                                                        49.2504
        38.7504
   6423250.17646   5012237.22543
                  24454543.6174                                   24454542.3014
                                                                        38.7504
        22.2504
 -24673234.12948 -19154260.77347
                  21084668.7584                                   21084663.9414
                                                                        50.7504
        42.2504
 -22520853.25048 -17474478.56246
                  20565386.9924                                   20565382.7814
                                                                        52.5004
        41.7504
  -6289410.23047  -4858441.71545
                  22065525.3984                                   22065520.7154
                                                                        47.7504
        30.5004
 -17820895.32047 -13865892.73445
                  22532457.3444                                   22532452.9964
                                                                        44.7504
        31.0004
 -17005991.11348 -13185989.14546
                  22002981.1804                                   22002977.5554
                                                                        49.0004
        39.0004
  -6208023.10946  -4802242.67244
                  23601899.7814                                   23601895.0354
                                                                        41.5004
        25.5004
  -7998372.70747  -6217261.05545
                  23180962.5084                                   23180957.5944
                                                                        44.2504
        30.7504
 09 10 23  0 34 30.0000000  0  9G02G04G05G10G13G25G29G16G07
  -4482783.75448  -3453912.42646
                  21513718.3444                                   21513711.9964
                                                                        49.7504
        39.0004
   6444294.82046   5028635.55944
                  24458549.0314                                   24458546.4264
                                                                        41.7504
        24.0004
 -24824501.18048 -19272131.21547
                  21055883.4454                                   21055879.0864
                                                                        51.0004
        43.0004
 -22650793.12948 -17575730.42646
                  20540660.3524                                   20540655.7384
                                                                        53.0004
        41.5004
  -6312302.34047  -4876279.78945
                  22061169.6254                                   22061164.5704
                                                                        46.5004
        30.7504
 -17931606.72347 -13952161.46945
                  22511389.9924                                   22511385.5634
                                                                        45.0004
        31.2504
 -17094611.44547 -13255043.95746
                  21986117.1484                                   21986113.4024
                                                                        47.7504
        38.7504
  -6323322.11346  -4892085.92243
                  23579958.9694                                   23579953.9844
                                                                        40.5004
        23.0004
  -8164390.60947  -6346625.65244
                  23149370.5314                                   23149365.4454
                                                                        43.5004
        29.2504
 09 10 23  0 35  0.0000000  0  9G02G04G05G10G13G25G29G16G07
  -4500125.14148  -3467425.19946
                  21510418.3984                                   21510411.5984
                                                                        50.0004
        39.5004
   6465452.13347   5045121.50044
                  24462575.3914                                   24462573.1174
                                                                        43.0004
        25.0004
 -24975288.50048 -19389627.87147
                  21027189.8204                                   21027185.1374
                                                                        51.2504
        42.5004
 -22780168.68048 -17676542.58646
                  20516040.8524                                   20516036.6954
                                                                        52.7504
        41.5004
  -6334688.40247  -4893723.50845
                  22056909.3054                                   22056904.7504
                                                                        46.5004
        30.7504
 -18041721.35547 -14037965.14845
                  22490435.9924                                   22490432.0124
                                                                        45.7504
        32.0004
 -17182605.78948 -13323610.97346
                  21969372.5864                                   21969368.6844
                                                                        48.2504
        39.0004
  -6438004.82046  -4981449.01244
                  23558135.1334                                   23558130.5864
                                                                        41.7504
        24.0004
  -8329931.63747  -6475618.65645
                  23117869.0704                                   23117864.0044
                                                                        44.7504
        30.5004
 09 10 23  0 35 30.0000000  0  9G02G04G05G10G13G25G29G16G07
  -4517006.49648  -3480579.50846
                  21507205.8444                                   21507199.4104
                                                                        50.0004
        39.5004
   6486722.16047   5061695.43843
                  24466623.6884                                   24466620.6374
                                                                        43.7504
        22.7504
 -25125592.39848 -19506747.87547
                  20998587.7664                                   20998583.2704
                                                                        51.0004
        42.2504
 -22908976.95348 -17776912.69146
                  20491529.4384                                   20491525.4574
                                                                        53.0004
        41.2504
  -6356568.86747  -4910773.27345
                  22052745.8054                                   22052741.3794
                                                                        47.0004
        30.5004
 -18151237.14547 -14123302.17245
                  22469595.9924                                   22469591.6524
                                                                        45.2504
        31.5004
 -17269972.02047 -13391688.57846
                  21952747.3364                                   21952743.4024
                                                                        47.7504
        38.5004
  -6552068.55147  -5070329.78943
                  23536429.2194                                   23536424.6844
                                                                        42.0004
        23.7504
  -8494991.93047  -6604237.05944
                  23086458.7974                                   23086453.8834
                                                                        43.5004
        29.2504
 09 10 23  0 36  0.0000000  0  9G02G04G05G10G13G25G29G16G07
  -4533429.81248  -3493376.90246
                  21504080.8284                                   21504074.3524
                                                                        49.0004
        39.0004
   6508102.99247   5078355.71943
                  24470691.8134                                   24470688.6844
                                                                        42.5004
        22.0004
 -25275412.10948 -19623490.57447
                  20970078.2344                                   20970073.5744
                                                                        51.7504
        42.2504
 -23037217.75048 -17876840.62946
                  20467126.0314                                   20467121.9454
                                                                        52.0004
        41.5004
  -6377945.83647  -4927430.65645
                  22048677.8204                                   22048672.9964
                                                                        46.0004
        31.0004
 -18260152.92247 -14208171.62945
                  22448869.6094                                   22448865.4694
                                                                        44.5004
        31.5004
 -17356711.52748 -13459277.78946
                  21936241.5864                                   21936237.4144
                                                                        49.5004
        38.7504
  -6665513.04747  -5158728.04743
                  23514842.1884                                   23514836.4184
                                                                        42.7504
        23.7504
  -8659568.65247  -6732478.64744
                  23055141.2194                                   23055136.0204
                                                                        43.5004
        29.7504
 09 10 23  0 36 30.0000000  0  9G02G04G05G10G13G25G29G16G07
  -4549399.16048  -3505820.58246
                  21501041.8834                                   21501035.1764
                                                                        49.5004
        38.7504
   6529589.64846   5095098.31043
                  24474780.9304                                   24474778.5204
                                                                        40.5004
        21.2504
 -25424747.02048 -19739855.44947
                  20941660.4454                                   20941656.1484
                                                                        51.7504
        42.0004
 -23164891.47748 -17976326.67246
                  20442830.4924                                   20442826.6294
                                                                        53.2504
        41.5004
  -6398824.93447  -4943700.14545
                  22044704.5554                                   22044700.0634
                                                                        46.5004
        30.2504
 -18368471.35947 -14292575.61745
                  22428257.4144                                   22428253.3834
                                                                        45.2504
        31.5004
 -17442824.59048 -13526378.82046
                  21919854.7504                                   21919850.8204
                                                                        49.5004
        39.0004
  -6778338.24247  -5246643.77743
                  23493372.1414                                   23493366.5594
                                                                        43.0004
        22.7504
  -8823662.62147  -6860344.07044
                  23023914.9144                                   23023909.7704
                                                                        42.7504
        28.5004
 09 10 23  0 37  0.0000000  0  9G02G04G05G10G13G25G29G16G07
  -4564915.34848  -3517911.12546
                  21498089.4454                                   21498082.8524
                                                                        49.0004
        38.5004
   6551183.39146   5111924.82443
                  24478889.5234                                   24478886.5084
                                                                        39.7504
        20.7504
 -25573595.83648 -19855841.58647
                  20913335.5314                                   20913331.2504
                                                                        51.7504
        42.2504
 -23291996.53148 -18075369.60946
                  20418643.2584                                   20418638.9964
                                                                        52.0004
        41.0004
  -6419206.58247  -4959582.05145
                  22040825.9144                                   22040822.0314
                                                                        45.7504
        30.5004
 -18476189.89547 -14376512.21145
                  22407759.5004                                   22407755.3164
                                                                        45.2504
        31.7504
 -17528312.15648 -13592992.44146
                  21903586.8444                                   21903583.2774
                                                                        49.5004
        38.7504
  -6890543.82447  -5334076.63744
                  23472020.0704                                   23472014.6414
                                                                        43.0004
        24.5004
  -8987267.97747  -6987828.75045
                  22992781.7504                                   22992776.9574
                                                                        42.5004
        30.0004
 09 10 23  0 37 30.0000000  0  9G02G04G05G10G13G25G29G16G07
  -4579978.45748  -3529648.62146
                  21495222.7114                                   21495215.9494
                                                                        48.7504
        38.5004
   6572881.89146   5128832.60543
                  24483019.1804                                   24483016.4414
                                                                        38.0004
        21.0004
 -25721954.92648 -19971446.01647
                  20885103.7114                                   20885099.6644
                                                                        51.5004
        42.5004
 -23418529.94948 -18173967.08646
                  20394564.7424                                   20394560.3364
                                                                        51.7504
        41.0004
  -6439091.94147  -4975077.24645
                  22037042.4384                                   22037037.6604
                                                                        45.5004
        31.0004
 -18583307.27747 -14459980.53145
                  22387375.6884                                   22387371.1254
                                                                        45.0004
        31.5004
 -17613171.38348 -13659116.42646
                  21887438.6564                                   21887434.4734
                                                                        49.0004
        39.0004
  -7002126.64547  -5421024.28944
                  23450787.2034                                   23450781.0944
                                                                        43.0004
        24.5004
  -9150382.19547  -7114930.71545
                  22961742.1954                                   22961737.0314
                                                                        43.0004
        30.2504
 09 10 23  0 38  0.0000000  0  9G02G04G05G10G13G25G29G16G07
  -4594592.63348  -3541036.26646
                  21492441.3914                                   21492435.0394
                                                                        48.5004
        38.7504
   6594681.58646   5145819.19143
                  24487167.6334                                   24487165.5204
                                                                        41.2504
        23.5004
 -25869824.97748 -20086669.41847
                  20856965.0554                                   20856960.8364
                                                                        51.0004
        42.5004
 -23544493.18748 -18272120.22346
                  20370594.6334                                   20370590.3674
                                                                        51.7504
        41.0004
  -6458485.44947  -4990189.16445
                  22033351.9224                                   22033347.4884
                                                                        46.2504
        30.7504
 -18689824.35547 -14542981.03145
                  22367106.4694                                   22367102.1644
                                                                        45.2504
        30.2504
 -17697405.46548 -13724753.33246
                  21871409.0314                                   21871405.4654
                                                                        49.5004
        39.0004
  -7113088.00447  -5507487.68744
                  23429670.8364                                   23429665.8524
                                                                        42.5004
        25.2504
  -9313004.69547  -7241649.50845
                  22930796.3204                                   22930791.6254
                                                                        45.2504
        31.0004
 09 10 23  0 38 30.0000000  0  9G02G04G05G10G13G25G29G16G07
  -4608759.68048  -3552075.50846
                  21489746.1644                                   21489739.3524
                                                                        49.5004
        38.5004
   6616581.39147   5162884.04344
                  24491335.1804                                   24491332.7734
                                                                        43.2504
        25.5004
 -26017204.91448 -20201510.97747
                  20828919.5784                                   20828915.2154
                                                                        52.0004
        42.5004
 -23669885.66448 -18369828.62546
                  20346733.1484                                   20346728.5944
                                                                        52.7504
        41.7504
  -6477389.76647  -5004919.87545
                  22029754.7424                                   22029750.2424
                                                                        46.0004
        30.5004
 -18795740.37547 -14625513.09845
                  22346951.4064                                   22346947.4344
                                                                        46.5004
        31.5004
 -17781014.41448 -13789903.10946
                  21855498.8524                                   21855494.7934
                                                                        50.0004
        39.0004
  -7223427.43747  -5593466.44944
                  23408674.2504                                   23408669.1254
                                                                        42.5004
        24.5004
  -9475132.32047  -7367982.72345
                  22899943.7734                                   22899939.8014
                                                                        45.0004
        30.5004
 09 10 23  0 39  0.0000000  0  9G02G04G05G10G13G25G29G16G07
  -3047060.01248  -2335166.68046
                  21786927.5944                                   21786921.0124
                                                                        49.2504
        38.5004
   8213999.02747   6407624.92244
                  24795313.7034                                   24795311.6454
                                                                        42.7504
        26.0004
 -24588666.83248 -19088364.48847
                  21100761.3524                                   21100756.9454
                                                                        52.5004
        42.7504
 -22219281.08648 -17239487.39846
                  20622774.3834                                   20622770.3954
                                                                        52.7504
        41.7504
  -4920384.44547  -3791668.93044
                  22326042.5864                                   22326037.9574
                                                                        46.5004
        29.7504
 -17325630.31247 -13479972.76245
                  22626704.1254                                   22626700.2274
                                                                        45.7504
        31.7504
 -16288574.71148 -12626963.10946
                  22139501.2424                                   22139496.9104
                                                                        50.7504
        39.5004
  -5757719.40647  -4451356.30544
                  23687589.2504                                   23687583.5984
                                                                        43.0004
        24.2504
  -8061336.69147  -6266323.80145
                  23168980.8284                                   23168976.1684
                                                                        43.7504
        31.0004
 09 10 23  0 39 30.0000000  0  8G02G05G10G13G25G29G16G07
  -3060340.94548  -2345515.47346
                  21784400.0004                                   21784393.7704
                                                                        48.2504
        38.5004
 -24735063.52048 -19202439.89847
                  21072903.1884                                   21072899.1604
                                                                        52.5004
        43.0004
 -22343530.84048 -17336305.36346
                  20599130.3674                                   20599126.2774
                                                                        52.0004
        41.7504
  -4938318.33647  -3805643.38745
                  22322630.0554                                   22322625.5204
                                                                        45.2504
        30.0004
 -17430345.37947 -13561568.97345
                  22606777.0164                                   22606772.9304
                                                                        46.5004
        31.5004
 -16370936.10248 -12691140.85246
                  22123828.0944                                   22123824.1454
                                                                        50.0004
        38.5004
  -5866814.69147  -4536365.61744
                  23666829.2344                                   23666823.7584
                                                                        43.2504
        24.5004
  -8222469.87547  -6391882.11745
                  23138318.3444                                   23138312.8364
                                                                        45.0004
        30.7504
 09 10 23  0 40  0.0000000  0  8G02G05G10G13G25G29G16G07
  -3073180.45348  -2355520.26646
                  21781957.0234                                   21781950.5864
                                                                        48.7504
        38.5004
 -24880965.87148 -19316130.05947
                  21045139.0864                                   21045134.7194
                                                                        52.7504
        42.5004
 -22467207.20748 -17432676.61346
                  20575595.4534                                   20575591.1484
                                                                        52.2504
        41.5004
  -4955769.82847  -3819241.96944
                  22319308.9844                                   22319304.2234
                                                                        45.5004
        29.7504
 -17534458.30547 -13642696.00045
                  22586965.1644                                   22586961.1174
                                                                        46.0004
        31.7504
 -16452673.65648 -12754832.40646
                  22108273.8834                                   22108269.5274
                                                                        50.7504
        38.5004
  -5975286.09847  -4620888.76244
                  23646187.6334                                   23646182.5864
                                                                        42.7504
        25.5004
  -8383100.83647  -6517049.12145
                  23107750.9694                                   23107746.4964
                                                                        44.2504
        30.2504
 09 10 23  0 40 30.0000000  0  8G02G05G10G13G25G29G16G07
  -3085575.57048  -2365178.78946
                  21779598.2584                                   21779591.7734
                                                                        49.0004
        39.0004
 -25026366.52748 -19429429.28547
                  21017470.0864                                   21017465.6254
                                                                        52.5004
        42.7504
 -22590304.09448 -17528596.29347
                  20552171.0004                                   20552167.0204
                                                                        52.7504
        42.0004
  -4972736.38747  -3832462.59445
                  22316080.6094                                   22316075.9884
                                                                        47.0004
        30.5004
 -17637963.56247 -13723349.49245
                  22567269.0394                                   22567264.6254
                                                                        46.0004
        31.7504
 -16533781.14848 -12818033.05546
                  22092839.3284                                   22092835.6764
                                                                        50.0004
        39.0004
  -6083127.23047  -4704920.79744
                  23625665.8364                                   23625661.1524
                                                                        42.0004
        24.7504
  -8543222.73847  -6641819.53144
                  23077280.7974                                   23077275.4694
                                                                        45.0004
        29.7504
 09 10 23  0 41  0.0000000  0  8G02G05G10G13G25G29G16G07
  -3097526.52748  -2374491.21946
                  21777324.0864                                   21777317.6454
                                                                        49.0004
        38.5004
 -25171264.00848 -19542336.43047
                  20989896.9614                                   20989893.0204
                                                                        52.0004
        42.7504
 -22712820.05548 -17624063.25847
                  20528856.9144                                   20528852.7734
                                                                        52.2504
        42.0004
  -4989219.11747  -3845306.28945
                  22312943.7034                                   22312939.3244
                                                                        45.7504
        30.0004
 -17740858.87947 -13803527.62945
                  22547688.5864                                   22547683.8554
                                                                        44.7504
        31.0004
 -16614259.77748 -12880743.66046
                  22077524.6804                                   22077521.0314
                                                                        49.2504
        39.5004
  -6190337.44147  -4788461.18444
                  23605265.0084                                   23605259.8594
                                                                        42.0004
        24.5004
  -8702830.14847  -6766188.94545
                  23046908.3914                                   23046903.2304
                                                                        43.5004
        30.2504
 09 10 23  0 41 30.0000000  0  8G02G05G10G13G25G29G16G07
  -3109036.25048  -2383459.85246
                  21775133.8054                                   21775127.2504
                                                                        49.7504
        38.0004
 -25315656.10548 -19654849.78947
                  20962420.1804                                   20962415.7624
                                                                        52.0004
        43.0004
 -22834753.57048 -17719076.50846
                  20505653.8914                                   20505649.8284
                                                                        53.2504
        41.5004
  -5005220.62147  -3857774.98444
                  22309898.6954                                   22309894.2704
                                                                        45.5004
        29.7504
 -17843144.68447 -13883230.86345
                  22528224.1254                                   22528220.2624
                                                                        45.2504
        31.0004
 -16694108.10548 -12942963.10546
                  22062330.4774                                   22062326.6254
                                                                        50.0004
        38.5004
  -6296915.15647  -4871508.72744
                  23584983.7114                                   23584978.5314
                                                                        43.5004
        25.2504
  -8861922.30947  -6890156.88345
                  23016634.3674                                   23016629.0944
                                                                        44.0004
        30.2504
 09 10 23  0 42  0.0000000  0  8G02G05G10G13G25G29G16G07
  -3120109.05548  -2392088.02346
                  21773026.3984                                   21773020.3204
                                                                        49.0004
        38.5004
 -25459544.45348 -19766970.60947
                  20935039.1724                                   20935034.7114
                                                                        52.0004
        42.7504
 -22956107.19548 -17813637.90646
                  20482561.2664                                   20482556.9454
                                                                        53.0004
        41.2504
  -5020746.09447  -3869872.71944
                  22306944.1724                                   22306940.1294
                                                                        44.2504
        29.7504
 -17944823.22347 -13962460.82445
                  22508875.2344                                   22508871.4064
                                                                        45.5004
        30.5004
 -16773330.16448 -13004694.56246
                  22047254.6564                                   22047250.7114
                                                                        49.5004
        39.0004
  -6402863.05547  -4954065.57044
                  23564822.3204                                   23564817.3984
                                                                        43.5004
        26.2504
  -9020499.10247  -7013723.23845
                  22986458.3284                                   22986453.2154
                                                                        44.0004
        30.5004
 09 10 23  0 42 30.0000000  0  8G02G05G10G13G25G29G16G07
  -3130748.66048  -2400378.63346
                  21771002.2274                                   21770995.8554
                                                                        49.0004
        37.7504
 -25602929.93448 -19878699.55547
                  20907753.8444                                   20907749.7194
                                                                        52.5004
        42.7504
 -23076881.47348 -17907747.70347
                  20459578.6024                                   20459574.5314
                                                                        52.5004
        42.0004
  -5035799.73847  -3881602.72744
                  22304079.5004                                   22304075.8444
                                                                        44.5004
        29.2504
 -18045895.96947 -14041218.78145
                  22489641.8984                                   22489637.6374
                                                                        44.5004
        30.2504
 -16851928.75048 -13065940.18746
                  22032297.9844                                   22032294.0514
                                                                        50.2504
        39.0004
  -6508182.53147  -5036132.66044
                  23544781.0084                                   23544775.5904
                                                                        43.5004
        26.0004
  -9178559.71947  -7136887.36745
                  22956380.7894                                   22956375.1334
                                                                        44.5004
        30.2504
 09 10 23  0 43  0.0000000  0  8G02G05G10G13G25G29G16G07
  -3140963.07448  -2408337.92646
                  21769058.3754                                   21769052.0554
                                                                        48.5004
        38.0004
 -25745816.58248 -19990039.75847
                  20880563.1954                                   20880559.2034
                                                                        52.7504
        42.7504
 -23197082.28948 -18001410.75846
                  20436705.2114                                   20436701.2894
                                                                        52.7504
        41.2504
  -5050390.22747  -3892971.87144
                  22301303.0634                                   22301298.9144
                                                                        45.2504
        29.2504
 -18146368.32847 -14119508.85945
                  22470522.3984                                   22470518.1294
                                                                        45.7504
        30.5004
 -16929908.93748 -13126703.91446
                  22017458.7114                                   22017455.1524
                                                                        50.2504
        38.5004
  -6612878.37947  -5117713.75844
                  23524857.8054                                   23524852.9964
                                                                        43.0004
        27.0004
  -9336108.19947  -7259652.43444
                  22926399.7974                                   22926394.4614
                                                                        43.5004
        29.5004
 09 10 23  0 43 30.0000000  0  8G02G05G10G13G25G29G16G07
  -3150753.35248  -2415966.71546
                  21767195.2274                                   21767189.0234
                                                                        48.7504
        37.7504
 -25888202.70348 -20100989.93047
                  20853467.8914                                   20853463.7274
                                                                        53.0004
        42.7504
 -23316707.84048 -18094625.51246
                  20413941.2664                                   20413937.1024
                                                                        53.2504
        41.5004
  -5064518.94947  -3903981.29744
                  22298614.8754                                   22298610.2974
                                                                        44.0004
        28.7504
 -18246239.35947 -14197330.46045
                  22451517.3204                                   22451513.3364
                                                                        45.0004
        30.5004
 -17007271.89548 -13186986.69946
                  22002737.1804                                   22002733.0474
                                                                        50.5004
        38.5004
  -6716950.63747  -5198809.07044
                  23505053.9454                                   23505048.1214
                                                                        43.7504
        26.2504
  -9493140.50447  -7382015.31045
                  22896518.1724                                   22896512.6724
                                                                        45.2504
        30.5004
 09 10 23  0 44  0.0000000  0  8G02G05G10G13G25G29G16G07
  -3160122.64848  -2423267.46546
                  21765412.4144                                   21765406.0474
                                                                        49.0004
        37.5004
 -26030087.27748 -20211549.34047
                  20826468.4224                                   20826464.0234
                                                                        53.0004
        42.7504
 -23435757.93748 -18187391.77347
                  20391286.7344                                   20391282.4574
                                                                        53.0004
        42.0004
  -5078189.50047  -3914633.70345
                  22296013.6724                                   22296008.6804
                                                                        45.5004
        30.0004
 -18345509.95347 -14274684.21545
                  22432627.0084                                   22432622.6724
                                                                        46.0004
        31.0004
 -17084017.54348 -13246788.47746
                  21988132.7504                                   21988129.1454
                                                                        50.7504
        39.2504
  -6820398.36347  -5279417.69144
                  23485368.7114                                   23485363.2504
                                                                        43.7504
        26.2504
  -9649656.25447  -7503975.82045
                  22866734.4144                                   22866728.9304
                                                                        45.0004
        31.7504
 09 10 23  0 44 30.0000000  0  8G02G05G10G13G25G29G16G07
  -3169073.38348  -2430242.07846
                  21763709.0164                                   21763702.9654
                                                                        48.5004
        38.0004
 -26171470.64548 -20321718.23447
                  20799563.9774                                   20799559.6174
                                                                        52.5004
        43.0004
 -23554232.98848 -18279709.95346
                  20368741.4304                                   20368737.2114
                                                                        52.7504
        41.2504
  -5091404.71547  -3924931.26644
                  22293498.5164                                   22293493.9414
                                                                        43.5004
        29.5004
 -18444179.87147 -14351569.76645
                  22413850.9774                                   22413846.5704
                                                                        44.7504
        30.2504
 -17160147.63748 -13306110.61746
                  21973645.8914                                   21973641.7384
                                                                        50.5004
        39.2504
  -6923222.35247  -5359540.26644
                  23465801.2424                                   23465796.2774
                                                                        42.0004
        25.2504
  -9805652.73047  -7625531.67245
                  22837049.3134                                   22837044.2424
                                                                        44.5004
        32.2504
 09 10 23  0 45  0.0000000  0  8G02G05G10G13G25G29G16G07
  -3177611.77748  -2436895.37546
                  21762084.7344                                   21762078.0434
                                                                        49.2504
        38.0004
 -26312354.99248 -20431498.25447
                  20772754.4534                                   20772750.7274
                                                                        52.7504
        43.0004
 -23672136.39548 -18371582.68046
                  20346305.2194                                   20346301.0864
                                                                        53.0004
        41.7504
  -5104171.51247  -3934879.36744
                  22291069.4454                                   22291064.8554
                                                                        44.0004
        29.7504
 -18542253.71147 -14427991.07045
                  22395188.2114                                   22395183.4804
                                                                        44.2504
        30.0004
 -17235667.14848 -13364957.01246
                  21959275.3524                                   21959271.3404
                                                                        50.2504
        38.5004
  -7025426.37947  -5439179.76244
                  23446352.3674                                   23446348.1254
                                                                        42.2504
        25.0004
  -9961132.22347  -7746684.72745
                  22807462.6414                                   22807457.8874
                                                                        44.7504
        31.5004
 09 10 23  0 45 30.0000000  0  8G02G05G10G13G25G29G16G07
  -3185738.69147  -2443228.07046
                  21760537.7734                                   21760531.3954
                                                                        47.2504
        37.2504
 -26452737.77348 -20540887.41447
                  20746040.4534                                   20746036.2974
                                                                        52.2504
        42.7504
 -23789466.17248 -18463008.50846
                  20323978.2734                                   20323973.7074
                                                                        52.7504
        41.5004
  -5116491.43447  -3944479.38344
                  22288724.4774                                   22288720.4184
                                                                        43.2504
        28.7504
 -18639729.60247 -14503946.27045
                  22376638.7114                                   22376634.6334
                                                                        45.5004
        30.7504
 -17310575.26648 -13423326.99246
                  21945020.4924                                   21945016.7464
                                                                        50.0004
        38.7504
  -7127008.99247  -5518335.02344
                  23427021.9224                                   23427017.1914
                                                                        42.0004
        26.5004
 -10116091.16847  -7867432.19545
                  22777974.3204                                   22777970.5004
                                                                        44.2504
        30.7504
 09 10 23  0 46  0.0000000  0  8G02G05G10G13G25G29G16G07
  -3193454.58648  -2449240.48846
                  21759069.4924                                   21759062.7894
                                                                        48.0004
        37.0004
 -26592616.30148 -20649883.65647
                  20719422.7734                                   20719418.1844
                                                                        52.2504
        42.5004
 -23906220.21148 -18553985.72746
                  20301760.5004                                   20301756.4924
                                                                        52.5004
        41.5004
  -5128364.69547  -3953731.26644
                  22286465.2734                                   22286460.9104
                                                                        43.7504
        29.0004
 -18736605.35247 -14579433.68045
                  22358203.7584                                   22358199.8954
                                                                        44.7504
        30.5004
 -17384871.16448 -13481220.01646
                  21930882.4774                                   21930878.7544
                                                                        50.5004
        38.5004
  -7227967.93746  -5597004.32844
                  23407809.8834                                   23407805.1564
                                                                        40.7504
        25.7504
 -10270525.02347  -7987770.40245
                  22748586.4064                                   22748582.1764
                                                                        44.7504
        31.5004
 09 10 23  0 46 30.0000000  0  8G02G05G10G13G25G29G16G07
  -3200760.71148  -2454933.59846
                  21757679.1804                                   21757672.7814
                                                                        48.2504
        37.0004
 -26731988.62548 -20758485.45347
                  20692900.8364                                   20692896.6374
                                                                        53.0004
        42.7504
 -24022397.14848 -18644513.21946
                  20279652.6884                                   20279648.8134
                                                                        52.5004
        41.2504
  -5139793.14147  -3962636.43744
                  22284290.4694                                   22284286.1374
                                                                        44.5004
        28.2504
 -18832881.06647 -14654453.70745
                  22339883.5314                                   22339879.4104
                                                                        46.0004
        30.0004
 -17458554.57448 -13538635.77746
                  21916861.0634                                   21916857.2624
                                                                        50.2504
        39.5004
  -7328302.23846  -5675186.89144
                  23388717.4144                                   23388712.9964
                                                                        41.2504
        27.7504
 -10424431.14547  -8107697.27345
                  22719299.6804                                   22719295.3444
                                                                        45.0004
        30.5004
 09 10 23  0 47  0.0000000  0  8G02G05G10G13G25G29G16G07
  -3207659.31248  -2460309.15246
                  21756366.8674                                   21756359.6604
                                                                        48.7504
        37.2504
 -26870853.67248 -20866691.98447
                  20666475.8204                                   20666471.4344
                                                                        52.7504
        43.0004
 -24137996.84048 -18734590.95346
                  20257655.0634                                   20257650.8794
                                                                        53.0004
        41.2504
  -5150779.91047  -3971197.44544
                  22282199.7344                                   22282195.3284
                                                                        43.2504
        28.2504
 -18928556.51647 -14729006.09445
                  22321676.8524                                   22321672.6454
                                                                        44.0004
        30.2504
 -17531626.27048 -13595574.81246
                  21902956.1564                                   21902951.8834
                                                                        49.7504
        38.7504
  -7428011.91046  -5752882.68444
                  23369742.8204                                   23369738.2234
                                                                        41.5004
        26.2504
 -10577807.06247  -8227210.83645
                  22690113.2894                                   22690108.2624
                                                                        43.7504
        30.2504
 09 10 23  0 47 30.0000000  0  8G02G05G10G13G25G29G16G07
  -1638732.22747  -1237768.60246
                  22054923.6174                                   22054917.0354
                                                                        47.2504
        37.0004
 -25433784.48048 -19746897.70347
                  20939941.0474                                   20939936.3324
                                                                        53.2504
        43.5004
 -22677593.44148 -17596614.23446
                  20535560.5004                                   20535556.5664
                                                                        52.2504
        40.7504
  -3585906.50847  -2751815.52344
                  22579984.8054                                   22579980.1804
                                                                        43.5004
        28.2504
 -17448207.52047 -13575487.32045
                  22603378.0164                                   22603373.6024
                                                                        44.2504
        30.2504
 -16028663.08248 -12424434.64146
                  22188960.2974                                   22188956.1094
                                                                        50.2504
        38.7504
  -5951672.31646  -4602488.14544
                  23650680.8754                                   23650676.3054
                                                                        41.0004
        26.0004
  -9155225.63747  -7118705.73845
                  22960821.2894                                   22960816.4884
                                                                        44.0004
        31.5004
 09 10 23  0 48  0.0000000  0  8G02G05G10G13G25G29G16G07
  -1644819.50847  -1242511.94146
                  22053765.2344                                   22053759.0204
                                                                        47.5004
        37.5004
 -25571628.39548 -19854308.53947
                  20913710.3834                                   20913706.1254
                                                                        53.0004
        43.0004
 -22792033.29348 -17685788.14846
                  20513783.2734                                   20513778.8364
                                                                        52.5004
        41.5004
  -3596014.39847  -2759691.62544
                  22578061.4924                                   22578057.0004
                                                                        44.0004
        28.7504
 -17542678.77047 -13649101.23445
                  22585400.4844                                   22585396.0824
                                                                        45.0004
        30.2504
 -16100509.43448 -12480418.79346
                  22175288.7274                                   22175284.4694
                                                                        50.0004
        38.5004
  -6050128.91446  -4679207.53944
                  23631945.6334                                   23631940.4574
                                                                        40.5004
        26.2504
  -9307532.86747  -7237386.61745
                  22931838.2734                                   22931833.5824
                                                                        44.7504
        31.5004
 09 10 23  0 48 30.0000000  0  8G02G05G10G13G25G29G16G07
  -1650504.43048  -1246941.74646
                  22052683.3914                                   22052676.8984
                                                                        48.2504
        37.2504
 -25708960.00448 -19961320.06647
                  20887577.0084                                   20887572.2854
                                                                        53.5004
        42.7504
 -22905892.65248 -17774509.59047
                  20492116.2344                                   20492112.3324
                                                                        52.5004
        42.0004
  -3605686.74647  -2767228.26244
                  22576220.9064                                   22576216.0354
                                                                        44.5004
        29.0004
 -17636547.95347 -13722245.97745
                  22567538.2584                                   22567533.0354
                                                                        44.2504
        30.7504
 -16171745.71548 -12535927.59846
                  22161732.5314                                   22161728.9024
                                                                        49.5004
        39.0004
  -6147959.00846  -4755438.71144
                  23613328.7034                                   23613323.8984
                                                                        41.2504
        25.5004
  -9459302.48847  -7355648.71545
                  22902957.5944                                   22902952.4534
                                                                        45.7504
        31.2504
 09 10 23  0 49  0.0000000  0  8G02G05G10G13G25G29G16G07
  -1655790.68448  -1251060.90646
                  22051677.4224                                   22051670.8984
                                                                        48.7504
        37.2504
 -25845780.24248 -20067933.09447
                  20861540.5944                                   20861536.2774
                                                                        52.7504
        43.5004
 -23019173.25048 -17862780.18747
                  20470559.7194                                   20470555.9184
                                                                        52.5004
        42.0004
  -3614928.49247  -2774429.57844
                  22574462.5704                                   22574457.4804
                                                                        43.7504
        28.5004
 -17729817.30947 -13794923.29345
                  22549789.0634                                   22549784.7734
                                                                        44.5004
        30.5004
 -16242373.71948 -12590962.43446
                  22148292.7734                                   22148288.5984
                                                                        50.0004
        38.7504
  -6245164.28546  -4831183.06644
                  23594830.9454                                   23594826.6374
                                                                        40.5004
        27.2504
  -9610534.34047  -7473491.69545
                  22874178.8914                                   22874174.3404
                                                                        45.5004
        32.2504
 09 10 23  0 49 30.0000000  0  8G02G05G10G13G25G29G16G07
  -1660679.12148  -1254870.09446
                  22050747.1564                                   22050740.6454
                                                                        48.2504
        36.5004
 -25982086.44948 -20174145.65647
                  20835602.2114                                   20835597.8634
                                                                        53.2504
        43.0004
 -23131872.56648 -17950597.79346
                  20449113.8524                                   20449109.8524
                                                                        52.2504
        41.5004
  -3623740.58647  -2781296.20344
                  22572785.4304                                   22572780.6484
                                                                        44.5004
        29.2504
 -17822484.73047 -13867131.42645
                  22532155.4614                                   22532150.8834
                                                                        45.5004
        30.7504
 -16312392.20348 -12645522.25446
                  22134968.2424                                   22134964.6374
                                                                        49.7504
        39.2504
  -6341742.80546  -4906439.05144
                  23576452.9844                                   23576448.3634
                                                                        40.7504
        25.5004
  -9761224.75847  -7590912.85945
                  22845503.3674                                   22845498.9734
                                                                        46.2504
        31.2504
 09 10 23  0 50  0.0000000  0  8G02G05G10G13G25G29G16G07
  -1665171.78547  -1258370.89846
                  22049892.0944                                   22049885.4454
                                                                        47.7504
        36.2504
 -26117877.21148 -20279956.57447
                  20809762.0634                                   20809757.8874
                                                                        53.0004
        43.0004
 -23243990.18748 -18037962.02047
                  20427778.5864                                   20427774.3284
                                                                        52.2504
        42.2504
  -3632125.11747  -2787829.55544
                  22571189.2274                                   22571185.2664
                                                                        44.5004
        28.0004
 -17914550.59447 -13938870.95345
                  22514635.6254                                   22514630.7544
                                                                        44.7504
        31.5004
 -16381802.62948 -12699608.27346
                  22121760.1414                                   22121756.3054
                                                                        49.2504
        38.7504
  -6437694.60947  -4981206.67244
                  23558194.1724                                   23558189.2934
                                                                        42.5004
        25.7504
  -9911370.66447  -7707909.57445
                  22816931.5164                                   22816926.9344
                                                                        46.5004
        31.0004
 09 10 23  0 50 30.0000000  0  8G02G05G10G13G25G29G16G07
  -1669270.15248  -1261564.43046
                  22049112.4694                                   22049105.9654
                                                                        48.7504
        37.0004
 -26253150.79348 -20385364.50047
                  20784020.2504                                   20784015.7974
                                                                        53.0004
        43.0004
 -23355525.48048 -18124872.48446
                  20406554.0474                                   20406550.4734
                                                                        52.0004
        41.7504
  -3640084.04747  -2794031.14544
                  22569675.0864                                   22569670.0784
                                                                        44.5004
        28.0004
 -18006014.34047 -14010141.25845
                  22497230.3984                                   22497225.6564
                                                                        44.7504
        31.0004
 -16450604.81648 -12753220.32446
                  22108667.5704                                   22108663.4654
                                                                        49.7504
        39.0004
  -6533018.98047  -5055485.41044
                  23540054.7194                                   23540049.2774
                                                                        42.2504
        27.0004
 -10060970.71147  -7824481.15645
                  22788463.7114                                   22788458.8594
                                                                        45.5004
        31.5004
 09 10 23  0 51  0.0000000  0  8G02G05G10G13G25G29G16G07
  -1672980.73448  -1264455.82046
                  22048405.8444                                   22048399.9024
                                                                        48.0004
        36.5004
 -26387910.82448 -20490372.34047
                  20758376.1644                                   20758371.8634
                                                                        53.0004
        43.7504
 -23466482.55148 -18211332.53146
                  20385439.4614                                   20385435.7384
                                                                        53.0004
        41.7504
  -3647624.51647  -2799906.68444
                  22568240.0164                                   22568235.2074
                                                                        44.5004
        28.0004
 -18096880.55147 -14080946.12545
                  22479938.8674                                   22479934.9964
                                                                        44.5004
        30.0004
 -16518804.01248 -12806362.44546
                  22095689.4694                                   22095685.5124
                                                                        48.7504
        39.0004
  -6627720.09446  -5129278.49644
                  23522033.4774                                   23522028.6914
                                                                        41.7504
        27.2504
 -10210025.66047  -7940627.88745
                  22760099.6644                                   22760094.9454
                                                                        45.5004
        31.0004
 09 10 23  0 51 30.0000000  0  8G02G05G10G13G25G29G16G07
  -1676302.53548  -1267044.27346
                  22047774.3834                                   22047768.1454
                                                                        48.5004
        37.0004
 -26522153.02748 -20594976.80547
                  20732831.2424                                   20732826.7274
                                                                        53.2504
        43.5004
 -23576857.40648 -18297338.91846
                  20364435.8834                                   20364432.2704
                                                                        52.5004
        41.5004
  -3654746.13347  -2805455.97344
                  22566884.6174                                   22566880.0084
                                                                        44.5004
        29.2504
 -18187145.69147 -14151282.45345
                  22462761.8054                                   22462757.6954
                                                                        45.2504
        30.2504
 -16586398.19148 -12859033.13746
                  22082826.6804                                   22082822.4184
                                                                        48.5004
        38.0004
  -6721794.71947  -5202583.40644
                  23504131.3834                                   23504126.9264
                                                                        43.0004
        26.0004
 -10358530.87347  -8056346.14545
                  22731839.8284                                   22731835.1334
                                                                        46.0004
        31.5004
 09 10 23  0 52  0.0000000  0  8G02G05G10G13G25G29G16G07
  -1679237.39148  -1269331.19946
                  22047215.4924                                   22047209.0944
                                                                        48.2504
        37.0004
 -26655875.77748 -20699176.55147
                  20707384.7034                                   20707380.0984
                                                                        53.5004
        43.5004
 -23686649.27048 -18382891.05946
                  20343543.2194                                   20343539.0944
                                                                        52.5004
        41.5004
  -3661450.75447  -2810680.26244
                  22565609.4224                                   22565604.2114
                                                                        45.0004
        28.2504
 -18276809.94547 -14221150.64545
                  22445699.4924                                   22445694.8594
                                                                        45.5004
        30.5004
 -16653387.83248 -12911232.75446
                  22070078.9304                                   22070074.8324
                                                                        48.5004
        38.0004
  -6815242.75447  -5275400.07444
                  23486349.1254                                   23486344.3484
                                                                        42.2504
        26.5004
 -10506484.21547  -8171634.51645
                  22703685.0864                                   22703680.6644
                                                                        46.0004
        32.0004
 09 10 23  0 52 30.0000000  0  8G02G05G10G13G25G29G16G07
  -1681787.46948  -1271318.28945
                  22046730.0394                                   22046724.4654
                                                                        48.2504
        35.7504
 -26789077.71148 -20802970.31247
                  20682037.2894                                   20682033.1334
                                                                        53.0004
        43.0004
 -23795858.05548 -18467988.86746
                  20322761.6174                                   20322757.1094
                                                                        52.0004
        41.2504
  -3667741.41047  -2815582.05144
                  22564411.6094                                   22564406.8404
                                                                        44.5004
        27.0004
 -18365873.40647 -14290550.67645
                  22428750.7894                                   22428746.3874
                                                                        45.7504
        30.0004
 -16719773.60548 -12962961.87146
                  22057446.1884                                   22057442.0554
                                                                        49.5004
        38.5004
  -6908064.06647  -5347728.37944
                  23468685.4774                                   23468681.0084
                                                                        43.2504
        27.7504
 -10653883.44947  -8286491.11345
                  22675636.3984                                   22675631.4924
                                                                        46.5004
        31.7504
 09 10 23  0 53  0.0000000  0  8G02G05G10G13G25G29G16G07
  -1683957.05147  -1273008.84846
                  22046317.8444                                   22046311.3524
                                                                        47.7504
        36.5004
 -26921760.34848 -20906359.50047
                  20656788.7034                                   20656784.5234
                                                                        52.5004
        43.0004
 -23904485.51648 -18552633.77746
                  20302090.4774                                   20302086.2074
                                                                        52.5004
        41.0004
  -3673622.98047  -2820165.07844
                  22563292.8134                                   22563287.9534
                                                                        44.7504
        27.0004
 -18454338.50447 -14359484.46545
                  22411916.8444                                   22411912.1454
                                                                        45.5004
        31.2504
 -16785558.82048 -13014222.99246
                  22044927.5314                                   22044923.7114
                                                                        49.5004
        38.7504
  -7000260.96147  -5419570.12944
                  23451141.4304                                   23451136.7704
                                                                        42.7504
        27.7504
 -10800728.74247  -8400915.96545
                  22647692.4534                                   22647687.7974
                                                                        46.5004
        31.7504
 09 10 23  0 53 30.0000000  0  8G02G05G10G13G25G29G16G07
  -1685746.19148  -1274402.98045
                  22045977.4224                                   22045970.6334
                                                                        48.5004
        35.5004
 -27053920.13348 -21009341.13347
                  20631639.0784                                   20631635.0634
                                                                        53.0004
        43.5004
 -24012528.91448 -18636823.55546
                  20281530.9534                                   20281526.4694
                                                                        52.5004
        41.7504
  -3679095.82847  -2824429.62944
                  22562251.3914                                   22562246.0744
                                                                        45.5004
        27.2504
 -18542203.05147 -14427950.31245
                  22395196.6954                                   22395192.0204
                                                                        46.2504
        31.0004
 -16850742.49248 -13065015.44546
                  22032523.6884                                   22032519.7504
                                                                        49.5004
        38.5004
  -7091831.52747  -5490923.81644
                  23433716.3444                                   23433711.6214
                                                                        43.5004
        27.2504
 -10947015.43047  -8514905.34845
                  22619854.9224                                   22619850.2854
                                                                        46.2504
        31.2504
 09 10 23  0 54  0.0000000  0  8G02G05G10G13G25G29G16G07
  -1687156.15648  -1275501.64545
                  22045708.8834                                   22045701.9884
                                                                        48.0004
        35.7504
 -27185555.23848 -21111913.96547
                  20606590.2424                                   20606585.9224
                                                                        52.5004
        43.2504
 -24119987.33248 -18720557.48446
                  20261082.1254                                   20261078.1914
                                                                        53.0004
        41.7504
  -3684160.58247  -2828376.18444
                  22561287.4694                                   22561282.5434
                                                                        44.5004
        28.0004
 -18629465.82847 -14495947.23445
                  22378591.0704                                   22378586.7934
                                                                        46.5004
        30.0004
 -16915324.54348 -13115339.09446
                  22020234.0394                                   22020229.7774
                                                                        48.0004
        39.0004
  -7182774.08247  -5561788.15644
                  23416409.9384                                   23416405.2304
                                                                        42.7504
        26.5004
 -11092740.20747  -8628456.81245
                  22592123.8284                                   22592119.0904
                                                                        46.0004
        30.5004
 09 10 23  0 54 30.0000000  0  8G02G05G10G13G25G29G16G07
  -1688189.29348  -1276306.67645
                  22045512.3134                                   22045505.7274
                                                                        48.2504
        35.7504
 -27316664.87548 -21214077.30147
                  20581640.8054                                   20581636.2194
                                                                        52.7504
        43.0004
 -24226860.00048 -18803834.87546
                  20240744.9534                                   20240740.8834
                                                                        52.5004
        41.2504
  -3688821.77747  -2832008.29344
                  22560400.0554                                   22560395.8404
                                                                        44.5004
        28.0004
 -18716128.47347 -14563476.56645
                  22362099.5554                                   22362095.3484
                                                                        45.7504
        30.0004
 -16979305.62548 -13165194.50446
                  22008058.6954                                   22008054.7814
                                                                        48.0004
        39.0004
  -7273089.45747  -5632163.77744
                  23399223.6564                                   23399219.0664
                                                                        43.5004
        27.0004
 -11237902.79747  -8741570.27045
                  22564500.4534                                   22564495.5204
                                                                        46.2504
        32.0004
 09 10 23  0 55  0.0000000  0  8G02G05G10G13G25G29G16G07
  -1688846.96147  -1276819.15646
                  22045386.9384                                   22045380.8324
                                                                        46.2504
        36.2504
 -27447247.05948 -21315829.59847
                  20556791.6644                                   20556787.3244
                                                                        52.5004
        43.0004
 -24333145.89548 -18886655.02046
                  20220519.1644                                   20220515.2384
                                                                        52.0004
        41.2504
  -3693080.23447  -2835326.56644
                  22559589.8674                                   22559585.5084
                                                                        42.5004
        27.0004
 -18802189.54747 -14630537.11745
                  22345723.1804                                   22345718.2704
                                                                        45.0004
        30.5004
 -17042686.49247 -13214582.19946
                  21995997.8754                                   21995993.8324
                                                                        47.7504
        38.5004
  -7362777.32847  -5702050.44944
                  23382156.8054                                   23382151.8754
                                                                        42.0004
        26.0004
 -11382499.80147  -8854243.10945
                  22536984.6644                                   22536979.5704
                                                                        46.2504
        32.5004
 09 10 23  0 55 30.0000000  0  8G02G05G10G13G25G29G16G07
   -113711.31248    -49440.72346
                  22345125.4614                                   22345118.7974
                                                                        48.0004
        36.2504
 -26001876.90248 -20189567.10247
                  20831836.5634                                   20831831.9104
                                                                        52.5004
        43.2504
 -22863421.46548 -17741415.17246
                  20500198.8524                                   20500194.4304
                                                                        52.7504
        41.5004
  -2121518.46147  -1610733.04344
                  22858648.3284                                   22858643.6294
                                                                        43.7504
        27.5004
 -17312226.39547 -13469526.82045
                  22629253.6024                                   22629248.7934
                                                                        46.5004
        30.5004
 -15530046.62948 -12035901.81246
                  22283843.3914                                   22283839.3954
                                                                        48.7504
        38.5004
  -5876414.76647  -4543845.83644
                  23665002.5004                                   23664997.1294
                                                                        42.5004
        26.0004
  -9951103.85247  -7738869.66445
                  22809370.0864                                   22809365.2234
                                                                        47.0004
        32.5004
 09 10 23  0 56  0.0000000  0  8G02G05G10G13G25G29G16G07
   -113625.93747    -49374.19146
                  22345141.7194                                   22345135.7234
                                                                        47.0004
        36.5004
 -26131402.68448 -20290496.22747
                  20807188.7034                                   20807184.0944
                                                                        53.0004
        43.2504
 -22968534.80948 -17823321.62146
                  20480196.0944                                   20480192.1644
                                                                        52.2504
        41.5004
  -2124980.73047  -1613430.91844
                  22857989.3284                                   22857984.7894
                                                                        42.5004
        26.5004
 -17397086.52347 -13535651.55144
                  22613105.1484                                   22613100.7774
                                                                        46.5004
        29.7504
 -15592231.14548 -12084357.28146
                  22272010.3364                                   22272006.6024
                                                                        48.7504
        39.0004
  -5964848.52047  -4612755.29744
                  23648173.2734                                   23648168.9924
                                                                        42.2504
        25.2504
 -10094564.35247  -7850656.92645
                  22782070.3754                                   22782065.5864
                                                                        46.2504
        32.2504
 09 10 23  0 56 30.0000000  0  8G02G05G10G13G25G29G16G07
   -113173.04747    -49021.28946
                  22345228.2664                                   22345221.6644
                                                                        47.5004
        36.0004
 -26260398.91448 -20391012.73847
                  20782641.2114                                   20782637.0514
                                                                        53.0004
        43.0004
 -23073061.61748 -17904770.94146
                  20460304.9224                                   20460301.0234
                                                                        52.5004
        41.7504
  -2128049.17647  -1615821.89844
                  22857405.6174                                   22857401.0744
                                                                        43.0004
        27.5004
 -17481347.39847 -13601309.37145
                  22597070.3284                                   22597066.4414
                                                                        46.2504
        31.2504
 -15653819.45748 -12132348.16446
                  22260290.1174                                   22260286.3634
                                                                        48.2504
        38.2504
  -6052655.77347  -4681176.52744
                  23631464.8984                                   23631459.9454
                                                                        42.2504
        26.2504
 -10237454.67247  -7962000.00845
                  22754878.8754                                   22754874.1724
                                                                        46.7504
        32.2504
 09 10 23  0 57  0.0000000  0  8G02G05G10G13G25G29G16G07
   -112355.62947    -48384.32845
                  22345384.0474                                   22345377.0434
                                                                        47.5004
        35.5004
 -26388865.99648 -20491116.80547
                  20758194.7344                                   20758190.3794
                                                                        52.7504
        43.7504
 -23177003.71548 -17985764.78946
                  20440525.7584                                   20440521.1954
                                                                        53.0004
        41.7504
  -2130728.01247  -1617909.26244
                  22856895.9304                                   22856891.1294
                                                                        44.2504
        28.0004
 -17565010.34047 -13666501.25845
                  22581150.3984                                   22581145.7894
                                                                        46.5004
        31.0004
 -15714813.96548 -12179876.36346
                  22248683.3914                                   22248679.1374
                                                                        48.2504
        38.2504
  -6139838.29747  -4749110.94544
                  23614874.6564                                   23614869.6024
                                                                        42.7504
        27.0004
 -10379773.73047  -8072897.94145
                  22727797.2734                                   22727792.2114
                                                                        47.0004
        32.5004
 09 10 23  0 57 30.0000000  0  8G02G05G10G13G25G29G16G07
   -111177.87947    -47466.61745
                  22345606.8834                                   22345600.9884
                                                                        47.0004
        35.0004
 -26516804.80948 -20590809.21147
                  20733848.8834                                   20733844.1334
                                                                        52.5004
        43.2504
 -23280361.69148 -18066303.35546
                  20420857.3984                                   20420853.4614
                                                                        53.0004
        41.0004
  -2133021.22347  -1619696.10944
                  22856459.5864                                   22856454.3594
                                                                        43.7504
        27.0004
 -17648077.32447 -13731228.75045
                  22565343.2504                                   22565338.5044
                                                                        46.0004
        31.7504
 -15775218.03947 -12226944.45746
                  22237189.1334                                   22237184.7344
                                                                        47.0004
        37.7504
  -6226398.32847  -4816560.30544
                  23598402.2814                                   23598397.6214
                                                                        42.2504
        25.5004
 -10521521.22347  -8183350.52345
                  22700823.1094                                   22700817.9064
                                                                        46.5004
        33.0004
 09 10 23  0 58  0.0000000  0  8G02G05G10G13G25G29G16G07
   -109638.45747    -46267.07045
                  22345900.5784                                   22345893.7344
                                                                        47.2504
        34.7504
 -26644211.27048 -20690086.94147
                  20709604.1724                                   20709599.5554
                                                                        52.0004
        43.5004
 -23383132.33248 -18146384.23046
                  20401300.5704                                   20401296.1484
                                                                        53.0004
        41.5004
  -2134928.22347  -1621182.05944
                  22856095.3444                                   22856091.6764
                                                                        42.5004
        24.7504
 -17730545.53947 -13795489.67645
                  22549650.0784                                   22549645.2544
                                                                        47.0004
        31.7504
 -15835028.49648 -12273550.05546
                  22225807.3524                                   22225803.2194
                                                                        48.7504
        38.5004
  -6312332.05147  -4883521.65644
                  23582049.9064                                   23582044.7274
                                                                        42.0004
        26.0004
 -10662692.34847  -8293353.96145
                  22673959.5004                                   22673953.9734
                                                                        47.0004
        32.0004
 09 10 23  0 58 30.0000000  0  8G02G05G10G13G25G29G16G07
   -107738.32848    -44786.48445
                  22346262.1024                                   22346255.8984
                                                                        48.0004
        35.2504
 -26771083.04348 -20788947.96547
                  20685461.1254                                   20685456.3404
                                                                        52.7504
        43.5004
 -23485314.75448 -18226006.86347
                  20381855.9384                                   20381851.3134
                                                                        52.7504
        42.0004
  -2136449.70747  -1622367.61344
                  22855806.8284                                   22855801.6844
                                                                        42.5004
        25.2504
 -17812413.97347 -13859283.24245
                  22534071.0084                                   22534066.2704
                                                                        47.0004
        30.7504
 -15894245.83648 -12319693.43446
                  22214538.7814                                   22214534.5234
                                                                        49.0004
        38.5004
  -6397638.91447  -4949994.55144
                  23565816.1724                                   23565811.3484
                                                                        43.5004
        26.5004
 -10803283.72747  -8402905.63345
                  22647205.6174                                   22647200.1094
                                                                        46.0004
        31.5004
 09 10 23  0 59  0.0000000  0  8G02G05G10G13G25G29G16G07
   -105484.14148    -43030.01645
                  22346691.2734                                   22346684.7074
                                                                        48.2504
        35.5004
 -26897422.92648 -20887394.59447
                  20661419.2034                                   20661415.0704
                                                                        52.0004
        43.7504
 -23586912.23848 -18305173.69546
                  20362522.5234                                   20362518.3444
                                                                        53.0004
        41.2504
  -2137593.85947  -1623259.26644
                  22855589.2194                                   22855584.3754
                                                                        42.0004
        26.0004
 -17893687.37947 -13922613.19545
                  22518605.2814                                   22518600.5664
                                                                        46.7504
        31.2504
 -15952875.00447 -12365378.48846
                  22203381.8754                                   22203377.4964
                                                                        47.7504
        38.2504
  -6482323.54346  -5015982.57444
                  23549701.3284                                   23549696.3954
                                                                        40.7504
        25.0004
 -10943297.51647  -8512007.24645
                  22620561.3754                                   22620556.1724
                                                                        46.5004
        32.2504
 09 10 23  0 59 30.0000000  0  8G02G05G10G13G25G29G16G07
   -102879.73447    -41000.66446
                  22347186.5864                                   22347180.3164
                                                                        47.7504
        36.0004
 -27023232.31248 -20985427.82047
                  20637478.6724                                   20637474.1684
                                                                        52.0004
        43.5004
 -23687926.98048 -18383886.43046
                  20343299.8674                                   20343295.5004
                                                                        52.7504
        41.7504
  -2138364.46147  -1623859.77044
                  22855443.0084                                   22855437.9884
                                                                        43.5004
        27.0004
 -17974368.30147 -13985481.53945
                  22503252.0864                                   22503247.5474
                                                                        47.5004
        30.5004
 -16010919.46148 -12410607.94946
                  22192336.4064                                   22192332.5314
                                                                        49.0004
        38.5004
  -6566388.15646  -5081487.50844
                  23533704.5554                                   23533699.4734
                                                                        41.5004
        26.2504
 -11082734.18447  -8620659.19545
                  22594027.5704                                   22594022.5984
                                                                        47.0004
        32.0004
 09 10 23  1  0  0.0000000  0  8G02G05G10G13G25G29G16G07
    -99923.88348    -38697.41046
                  22347749.3594                                   22347743.4534
                                                                        48.7504
        36.0004
 -27148507.23048 -21083044.61747
                  20613639.8054                                   20613634.8954
                                                                        52.0004
        43.5004
 -23788355.26648 -18462142.20747
                  20324188.9844                                   20324184.8714
                                                                        52.5004
        42.0004
  -2138760.43047  -1624168.26644
                  22855367.6094                                   22855362.8134
                                                                        44.0004
        28.5004
 -18054453.32447 -14047885.52045
                  22488012.4774                                   22488007.7854
                                                                        46.7504
        31.2504
 -16068377.18048 -12455380.28946
                  22181402.6484                                   22181398.5944
                                                                        48.7504
        39.0004
  -6649829.44147  -5146506.71544
                  23517825.8674                                   23517821.2734
                                                                        42.0004
        26.2504
 -11221588.18447  -8728857.08245
                  22567604.6414                                   22567599.0514
                                                                        46.5004
        32.2504
 09 10 23  1  0 30.0000000  0  8G02G05G10G13G25G29G16G07
    -96619.94548    -36122.96545
                  22348378.0234                                   22348371.5314
                                                                        49.0004
        35.2504
 -27273247.26248 -21180244.64147
                  20589902.1724                                   20589897.7114
                                                                        52.2504
        43.2504
 -23888197.72348 -18539941.51646
                  20305189.5394                                   20305185.2504
                                                                        52.5004
        41.2504
  -2138785.77047  -1624187.91044
                  22855362.3444                                   22855357.5354
                                                                        43.5004
        27.0004
 -18133943.68447 -14109826.01645
                  22472885.9224                                   22472881.2704
                                                                        46.7504
        30.5004
 -16125250.23848 -12499697.16446
                  22170580.0704                                   22170576.3364
                                                                        49.2504
        38.5004
  -6732648.72347  -5211041.25844
                  23502065.9694                                   23502060.8364
                                                                        42.7504
        27.0004
 -11359858.56647  -8836600.21545
                  22541292.1804                                   22541287.4574
                                                                        46.0004
        31.5004
 09 10 23  1  1  0.0000000  0  8G02G05G10G13G25G29G16G07
    -92969.55548    -33278.54345
                  22349072.7894                                   22349066.6134
                                                                        48.0004
        34.7504
 -27397450.96148 -21277026.73847
                  20566267.0084                                   20566262.3984
                                                                        53.0004
        43.5004
 -23987453.74648 -18617283.85246
                  20286301.9064                                   20286297.4224
                                                                        52.0004
        41.7504
  -2138442.72747  -1623920.53144
                  22855427.1884                                   22855422.4774
                                                                        42.7504
        26.0004
 -18212839.78547 -14171303.44545
                  22457872.4534                                   22457867.9144
                                                                        45.0004
        30.7504
 -16181538.82048 -12543558.55946
                  22159869.1334                                   22159865.2034
                                                                        50.0004
        38.7504
  -6814845.83647  -5275090.98844
                  23486424.8284                                   23486419.6524
                                                                        42.2504
        26.5004
 -11497543.58647  -8943887.22745
                  22515091.8594                                   22515086.8914
                                                                        46.5004
        32.5004
 09 10 23  1  1 30.0000000  0  8G02G05G10G13G25G29G16G07
    -88976.78947    -30167.34445
                  22349832.0944                                   22349826.0784
                                                                        47.5004
        34.5004
 -27521119.62548 -21373391.92647
                  20542733.5234                                   20542729.3714
                                                                        52.0004
        43.5004
 -24086125.27748 -18694170.74246
                  20267525.1484                                   20267521.1644
                                                                        52.2504
        41.5004
  -2137734.64147  -1623368.62143
                  22855561.6564                                   22855557.1954
                                                                        43.5004
        22.7504
 -18291143.87947 -14232319.60545
                  22442971.6564                                   22442967.4734
                                                                        45.5004
        30.7504
 -16237246.52748 -12586967.17246
                  22149268.2194                                   22149264.4384
                                                                        49.5004
        39.0004
  -6896423.43047  -5338657.97744
                  23470901.1644                                   23470896.2034
                                                                        42.2504
        27.0004
 -11634642.96947  -9050717.87545
                  22489003.2504                                   22488997.7894
                                                                        46.5004
        32.0004
 09 10 23  1  2  0.0000000  0  8G02G05G10G13G25G29G16G07
    -84646.23048    -26792.86745
                  22350656.7194                                   22350650.0744
                                                                        48.0004
        34.7504
 -27644254.28148 -21469340.99247
                  20519301.7274                                   20519297.3914
                                                                        51.2504
        43.5004
 -24184214.42248 -18770603.83646
                  20248859.6254                                   20248855.2154
                                                                        51.7504
        41.5004
  -2136667.53947  -1622537.04344
                  22855765.1954                                   22855759.8094
                                                                        43.0004
        25.2504
 -18368858.65647 -14292876.46145
                  22428182.5164                                   22428178.2344
                                                                        46.0004
        30.7504
 -16292375.97348 -12629924.94546
                  22138777.6724                                   22138773.6684
                                                                        50.0004
        38.7504
  -6977384.08247  -5401744.23444
                  23455494.1484                                   23455489.7234
                                                                        43.2504
        26.0004
 -11771157.63747  -9157092.93745
                  22463025.0944                                   22463020.0634
                                                                        46.0004
        32.5004
 09 10 23  1  2 30.0000000  0  8G02G05G10G13G25G29G16G07
    -79978.31247    -23155.54345
                  22351544.7274                                   22351538.3404
                                                                        46.0004
        34.7504
 -27766852.74248 -21564872.26247
                  20495972.3364                                   20495967.5434
                                                                        51.7504
        43.5004
 -24281719.61748 -18846581.93046
                  20230304.9384                                   20230300.6524
                                                                        52.0004
        41.5004
  -2135241.99647  -1621426.24643
                  22856035.5704                                   22856031.0904
                                                                        43.0004
        22.5004
 -18445983.17647 -14352973.48845
                  22413507.0634                                   22413502.2074
                                                                        46.0004
        31.0004
 -16346928.10948 -12672432.83246
                  22128396.5784                                   22128392.4384
                                                                        49.7504
        38.7504
  -7057726.80547  -5464348.97344
                  23440205.9844                                   23440201.4384
                                                                        43.0004
        26.0004
 -11907083.82447  -9263009.48045
                  22437159.0474                                   22437154.1334
                                                                        47.0004
        33.0004
 09 10 23  1  3  0.0000000  0  8G02G05G10G13G25G29G16G07
    -74975.51247    -19257.27345
                  22352497.0314                                   22352490.2344
                                                                        46.0004
        34.7504
 -27888913.75448 -21659984.76247
                  20472744.7504                                   20472740.4454
                                                                        51.0004
        44.0004
 -24378640.49648 -18922104.71946
                  20211861.6254                                   20211856.9494
                                                                        52.5004
        41.2504
  -2133461.21146  -1620038.59844
                  22856375.2814                                   22856370.3594
                                                                        41.7504
        25.2504
 -18522517.81647 -14412610.79345
                  22398942.4844                                   22398937.8014
                                                                        46.5004
        30.5004
 -16400903.19948 -12714491.12946
                  22118124.8524                                   22118120.8014
                                                                        49.5004
        38.0004
  -7137451.20747  -5526471.92644
                  23425035.0394                                   23425030.0594
                                                                        43.7504
        26.5004
 -12042419.96547  -9368466.30145
                  22411405.2894                                   22411399.8284
                                                                        46.7504
        32.0004
 09 10 23  1  3 30.0000000  0  9G02G21G05G10G13G25G29G16G07
    -69638.34847    -15098.44945
                  22353512.3134                                   22353506.1684
                                                                        47.0004
        35.2504
  10736231.49256   8408484.41053
                  24648733.8054                                   24648728.9104
                                                                        41.0004
        19.7504
 -28010435.56248 -21754677.19147
                  20449620.2974                                   20449615.3874
                                                                        52.0004
        43.5004
 -24474975.76248 -18997171.22346
                  20193529.6884                                   20193525.5594
                                                                        52.2504
        41.5004
  -2131325.66847  -1618374.53544
                  22856781.5314                                   22856777.1174
                                                                        44.5004
        27.2504
 -18598461.89547 -14471787.89845
                  22384490.8754                                   22384486.0274
                                                                        45.5004
        30.7504
 -16454302.11748 -12756100.44146
                  22107963.5004                                   22107959.1914
                                                                        49.2504
        38.0004
  -7216557.20347  -5588112.98444
                  23409981.6644                                   23409976.6414
                                                                        43.0004
        26.0004
 -12177162.53947  -9473460.50845
                  22385764.7274                                   22385760.0204
                                                                        47.0004
        32.7504
 09 10 23  1  4  0.0000000  0  9G02G21G05G10G13G25G29G16G07
   1511445.01247   1216914.52345
                  22654382.7584                                   22654376.3914
                                                                        45.7504
        34.7504
  12111909.07447   9480441.00843
                  24910516.8284                                   24910511.0274
                                                                        42.5004
        22.0004
 -26555998.38348 -20621349.49647
                  20726390.0864                                   20726385.5084
                                                                        52.2504
        43.5004
 -22995307.36748 -17844182.89847
                  20475101.0004                                   20475096.8834
                                                                        52.5004
        42.0004
   -553423.10547   -388840.09044
                  23157046.3524                                   23157042.2974
                                                                        42.7504
        26.7504
 -17098398.98047 -13302907.64145
                  22669943.2114                                   22669938.3164
                                                                        46.5004
        30.0004
 -14931709.52748 -11569664.55146
                  22397702.6564                                   22397698.4304
                                                                        49.0004
        37.7504
  -5719627.99247  -4421674.63744
                  23694837.6024                                   23694832.8164
                                                                        43.7504
        26.0004
 -10735891.33247  -8350391.98445
                  22660029.8754                                   22660024.7154
                                                                        47.0004
        33.5004
 09 10 23  1  4 30.0000000  0  9G02G21G05G10G13G25G29G16G07
   1517427.27047   1221575.95345
                  22655521.7194                                   22655515.1454
                                                                        46.0004
        35.5004
  11912278.25446   9324884.60244
                  24872528.3754                                   24872523.2194
                                                                        40.7504
        24.0004
 -26676454.75448 -20715211.51647
                  20703468.2194                                   20703463.6294
                                                                        51.7504
        43.7504
 -23090487.48048 -17918349.18447
                  20456988.7504                                   20456985.0394
                                                                        52.0004
        42.0004
   -550602.19947   -386642.00044
                  23157582.5784                                   23157579.0864
                                                                        42.0004
        26.2504
 -17173180.00847 -13361178.53945
                  22655712.6174                                   22655708.1914
                                                                        46.5004
        31.2504
 -14983975.54748 -11610391.26246
                  22387757.0864                                   22387752.5634
                                                                        48.0004
        38.5004
  -5797514.39847  -4482365.34444
                  23680016.6254                                   23680011.9454
                                                                        44.2504
        26.7504
 -10869458.98447  -8454470.63745
                  22634612.7974                                   22634607.2974
                                                                        46.5004
        33.0004
 09 10 23  1  5  0.0000000  0  9G02G21G05G10G13G25G29G16G07
   1523727.80947   1226485.43045
                  22656719.8364                                   22656714.2774
                                                                        47.5004
        35.0004
  11712768.76246   9169422.69544
                  24834563.0394                                   24834558.3094
                                                                        40.5004
        24.5004
 -26796379.05548 -20808658.98047
                  20680647.2584                                   20680642.6994
                                                                        52.0004
        43.5004
 -23185091.04748 -17992066.18746
                  20438986.3914                                   20438982.2704
                                                                        52.2504
        41.7504
   -547444.80546   -384181.73444
                  23158183.8984                                   23158179.8834
                                                                        41.5004
        24.0004
 -17247381.93447 -13418998.23845
                  22641592.7894                                   22641587.9304
                                                                        46.5004
        30.7504
 -15035679.27048 -11650679.94546
                  22377917.8284                                   22377913.9344
                                                                        49.2504
        38.2504
  -5874793.57847  -4542582.87944
                  23665310.8914                                   23665306.0354
                                                                        45.0004
        25.2504
 -11002437.88347  -8558090.55545
                  22609307.4224                                   22609302.6484
                                                                        47.0004
        32.5004
 09 10 23  1  5 30.0000000  0  9G02G21G05G10G13G25G29G16G07
   1530348.66847   1231644.46545
                  22657979.6484                                   22657973.6844
                                                                        46.5004
        33.5004
  11513388.28146   9014061.37543
                  24796621.8444                                   24796617.2544
                                                                        38.0004
        21.5004
 -26915765.38748 -20901687.24247
                  20657928.8364                                   20657923.7854
                                                                        51.2504
        44.0004
 -23279113.94148 -18065330.69946
                  20421094.2664                                   20421090.1294
                                                                        51.2504
        41.7504
   -543947.61347   -381456.66443
                  23158849.6954                                   23158844.9774
                                                                        42.7504
        22.7504
 -17321000.72347 -13476363.53145
                  22627583.7664                                   22627578.7544
                                                                        46.7504
        30.5004
 -15086816.55548 -11690527.24246
                  22368187.1724                                   22368183.1684
                                                                        49.0004
        38.5004
  -5951460.93747  -4602323.67244
                  23650721.4384                                   23650716.6914
                                                                        44.2504
        27.7504
 -11134822.23447  -8661247.27045
                  22584115.8444                                   22584110.5904
                                                                        47.5004
        32.5004
 09 10 23  1  6  0.0000000  0  9G02G21G05G10G13G25G29G16G07
   1537292.36747   1237055.13745
                  22659301.4844                                   22659295.1804
                                                                        47.0004
        34.2504
  11314142.39146   8858805.04343
                  24758706.5314                                   24758701.8794
                                                                        38.0004
        21.7504
 -27034608.60548 -20994292.30947
                  20635313.6254                                   20635309.3674
                                                                        51.7504
        43.5004
 -23372551.70748 -18138139.29347
                  20403313.6884                                   20403309.4774
                                                                        52.0004
        42.0004
   -540108.97747   -378465.52743
                  23159580.0084                                   23159575.7344
                                                                        42.0004
        22.5004
 -17394032.46147 -13533271.42245
                  22613686.3754                                   22613681.4614
                                                                        46.7504
        30.5004
 -15137384.65648 -11729930.93446
                  22358564.1564                                   22358560.2624
                                                                        49.5004
        37.5004
  -6027513.25447  -4661585.21544
                  23636249.3054                                   23636244.3834
                                                                        44.2504
        24.5004
 -11266605.72747  -8763935.71145
                  22559038.1484                                   22559032.8444
                                                                        46.5004
        33.0004
 09 10 23  1  6 30.0000000  0  9G02G21G05G10G13G25G29G16G07
   1544557.15247   1242715.98045
                  22660684.3594                                   22660677.3014
                                                                        45.7504
        33.7504
  11115033.86346   8703655.63743
                  24720817.3984                                   24720812.2034
                                                                        41.5004
        21.2504
 -27152907.47748 -21086473.18447
                  20612802.0164                                   20612797.5354
                                                                        52.2504
        43.2504
 -23465403.44148 -18210491.27746
                  20385644.6094                                   20385640.3444
                                                                        52.5004
        41.7504
   -535931.21547   -375210.16444
                  23160375.3914                                   23160370.2424
                                                                        43.0004
        24.7504
 -17466476.93747 -13589721.66845
                  22599900.1024                                   22599895.6804
                                                                        46.0004
        30.5004
 -15187384.64548 -11768891.96546
                  22349049.8054                                   22349045.6994
                                                                        48.5004
        37.5004
  -6102950.35546  -4720367.37944
                  23621893.7894                                   23621888.8954
                                                                        41.5004
        26.7504
 -11397786.06247  -8866154.36745
                  22534075.2894                                   22534070.6294
                                                                        47.0004
        33.0004
 09 10 23  1  7  0.0000000  0  9G02G21G05G10G13G25G29G16G07
   1552141.11747   1248625.59845
                  22662126.9774                                   22662120.2464
                                                                        46.0004
        33.5004
  10916066.56947   8548616.20043
                  24682956.0864                                   24682949.4184
                                                                        43.7504
        22.0004
 -27270660.87548 -21178229.10547
                  20590394.3284                                   20590389.6764
                                                                        51.5004
        43.5004
 -23557668.81248 -18282386.36347
                  20368087.2894                                   20368082.8364
                                                                        52.2504
        42.0004
   -531416.00447   -371691.76643
                  23161234.6174                                   23161229.6884
                                                                        42.5004
        23.5004
 -17538334.69947 -13645714.72345
                  22586226.5004                                   22586221.2544
                                                                        46.7504
        31.0004
 -15236816.81248 -11807410.60946
                  22339642.8524                                   22339638.5554
                                                                        49.5004
        38.0004
  -6177771.95747  -4778669.94544
                  23607656.2504                                   23607651.4024
                                                                        44.5004
        25.2504
 -11528360.48447  -8967900.53545
                  22509228.1804                                   22509222.9344
                                                                        46.5004
        33.0004
 09 10 23  1  7 30.0000000  0  9G02G21G05G10G13G25G29G16G07
   1560042.39147   1254782.39845
                  22663630.6724                                   22663624.8364
                                                                        46.0004
        34.0004
  10717242.39547   8393688.26643
                  24645120.1884                                   24645114.9064
                                                                        44.2504
        21.5004
 -27387867.57848 -21269559.05547
                  20568090.7274                                   20568086.0514
                                                                        52.0004
        43.5004
 -23649347.85248 -18353824.64547
                  20350641.0314                                   20350637.3404
                                                                        52.5004
        42.0004
   -526565.83646   -367912.39143
                  23162156.9924                                   23162152.2774
                                                                        40.7504
        23.2504
 -17609606.19547 -13701250.95745
                  22572663.8134                                   22572659.2814
                                                                        46.2504
        31.5004
 -15285682.71548 -11845487.92646
                  22330344.3834                                   22330339.7154
                                                                        49.5004
        37.2504
  -6251978.47347  -4836493.21544
                  23593534.5314                                   23593530.4024
                                                                        43.7504
        25.5004
 -11658327.87947  -9069173.66445
                  22484495.5314                                   22484490.7384
                                                                        47.0004
        33.2504
 09 10 23  1  8  0.0000000  0  9G02G21G05G10G13G25G29G16G07
   1568259.77047   1261185.53145
                  22665194.1414                                   22665187.9144
                                                                        46.0004
        33.2504
  10518564.68447   8238874.46543
                  24607312.8204                                   24607307.5984
                                                                        42.2504
        22.2504
 -27504525.62548 -21360461.49647
                  20545891.4844                                   20545886.7384
                                                                        52.0004
        44.0004
 -23740439.65648 -18424805.30146
                  20333307.1484                                   20333303.1414
                                                                        52.5004
        41.7504
   -521383.25047   -363874.02344
                  23163143.2814                                   23163138.5594
                                                                        43.7504
        26.5004
 -17680291.16847 -13756330.16045
                  22559212.6884                                   22559208.3914
                                                                        46.5004
        30.2504
 -15333982.64548 -11883124.21946
                  22321153.1564                                   22321148.8634
                                                                        49.5004
        38.0004
  -6325569.99247  -4893837.24644
                  23579530.7664                                   23579526.0314
                                                                        44.5004
        26.0004
 -11787685.91847  -9169971.93745
                  22459879.1484                                   22459874.2464
                                                                        47.0004
        33.0004
 09 10 23  1  8 30.0000000  0  9G02G21G05G10G13G25G29G16G07
   1576792.53947   1267834.39145
                  22666818.0084                                   22666811.7464
                                                                        46.2504
        34.0004
  10320036.54746   8084177.24243
                  24569533.8914                                   24569529.1604
                                                                        39.2504
        22.0004
 -27620632.54348 -21450934.43447
                  20523797.0944                                   20523792.6054
                                                                        52.7504
        43.7504
 -23830942.36748 -18495326.91446
                  20316085.0554                                   20316080.9104
                                                                        52.5004
        41.5004
   -515868.34847   -359576.66844
                  23164192.9614                                   23164188.8594
                                                                        43.0004
        25.0004
 -17750388.56247 -13810951.53945
                  22545873.5234                                   22545869.2894
                                                                        46.5004
        31.2504
 -15381716.88748 -11920319.73446
                  22312069.3594                                   22312065.3404
                                                                        49.2504
        37.7504
  -6398545.72747  -4950701.43744
                  23565643.6484                                   23565639.3364
                                                                        44.0004
        25.7504
 -11916431.40647  -9270292.96945
                  22435379.9144                                   22435374.5634
                                                                        46.7504
        32.2504
 09 10 23  1  9  0.0000000  0  9G02G21G05G10G13G25G29G16G07
   1585637.58647   1274726.59045
                  22668500.9454                                   22668494.7974
                                                                        46.5004
        33.5004
  10121659.26646   7929597.57443
                  24531783.7974                                   24531779.7544
                                                                        40.2504
        22.0004
 -27736189.34848 -21540978.68747
                  20501807.1724                                   20501802.7704
                                                                        52.0004
        43.5004
 -23920857.32848 -18565390.51646
                  20298974.5784                                   20298970.5164
                                                                        52.0004
        41.5004
   -510024.50046   -355023.02043
                  23165305.2894                                   23165299.9184
                                                                        41.0004
        23.0004
 -17819900.31247 -13865116.55145
                  22532646.0314                                   22532641.4884
                                                                        45.5004
        30.2504
 -15428887.89848 -11957076.36346
                  22303092.7974                                   22303089.1764
                                                                        49.5004
        37.7504
  -6470907.68047  -5007087.35244
                  23551874.0864                                   23551868.9574
                                                                        45.0004
        26.2504
 -12044563.85547  -9370136.39545
                  22410996.8054                                   22410992.2344
                                                                        46.5004
        33.0004
 09 10 23  1  9 30.0000000  0  9G02G21G05G10G13G25G29G16G07
   1594791.64147   1281859.59445
                  22670243.3364                                   22670236.6914
                                                                        46.7504
        33.2504
   9923435.00046   7775137.18844
                  24494063.2034                                   24494058.5164
                                                                        40.5004
        25.5004
 -27851195.40648 -21630593.70747
                  20479922.2894                                   20479917.7194
                                                                        51.0004
        44.0004
 -24010185.58648 -18634996.94946
                  20281976.2344                                   20281972.0434
                                                                        51.7504
        41.7504
   -503856.07047   -350216.48844
                  23166479.2424                                   23166474.3794
                                                                        42.2504
        24.0004
 -17888828.23447 -13918826.61745
                  22519529.2504                                   22519525.0634
                                                                        45.2504
        31.0004
 -15475497.56648 -11993395.61746
                  22294223.5164                                   22294220.0514
                                                                        48.5004
        37.7504
  -6542656.55547  -5062995.59044
                  23538220.5704                                   23538215.9574
                                                                        44.5004
        26.2504
 -12172083.14847  -9469502.05545
                  22386730.9454                                   22386726.3754
                                                                        47.0004
        33.5004
 09 10 23  1 10  0.0000000  0  9G02G21G05G10G13G25G29G16G07
   1604249.59447   1289229.41845
                  22672043.0704                                   22672036.4654
                                                                        46.2504
        33.0004
   9725362.11747   7620794.71544
                  24456371.9304                                   24456366.5274
                                                                        42.5004
        26.5004
 -27965653.88748 -21719782.09447
                  20458141.4844                                   20458137.0004
                                                                        51.0004
        43.5004
 -24098930.48448 -18704148.79747
                  20265088.6024                                   20265084.2034
                                                                        51.2504
        42.2504
   -497367.91047   -345160.82043
                  23167713.3754                                   23167708.9224
                                                                        43.5004
        22.5004
 -17957176.09447 -13972084.71545
                  22506523.3284                                   22506518.8134
                                                                        45.7504
        31.5004
 -15521550.94148 -12029281.36346
                  22285459.7114                                   22285455.5434
                                                                        49.2504
        37.5004
  -6613796.75047  -5118429.52344
                  23524683.2974                                   23524678.2034
                                                                        43.5004
        26.0004
 -12298990.57447  -9568390.97745
                  22362581.0784                                   22362576.3444
                                                                        47.5004
        33.5004
 09 10 23  1 10 30.0000000  0  9G02G21G05G10G13G25G29G16G07
   1614010.67647   1296835.43845
                  22673900.3594                                   22673894.0124
                                                                        47.0004
        32.5004
   9527444.94147   7466573.57443
                  24418709.3834                                   24418704.0554
                                                                        42.0004
        23.2504
 -28079562.33648 -21808541.90247
                  20436465.4224                                   20436460.9414
                                                                        51.7504
        43.7504
 -24187089.99648 -18772844.47346
                  20248312.1174                                   20248308.2504
                                                                        51.7504
        41.2504
   -490559.93747   -339855.88743
                  23169009.4224                                   23169004.1214
                                                                        44.5004
        23.0004
 -18024942.97347 -14024890.07445
                  22493627.5474                                   22493623.2344
                                                                        46.5004
        30.2504
 -15567048.04748 -12064733.63746
                  22276801.9614                                   22276797.8094
                                                                        48.2504
        37.7504
  -6684327.68447  -5173388.68444
                  23511261.3284                                   23511256.5704
                                                                        43.7504
        25.2504
 -12425282.73447  -9666800.50445
                  22338548.8204                                   22338543.3954
                                                                        47.7504
        32.7504
 09 10 23  1 11  0.0000000  0  9G02G21G05G10G13G25G29G16G07
   1624071.36747   1304674.94945
                  22675815.1174                                   22675808.8244
                                                                        46.2504
        33.0004
   9329684.19146   7312474.34043
                  24381075.9774                                   24381070.9264
                                                                        40.7504
        22.5004
 -28192921.52048 -21896873.72347
                  20414893.8834                                   20414888.9844
                                                                        51.2504
        43.2504
 -24274665.99248 -18841085.46947
                  20231647.0314                                   20231642.8134
                                                                        52.0004
        42.0004
   -483438.18747   -334306.50043
                  23170364.2814                                   23170359.2584
                                                                        43.5004
        22.7504
 -18092131.09047 -14077244.43745
                  22480842.1024                                   22480837.7304
                                                                        44.7504
        30.0004
 -15611991.96548 -12099754.86746
                  22268249.5474                                   22268245.5634
                                                                        49.0004
        37.2504
  -6754251.28147  -5227874.61744
                  23497955.1254                                   23497950.1804
                                                                        42.7504
        25.7504
 -12550959.91847  -9764730.79745
                  22314633.5004                                   22314627.8554
                                                                        47.7504
        33.0004
 09 10 23  1 11 30.0000000  0  9G02G21G05G10G13G25G29G16G07
   1634430.30547   1312746.79745
                  22677786.2114                                   22677779.9224
                                                                        45.0004
        32.2504
   9132083.47346   7158499.85943
                  24343473.5634                                   24343468.7344
                                                                        39.5004
        21.5004
 -28305729.34448 -21984775.91047
                  20393426.9304                                   20393422.9924
                                                                        51.5004
        43.7504
 -24361657.66848 -18908871.18046
                  20215093.2814                                   20215088.7854
                                                                        52.0004
        41.7504
   -476003.30947   -328513.01643
                  23171779.2974                                   23171773.8324
                                                                        44.0004
        22.7504
 -18158740.31647 -14129147.73844
                  22468166.6724                                   22468162.2344
                                                                        46.0004
        29.5004
 -15656382.85948 -12134345.16046
                  22259802.5084                                   22259798.3674
                                                                        50.0004
        38.0004
  -6823566.92647  -5281886.81244
                  23484765.1334                                   23484760.3014
                                                                        43.5004
        24.2504
 -12676019.42247  -9862179.77045
                  22290835.0784                                   22290830.0084
                                                                        47.2504
        33.2504
 09 10 23  1 12  0.0000000  0  9G02G21G05G10G13G25G29G16G07
   1645084.37147   1321048.67645
                  22679813.7504                                   22679807.5554
                                                                        46.2504
        32.5004
   8934643.76646   7004650.76643
                  24305902.3754                                   24305896.9144
                                                                        39.5004
        22.0004
 -28417986.03948 -22072248.68747
                  20372065.7114                                   20372060.9454
                                                                        51.5004
        44.0004
 -24448066.19548 -18976202.49246
                  20198650.0474                                   20198646.0084
                                                                        52.5004
        41.7504
   -468258.46147   -322478.06243
                  23173252.5634                                   23173247.7074
                                                                        43.5004
        22.0004
 -18224772.48547 -14180601.36245
                  22455601.2814                                   22455596.8554
                                                                        46.5004
        30.0004
 -15700223.23848 -12168506.47346
                  22251460.0004                                   22251455.4614
                                                                        49.5004
        37.5004
  -6892276.86747  -5335427.03944
                  23471689.8054                                   23471684.7814
                                                                        44.2504
        25.5004
 -12800461.24247  -9959147.41045
                  22267154.9614                                   22267149.8284
                                                                        47.7504
        33.0004
 09 10 23  1 12 30.0000000  0  9G02G21G05G10G13G25G29G16G07
   3231453.74247   2557180.62145
                  22981689.5234                                   22981683.5204
                                                                        46.0004
        33.0004
  10312795.92247   8078535.59843
                  24568156.1254                                   24568150.5784
                                                                        42.0004
        23.7504
 -26954264.82448 -20931686.72347
                  20650602.5474                                   20650597.7854
                                                                        52.0004
        43.2504
 -22958466.23848 -17815475.25446
                  20482111.4844                                   20482107.3754
                                                                        52.5004
        41.5004
   1115215.85546    911398.01643
                  23474577.4614                                   23474573.0744
                                                                        40.5004
        22.2504
 -16714803.69147 -13004002.28545
                  22742938.7974                                   22742934.6804
                                                                        45.0004
        30.0004
 -14168091.27048 -10974637.38346
                  22543014.9694                                   22543010.3634
                                                                        49.5004
        37.5004
  -5384957.18047  -4160892.19944
                  23758523.3524                                   23758518.0044
                                                                        43.0004
        25.2504
 -11348857.07847  -8828027.28545
                  22543385.6954                                   22543380.6294
                                                                        46.5004
        32.7504
 09 10 23  1 13  0.0000000  0  9G02G21G05G10G13G25G29G16G07
   3242696.80147   2565941.35945
                  22983829.5234                                   22983823.3594
                                                                        46.5004
        33.0004
  10115690.26247   7924946.75444
                  24530648.4454                                   24530642.8014
                                                                        43.0004
        24.5004
 -27065412.16048 -21018295.03147
                  20629451.9534                                   20629447.3284
                                                                        51.0004
        44.0004
 -23043703.55148 -17881893.94546
                  20465891.4144                                   20465887.1094
                                                                        51.5004
        41.2504
   1123577.98847    917913.92644
                  23476169.2034                                   23476164.5514
                                                                        42.5004
        25.5004
 -16779679.14847 -13054554.59845
                  22730593.5704                                   22730588.9614
                                                                        46.0004
        30.0004
 -14210830.25048 -11007940.46946
                  22534881.7114                                   22534877.6134
                                                                        49.0004
        37.5004
  -5452452.65647  -4213486.06644
                  23745679.5084                                   23745674.3984
                                                                        44.5004
        24.5004
 -11472053.96147  -8924024.83645
                  22519941.9694                                   22519936.8284
                                                                        47.0004
        33.5004
 09 10 23  1 13 30.0000000  0  9G02G21G05G10G13G25G29G16G07
   3254226.07847   2574925.27745
                  22986023.2194                                   22986017.2154
                                                                        45.7504
        32.0004
   9918749.97747   7771486.75844
                  24493172.2424                                   24493166.8914
                                                                        43.5004
        25.2504
 -27176009.50048 -21104474.77047
                  20608405.7274                                   20608400.9184
                                                                        51.2504
        44.0004
 -23128360.64148 -17947860.50846
                  20449781.6564                                   20449777.4304
                                                                        51.7504
        41.7504
   1132239.53947    924663.23844
                  23477818.1024                                   23477812.6684
                                                                        42.0004
        24.7504
 -16843982.79347 -13104661.32845
                  22718356.8204                                   22718352.9144
                                                                        46.2504
        31.0004
 -14253026.69148 -11040820.80946
                  22526852.3524                                   22526847.9384
                                                                        49.7504
        38.0004
  -5519347.89547  -4265612.23044
                  23732949.9454                                   23732944.6214
                                                                        44.7504
        25.5004
 -11594631.21947  -9019539.59045
                  22496617.0004                                   22496611.3984
                                                                        47.5004
        33.0004
 09 10 23  1 14  0.0000000  0  9G02G21G05G10G13G25G29G16G07
   3266040.09047   2584130.95745
                  22988270.9384                                   22988265.0234
                                                                        45.0004
        31.5004
   9721978.19147   7618158.04744
                  24455727.2274                                   24455722.0004
                                                                        43.0004
        25.7504
 -27286054.98048 -21190224.50447
                  20587464.7734                                   20587460.3914
                                                                        51.2504
        43.5004
 -23212436.58248 -18013374.21946
                  20433782.9224                                   20433778.5164
                                                                        51.7504
        41.0004
   1141199.12946    931644.71943
                  23479522.0314                                   23479517.6214
                                                                        40.2504
        22.5004
 -16907714.54747 -13154322.44145
                  22706229.5164                                   22706225.0704
                                                                        46.7504
        31.0004
 -14294680.94948 -11073278.71946
                  22518925.8284                                   22518921.6294
                                                                        49.2504
        38.0004
  -5585642.79747  -4317270.57044
                  23720334.4614                                   23720329.3054
                                                                        45.5004
        25.5004
 -11716586.88347  -9114570.02345
                  22473409.3834                                   22473403.9144
                                                                        46.7504
        32.5004
 09 10 23  1 14 30.0000000  0  9G02G21G05G10G13G25G29G16G07
   3278140.62147   2593559.88345
                  22990574.3284                                   22990568.1134
                                                                        46.0004
        32.7504
   9525382.16047   7464966.25844
                  24418316.6564                                   24418311.1644
                                                                        42.0004
        24.7504
 -27395543.53948 -21275540.28547
                  20566630.1644                                   20566625.5864
                                                                        51.7504
        44.0004
 -23295927.68448 -18078432.21546
                  20417894.8834                                   20417890.6454
                                                                        51.7504
        41.5004
   1150458.51246    938859.86343
                  23481284.3134                                   23481279.8404
                                                                        40.5004
        22.0004
 -16970871.05547 -13203535.32845
                  22694211.6174                                   22694206.9024
                                                                        46.2504
        31.5004
 -14335789.89548 -11105311.70346
                  22511102.5314                                   22511099.0124
                                                                        48.2504
        37.2504
  -5651333.32847  -4368457.96144
                  23707834.2584                                   23707828.5514
                                                                        45.0004
        25.5004
 -11837915.45747  -9209111.81245
                  22450320.8054                                   22450315.9264
                                                                        47.2504
        33.2504
 09 10 23  1 15  0.0000000  0  9G02G21G05G10G13G25G29G16G07
   3290522.82447   2603208.31645
                  22992930.2504                                   22992924.4654
                                                                        46.0004
        33.0004
   9328960.60946   7311910.53143
                  24380938.8134                                   24380932.8324
                                                                        40.7504
        22.5004
 -27504477.90248 -21360424.21547
                  20545900.5164                                   20545895.9344
                                                                        51.5004
        44.0004
 -23378837.25848 -18143037.08646
                  20402117.3204                                   20402113.2624
                                                                        51.7504
        41.5004
   1160012.39546    946304.46943
                  23483102.6334                                   23483097.6254
                                                                        39.0004
        22.7504
 -17033456.26647 -13252303.01645
                  22682301.4454                                   22682296.9384
                                                                        46.2504
        30.7504
 -14376358.79348 -11136923.87546
                  22503382.9304                                   22503378.5864
                                                                        50.0004
        37.5004
  -5716423.90247  -4419177.85943
                  23695447.6094                                   23695442.6454
                                                                        44.0004
        23.5004
 -11958618.30947  -9303166.00045
                  22427352.1024                                   22427347.3634
                                                                        46.7504
        33.7504
 09 10 23  1 15 30.0000000  0  9G02G21G05G10G13G25G29G16G07
   3303179.19147   2613070.34045
                  22995338.9384                                   22995332.8094
                                                                        46.5004
        32.5004
   9132711.14846   7158988.91444
                  24343593.7114                                   24343588.2304
                                                                        41.2504
        24.0004
 -27612862.34048 -21444879.60947
                  20525275.6804                                   20525271.2304
                                                                        51.5004
        44.0004
 -23461170.77748 -18207193.09046
                  20386450.0084                                   20386445.7734
                                                                        51.7504
        41.2504
   1169852.73846    953972.27743
                  23484974.6804                                   23484970.6454
                                                                        39.0004
        21.5004
 -17095476.34047 -13300630.34045
                  22670499.4614                                   22670494.5904
                                                                        45.0004
        30.7504
 -14416394.22348 -11168120.32846
                  22495764.3364                                   22495760.0164
                                                                        48.5004
        37.0004
  -5780920.60947  -4469435.02744
                  23683174.5004                                   23683169.5314
                                                                        42.5004
        24.5004
 -12078699.77747  -9396735.94145
                  22404501.3754                                   22404496.3834
                                                                        47.7504
        33.0004
 09 10 23  1 16  0.0000000  0  9G02G21G05G10G13G25G29G16G07
   3316113.01647   2623148.61745
                  22997799.5944                                   22997793.8134
                                                                        46.2504
        32.2504
   8936640.47747   7006206.60944
                  24306282.5704                                   24306277.0514
                                                                        42.0004
        25.2504
 -27720691.41848 -21528902.23447
                  20504756.2034                                   20504751.8054
                                                                        50.7504
        43.7504
 -23542923.43448 -18270896.45746
                  20370893.0004                                   20370888.7234
                                                                        51.0004
        41.5004
   1179982.86746    961865.89543
                  23486903.2894                                   23486897.4494
                                                                        39.2504
        22.2504
 -17156927.13747 -13348514.06645
                  22658805.7734                                   22658800.5314
                                                                        44.7504
        30.2504
 -14455893.31648 -11198898.87146
                  22488247.8054                                   22488243.5634
                                                                        48.0004
        36.7504
  -5844819.60246  -4519226.43444
                  23671013.7424                                   23671009.6254
                                                                        41.5004
        24.2504
 -12198153.36347  -9489816.58645
                  22381770.0944                                   22381765.0474
                                                                        47.0004
        33.2504
 09 10 23  1 16 30.0000000  0  9G02G21G05G10G13G25G29G16G07
   3329319.50847   2633439.32445
                  23000312.9454                                   23000306.7504
                                                                        45.0004
        31.2504
   8740748.69547   6853563.69544
                  24269005.3134                                   24268999.8754
                                                                        43.7504
        24.0004
 -27827966.63348 -21612493.30547
                  20484342.6024                                   20484337.8524
                                                                        52.0004
        43.7504
 -23624097.42248 -18334148.91046
                  20355446.0864                                   20355441.7664
                                                                        52.0004
        41.5004
   1190397.39146    969981.11343
                  23488884.5944                                   23488879.4734
                                                                        39.2504
        22.2504
 -17217811.71547 -13395956.57844
                  22647219.5634                                   22647214.9104
                                                                        46.0004
        29.5004
 -14494859.86748 -11229262.44946
                  22480832.6804                                   22480828.5554
                                                                        49.2504
        37.0004
  -5908124.07047  -4568554.59843
                  23658968.2974                                   23658963.3164
                                                                        43.0004
        23.5004
 -12316979.86748  -9582408.60545
                  22359157.7584                                   22359153.1214
                                                                        48.0004
        33.5004
 09 10 23  1 17  0.0000000  0  9G02G21G05G10G13G25G29G16G07
   3342797.43447   2643941.57445
                  23002877.7424                                   23002871.7584
                                                                        45.7504
        31.5004
   8545041.03147   6701064.25444
                  24231763.3134                                   24231757.9414
                                                                        42.2504
        24.2504
 -27934686.32448 -21695651.52047
                  20464034.5084                                   20464030.0984
                                                                        52.0004
        44.0004
 -23704691.79348 -18396949.74246
                  20340109.4384                                   20340105.4734
                                                                        52.0004
        41.0004
   1201094.85546    978316.81644
                  23490920.0004                                   23490915.4224
                                                                        40.7504
        24.0004
 -17278130.26647 -13442958.04744
                  22635741.4224                                   22635736.3984
                                                                        45.0004
        29.0004
 -14533293.26248 -11259210.55146
                  22473519.3594                                   22473515.1484
                                                                        48.2504
        37.0004
  -5970832.87547  -4617418.60244
                  23647034.8914                                   23647029.5394
                                                                        43.2504
        25.7504
 -12435177.74247  -9674510.85945
                  22336665.7814                                   22336660.9964
                                                                        47.0004
        33.5004
