     2.11           OBSERVATION DATA    G (GPS)             RINEX VERSION / TYPE
teqc  2019Feb25                         20221121 12:28:45UTCPGM / RUN BY / DATE
OSX ker:10.11.6|Core i5|gcc 4.3 -m64|OSX ker:10.10+|=+      COMMENT
BIT 2 OF LLI FLAGS DATA COLLECTED UNDER A/S CONDITION       COMMENT
04712991                                                    MARKER NAME
2991                                                        MARKER NUMBER
-Unknown-           -Unknown-                               OBSERVER / AGENCY
0220400471          TRIMBLE R7          2.30                REC # / TYPE / VERS
-Unknown-           TRM39105.00     NONE                    ANT # / TYPE
  1449458.9015 -1709243.1701  5952440.6013                  APPROX POSITION XYZ
        0.0000        0.0000        0.0000                  ANTENNA: DELTA H/E/N
     1     1                                                WAVELENGTH FACT L1/2
    20    L1    L2    L5    L6    L7    L8    C1    P1    C2# / TYPES OF OBSERV
          P2    C5    C6    C7    C8    S1    S2    S5    S6# / TYPES OF OBSERV
          S7    S8                                          # / TYPES OF OBSERV
    30.0000                                                 INTERVAL
    15                                                      LEAP SECONDS
Forced Modulo Decimation to 30 seconds                      COMMENT
 SNR is mapped to RINEX snr flag value [0-9]                COMMENT
  L1 & L2: min(max(int(snr_dBHz/6), 0), 9)                  COMMENT
teqc edited: Beidou # 1 - 37 excluded                       COMMENT
  2009    10    26    23    11    0.0000000     GPS         TIME OF FIRST OBS
                                                            END OF HEADER
 09 10 26 23 11  0.0000000  0  7G02G04G05G10G13G23G30
   -103477.87958    -65282.36357
                  20348917.6094                                   20348912.5164
                                                                        52.2504
        43.7504
    -16038.07058    -10231.47756
                  21767758.6804                                   21767756.0984
                                                                        49.7504
        37.0004
   -222461.63757   -137809.12955
                  23077446.6254                                   23077443.3284
                                                                        47.0004
        34.5004
   -213485.95757   -132250.32856
                  22160629.8834                                   22160627.5664
                                                                        47.0004
        36.0004
   -120157.47358    -77529.55156
                  21139196.5164                                   21139192.9964
                                                                        49.2504
        36.7504
    -34158.05557    -21308.25855
                  22427728.3524                                   22427723.2734
                                                                        46.0004
        30.7504
     -5600.94957     -3818.62953
                  23919444.0164                                   23919440.7774
                                                                        42.5004
        23.0004
 09 10 26 23 11 30.0000000  0  8G02G04G05G10G13G23G29G30
   -199355.18748   -139991.90647
                  20330672.6254                                   20330667.2584
                                                                        52.0004
        43.2504
    -32624.26648    -23156.13346
                  21764602.8284                                   21764599.8954
                                                                        50.0004
        37.0004
   -426779.41448   -297018.33245
                  23038566.6414                                   23038562.9654
                                                                        48.0004
        34.7504
   -409544.99248   -285023.40246
                  22123320.6024                                   22123318.0864
                                                                        48.0004
        36.0004
   -230451.55548   -163473.17646
                  21118208.6564                                   21118205.0004
                                                                        49.7504
        36.5004
    -66984.66847    -46886.97345
                  22421481.5164                                   22421475.7384
                                                                        46.5004
        30.5004
   -338927.10957   -220051.05555
                  22711453.5004                                   22711450.4104
                                                                        45.2504
        34.5004
    -12883.36747     -9493.29343
                  23918057.8204                                   23918055.2934
                                                                        42.0004
        23.7504
 09 10 26 23 12  0.0000000  0  8G02G04G05G10G13G23G29G30
   -294799.05948   -214363.91447
                  20312510.4144                                   20312505.1764
                                                                        52.0004
        43.2504
    -48983.26248    -35903.72346
                  21761490.3364                                   21761487.6414
                                                                        49.5004
        37.0004
   -631012.55147   -456160.60945
                  22999701.6564                                   22999698.9064
                                                                        47.0004
        35.0004
   -605415.64847   -437650.80145
                  22086048.5164                                   22086046.3444
                                                                        47.0004
        35.5004
   -340226.38748   -249011.89146
                  21097318.8914                                   21097315.0274
                                                                        49.2504
        36.5004
    -99466.78547    -72197.68045
                  22415300.1804                                   22415294.6134
                                                                        45.2504
        30.2504
   -507880.33247   -351702.92245
                  22679302.5864                                   22679299.6024
                                                                        45.0004
        34.0004
    -19952.25046    -15001.57444
                  23916712.7584                                   23916710.6604
                                                                        41.7504
        25.2504
 09 10 26 23 12 30.0000000  0  8G02G04G05G10G13G23G29G30
   1186013.54748    939515.54347
                  20594299.9924                                   20594294.6764
                                                                        51.5004
        43.5004
   1510704.62948   1179437.55146
                  22058288.8754                                   22058286.2464
                                                                        49.0004
        37.0004
    740664.29347    612678.28145
                  23260723.4144                                   23260720.4064
                                                                        47.0004
        35.0004
    774736.49648    637793.46945
                  22348681.8054                                   22348678.7234
                                                                        48.5004
        35.5004
   1126340.96948    893767.77046
                  21376397.4224                                   21376393.6054
                                                                        48.5004
        36.5004
   1444214.82847   1130671.11745
                  22709053.5554                                   22709047.5354
                                                                        46.2504
        31.0004
    899303.62947    744804.06645
                  22947080.6334                                   22947078.3794
                                                                        45.5004
        34.5004
   1549008.80546   1207565.42244
                  24215276.2344                                   24215273.5824
                                                                        41.5004
        25.0004
 09 10 26 23 13  0.0000000  0  8G02G04G05G10G13G23G29G30
   1092349.73848    866530.28947
                  20576476.9144                                   20576471.7624
                                                                        51.5004
        43.0004
   1495707.69548   1167751.68446
                  22055434.8914                                   22055432.2934
                                                                        48.5004
        36.5004
    537514.30948    454379.61345
                  23222065.4384                                   23222061.9614
                                                                        48.0004
        35.0004
    580168.56348    486182.17245
                  22311657.2114                                   22311653.7504
                                                                        48.0004
        35.7504
   1018516.02348    809748.23046
                  21355878.7974                                   21355875.5664
                                                                        48.5004
        36.7504
   1413328.42247   1106603.75045
                  22703175.1334                                   22703170.0704
                                                                        46.0004
        31.2504
    731889.09847    614351.20745
                  22915222.7814                                   22915220.1484
                                                                        45.5004
        34.2504
   1543269.48247   1203093.13544
                  24214184.4304                                   24214181.5744
                                                                        42.0004
        25.2504
 09 10 26 23 13 30.0000000  0  8G02G04G05G10G13G23G29G30
    999681.94548    794321.96147
                  20558842.3754                                   20558837.0434
                                                                        52.5004
        43.0004
   1481492.91448   1156675.25046
                  22052729.8754                                   22052727.0664
                                                                        49.0004
        36.7504
    335013.21947    296586.75445
                  23183530.0164                                   23183526.9924
                                                                        46.5004
        34.5004
    386358.37548    335161.70746
                  22274775.4224                                   22274772.8524
                                                                        48.5004
        36.2504
    911771.77748    726571.12946
                  21335566.1334                                   21335562.7274
                                                                        49.0004
        37.2504
   1383340.84447   1083236.78544
                  22697469.6804                                   22697463.3284
                                                                        47.0004
        29.7504
    565350.40247    484580.78945
                  22883531.7734                                   22883529.2274
                                                                        45.7504
        34.7504
   1538293.41047   1199215.59444
                  24213237.4144                                   24213235.0864
                                                                        42.2504
        26.0004
 09 10 26 23 14  0.0000000  0  8G02G04G05G10G13G23G29G30
    908027.28548    722902.97347
                  20541400.6024                                   20541395.2424
                                                                        52.0004
        43.0004
   1468076.60548   1146221.20746
                  22050176.6024                                   22050173.9104
                                                                        48.7504
        36.5004
    133181.64147    139315.30545
                  23145123.0634                                   23145119.6094
                                                                        47.0004
        34.5004
    193326.28947    184747.28145
                  22238042.9844                                   22238040.0434
                                                                        47.7504
        35.7504
    806125.69148    644249.80546
                  21315461.9614                                   21315458.2624
                                                                        48.7504
        36.5004
   1354268.21947   1060582.80545
                  22691937.1414                                   22691930.8404
                                                                        45.7504
        30.5004
    399709.59447    355510.07445
                  22852011.3594                                   22852008.9304
                                                                        44.7504
        35.0004
   1534097.55946   1195946.03144
                  24212439.6024                                   24212436.8014
                                                                        41.2504
        26.0004
 09 10 26 23 14 30.0000000  0  8G02G04G05G10G13G23G29G30
    817385.72748    652273.27747
                  20524152.2344                                   20524147.1684
                                                                        52.5004
        43.5004
   1455456.71148   1136387.60246
                  22047775.0784                                   22047772.6604
                                                                        48.7504
        36.5004
    -67978.79348    -17433.16045
                  23106844.1724                                   23106840.2734
                                                                        48.5004
        34.7504
      1074.03947     34940.44946
                  22201458.6484                                   22201455.7114
                                                                        47.2504
        36.0004
    701577.80948    562783.89846
                  21295567.4534                                   21295563.6374
                                                                        48.5004
        37.2504
   1326108.53147   1038640.25044
                  22686578.2034                                   22686572.3634
                                                                        45.7504
        29.5004
    234968.71947    227140.57845
                  22820662.2114                                   22820658.8204
                                                                        45.5004
        34.5004
   1530677.39847   1193280.89143
                  24211788.3284                                   24211785.6724
                                                                        43.0004
        23.2504
 09 10 26 23 15  0.0000000  0  8G02G04G05G10G13G23G29G30
    727751.20748    582428.17647
                  20507095.5704                                   20507090.0744
                                                                        52.0004
        42.7504
   1443624.94548   1127168.10546
                  22045523.6414                                   22045520.6094
                                                                        48.5004
        36.5004
   -268471.34048   -173660.96945
                  23068691.4614                                   23068688.4884
                                                                        48.5004
        35.0004
   -190401.39847   -114261.09446
                  22165021.5554                                   22165018.7854
                                                                        47.0004
        36.7504
    598122.18448    482169.09046
                  21275880.2814                                   21275876.8444
                                                                        48.7504
        37.2504
   1298853.04747   1017402.26245
                  22681391.8834                                   22681385.6374
                                                                        46.2504
        30.2504
     71123.60247     99469.07845
                  22789483.0234                                   22789480.4614
                                                                        45.5004
        34.7504
   1528024.73847   1191213.86743
                  24211283.3674                                   24211280.8244
                                                                        43.7504
        23.2504
 09 10 26 23 15 30.0000000  0  8G02G04G05G10G13G23G29G30
    639112.23448    513358.84447
                  20490228.0314                                   20490222.9694
                                                                        50.7504
        43.0004
   1432567.39548   1118551.89546
                  22043419.2974                                   22043416.5044
                                                                        49.0004
        36.5004
   -468306.59447   -329376.73845
                  23030663.7734                                   23030660.8134
                                                                        47.5004
        35.5004
   -381110.48848   -262865.57446
                  22128730.8054                                   22128728.1374
                                                                        48.2504
        36.5004
    495747.05148    402396.32446
                  21256399.1884                                   21256395.1174
                                                                        49.2504
        36.2504
   1272487.69547    996857.85545
                  22676374.6254                                   22676368.1604
                                                                        45.5004
        31.0004
    -91835.77047    -27512.23445
                  22758473.3444                                   22758469.8554
                                                                        45.2504
        34.5004
   1526123.85547   1189732.62143
                  24210921.9064                                   24210919.1914
                                                                        43.5004
        23.7504
 09 10 26 23 16  0.0000000  0  7G02G04G05G10G13G23G29
    551457.35948    445056.34847
                  20473547.8984                                   20473542.7154
                                                                        51.7504
        43.2504
   1422271.68048   1110529.32446
                  22041459.9454                                   22041457.2234
                                                                        48.5004
        36.0004
   -667492.67648   -484586.46146
                  22992759.3674                                   22992756.3134
                                                                        48.0004
        36.0004
   -571061.98448   -410879.84445
                  22092584.6254                                   22092581.3524
                                                                        49.0004
        35.5004
    394442.19148    323457.46146
                  21237121.6254                                   21237117.6994
                                                                        49.2504
        36.5004
   1246999.43047    976996.87145
                  22671524.6334                                   22671518.8754
                                                                        46.2504
        30.5004
   -253917.85947   -153809.96145
                  22727629.7894                                   22727626.6804
                                                                        46.2504
        34.5004
 09 10 26 23 16 30.0000000  0  7G02G04G05G10G13G23G29
    464776.34448    377512.83247
                  20457052.8594                                   20457047.4224
                                                                        52.0004
        43.5004
   1412723.75448   1103089.45746
                  22039643.0944                                   22039640.0944
                                                                        50.0004
        36.5004
   -866038.89848   -639297.67645
                  22954977.2194                                   22954974.0474
                                                                        48.0004
        35.2504
   -760263.83248   -558309.71946
                  22056580.5554                                   22056577.1994
                                                                        49.0004
        36.2504
    294195.12148    245342.66846
                  21218045.0234                                   21218041.0634
                                                                        50.2504
        37.0004
   1222374.00047    957808.19145
                  22666838.1024                                   22666832.6724
                                                                        45.5004
        31.0004
   -415131.45347   -279430.93045
                  22696951.6174                                   22696948.5554
                                                                        46.0004
        34.0004
 09 10 26 23 17  0.0000000  0  7G02G04G05G10G13G23G29
    379058.48848    310719.74247
                  20440741.2034                                   20440735.5984
                                                                        52.7504
        42.7504
   1403912.27048   1096223.41845
                  22037966.2814                                   22037963.5554
                                                                        49.7504
        35.7504
  -1063954.22348   -793517.21545
                  22917315.1024                                   22917312.3054
                                                                        48.5004
        35.2504
   -948725.20748   -705162.65646
                  22020717.0474                                   22020713.8244
                                                                        48.5004
        36.5004
    194997.43048    168045.65646
                  21199168.7034                                   21199164.9774
                                                                        49.2504
        37.5004
   1198600.03947    939282.94944
                  22662313.9534                                   22662308.6524
                                                                        45.5004
        29.2504
   -575485.04347   -404381.76645
                  22666437.8444                                   22666434.6024
                                                                        44.7504
        33.5004
 09 10 26 23 17 30.0000000  0  7G02G04G05G10G13G23G29
    294296.24648    244671.53147
                  20424611.2274                                   20424605.8484
                                                                        52.7504
        43.0004
   1395827.09848   1089923.36746
                  22036427.7504                                   22036425.1214
                                                                        49.5004
        36.2504
  -1261244.55948   -947249.82445
                  22879772.0314                                   22879768.6214
                                                                        48.2504
        35.0004
  -1136452.18447   -851443.38346
                  21984993.8284                                   21984991.0314
                                                                        47.5004
        36.2504
     96841.04348     91560.50046
                  21180489.7274                                   21180485.9654
                                                                        50.0004
        37.0004
   1175666.80947    921412.92644
                  22657950.2814                                   22657944.4224
                                                                        46.0004
        29.5004
   -734984.67647   -528667.20345
                  22636085.7194                                   22636082.4184
                                                                        45.2504
        35.0004
 09 10 26 23 18  0.0000000  0  7G02G04G05G10G13G23G29
    210473.94948    179355.18047
                  20408660.3984                                   20408655.1884
                                                                        52.5004
        42.5004
   1388451.83648   1084176.41446
                  22035023.8364                                   22035020.9104
                                                                        49.0004
        36.2504
  -1457921.51648  -1100504.53145
                  22842345.6954                                   22842342.2034
                                                                        49.0004
        34.7504
  -1323456.57448   -997161.03146
                  21949408.0004                                   21949405.3484
                                                                        49.0004
        36.5004
      -290.18448     15873.42246
                  21162006.5084                                   21162002.7194
                                                                        49.2504
        36.7504
   1153557.78947    904185.13744
                  22653742.6334                                   22653737.0354
                                                                        46.0004
        29.5004
   -893641.97747   -652296.26645
                  22605894.4454                                   22605891.4454
                                                                        45.5004
        34.7504
 09 10 26 23 18 30.0000000  0  7G02G04G05G10G13G23G29
    127570.49248    114755.50847
                  20392884.4064                                   20392878.8164
                                                                        51.7504
        43.5004
   1381760.78548   1078962.47345
                  22033751.1644                                   22033748.2734
                                                                        48.5004
        35.7504
  -1654006.82448  -1253298.22346
                  22805032.1254                                   22805028.5824
                                                                        49.2504
        36.0004
  -1509758.82048  -1142331.44946
                  21913956.2034                                   21913953.1414
                                                                        48.5004
        36.2504
    -96416.93048    -59030.12546
                  21143714.0314                                   21143710.2894
                                                                        49.0004
        36.2504
   1132246.98447    887579.32044
                  22649687.7114                                   22649681.6374
                                                                        43.7504
        29.5004
  -1051478.13347   -775285.46545
                  22575859.6174                                   22575856.2234
                                                                        45.0004
        35.0004
 09 10 26 23 19  0.0000000  0  7G02G04G05G10G13G23G29
     45565.55948     50855.73047
                  20377279.2274                                   20377273.3954
                                                                        53.0004
        43.0004
   1375733.87147   1074266.04745
                  22032604.1094                                   22032601.3054
                                                                        47.7504
        35.5004
  -1849516.45348  -1405643.32845
                  22767827.3444                                   22767823.8914
                                                                        48.7504
        35.5004
  -1695375.68048  -1286967.87146
                  21878634.3204                                   21878630.9964
                                                                        48.5004
        37.2504
   -191559.54348   -133166.97746
                  21125608.8284                                   21125604.6804
                                                                        49.5004
        37.0004
   1111713.73847    871579.37944
                  22645780.2974                                   22645774.3874
                                                                        46.5004
        29.7504
  -1208509.02047   -897647.19545
                  22545977.3444                                   22545974.4454
                                                                        46.0004
        35.2504
 09 10 26 23 19 30.0000000  0  7G02G04G05G10G13G23G29
    -35553.69948    -12354.13747
                  20361842.7974                                   20361837.3404
                                                                        52.5004
        42.5004
   1370357.20748   1070076.56345
                  22031581.2194                                   22031578.4064
                                                                        49.0004
        35.5004
  -2044461.97748  -1557548.88345
                  22730731.0004                                   22730727.6884
                                                                        48.5004
        35.5004
  -1880318.50448  -1431079.15646
                  21843440.7504                                   21843437.6414
                                                                        48.7504
        37.7504
   -285730.41048   -206546.77746
                  21107688.4924                                   21107684.4774
                                                                        49.0004
        37.0004
   1091943.62547    856174.05945
                  22642018.3984                                   22642012.2344
                                                                        46.0004
        30.0004
  -1364746.39547  -1019390.59045
                  22516246.4304                                   22516243.4614
                                                                        46.0004
        35.7504
 09 10 26 23 20  0.0000000  0  7G02G04G05G10G13G23G29
   -115804.58648    -74887.15247
                  20346571.4694                                   20346565.6764
                                                                        53.0004
        42.7504
   1365609.06648   1066376.64546
                  22030677.3134                                   22030674.6884
                                                                        48.2504
        36.0004
  -2238858.82448  -1709026.84446
                  22693737.8524                                   22693734.8444
                                                                        49.0004
        36.7504
  -2064602.66448  -1574677.21946
                  21808372.3914                                   21808369.4414
                                                                        50.0004
        37.0004
   -378947.94548   -279183.47346
                  21089949.5164                                   21089945.5824
                                                                        49.5004
        36.5004
   1072914.95747    841346.52044
                  22638397.1724                                   22638391.3634
                                                                        46.0004
        27.5004
  -1520205.73847  -1140527.73445
                  22486663.3364                                   22486660.5984
                                                                        47.5004
        35.2504
 09 10 26 23 20 30.0000000  0  7G02G04G05G10G13G23G29
   -195198.16448   -136752.25847
                  20331463.0944                                   20331457.6374
                                                                        53.2504
        43.2504
   1361477.69548   1063157.44545
                  22029891.5634                                   22029888.5744
                                                                        49.0004
        35.7504
  -2432715.46548  -1860083.90646
                  22656848.3134                                   22656844.9804
                                                                        48.5004
        36.5004
  -2248236.09048  -1717768.12146
                  21773428.1954                                   21773425.0944
                                                                        49.0004
        37.5004
   -471223.16048   -351086.04746
                  21072389.8444                                   21072385.9654
                                                                        48.5004
        37.0004
   1054615.63347    827087.25044
                  22634914.8674                                   22634908.9654
                                                                        45.5004
        29.0004
  -1674894.62147  -1261064.48846
                  22457226.9924                                   22457223.7504
                                                                        46.5004
        36.0004
 09 10 26 23 21  0.0000000  0  7G02G04G05G10G13G23G29
   1301675.99648   1029643.15247
                  20616309.0944                                   20616303.5354
                                                                        52.5004
        43.0004
   2933370.17247   2288008.99245
                  22329012.6644                                   22329009.1764
                                                                        47.7504
        35.5004
  -1050615.85248   -783123.09846
                  22919853.2974                                   22919849.8094
                                                                        49.7504
        36.5004
   -855803.19548   -632755.44146
                  22038399.0164                                   22038396.2304
                                                                        48.0004
        36.7504
   1012855.35248    805338.79746
                  21354800.4924                                   21354796.5554
                                                                        48.5004
        36.7504
   2612452.30947   2040986.01644
                  22931361.5634                                   22931355.0904
                                                                        45.0004
        28.5004
   -253399.08647   -153405.60546
                  22727728.1724                                   22727725.6134
                                                                        46.7504
        36.0004
 09 10 26 23 21 30.0000000  0  7G02G04G05G10G13G23G29
   1223961.67648    969086.51647
                  20601520.6024                                   20601514.5084
                                                                        52.5004
        43.0004
   2930431.78148   2285719.46545
                  22328452.9534                                   22328450.4024
                                                                        48.2504
        35.2504
  -1243421.51648   -933361.35245
                  22883163.3984                                   22883160.1254
                                                                        49.0004
        35.7504
  -1038164.98848   -774855.52046
                  22003697.1174                                   22003693.7814
                                                                        48.2504
        37.0004
    922429.94148    734877.36346
                  21337593.4304                                   21337589.6484
                                                                        49.2504
        36.2504
   2595569.69147   2027830.72744
                  22928148.1724                                   22928142.6844
                                                                        44.5004
        29.0004
   -406577.72347   -272765.56245
                  22698579.2664                                   22698576.5084
                                                                        46.5004
        35.5004
 09 10 26 23 22  0.0000000  0  7G02G04G05G10G13G23G29
   1147073.25848    909173.55947
                  20586888.9774                                   20586883.1374
                                                                        52.5004
        42.5004
   2928072.53548   2283881.03545
                  22328004.2734                                   22328001.5554
                                                                        49.2504
        35.2504
  -1435712.29348  -1083198.32045
                  22846571.2344                                   22846568.0554
                                                                        48.7504
        35.5004
  -1219901.92648   -916468.69546
                  21969113.9064                                   21969110.2624
                                                                        49.0004
        37.5004
    832915.26248    665125.63346
                  21320559.3674                                   21320555.5554
                                                                        49.2504
        37.2504
   2579377.70347   2015213.50844
                  22925067.9454                                   22925061.9184
                                                                        45.2504
        29.2504
   -559012.35947   -391545.78545
                  22669572.0164                                   22669569.1604
                                                                        46.5004
        35.5004
 09 10 26 23 22 30.0000000  0  7G02G04G05G10G13G23G29
   1070999.75448    849895.41847
                  20572412.6094                                   20572407.1884
                                                                        52.0004
        42.2504
   2926280.47348   2282484.49645
                  22327663.1644                                   22327660.2584
                                                                        48.5004
        35.5004
  -1627496.75048  -1232640.71946
                  22810076.6334                                   22810073.2274
                                                                        48.0004
        36.0004
  -1401022.10948  -1057601.30146
                  21934647.7424                                   21934644.4264
                                                                        48.5004
        37.2504
    744301.18848    596075.64846
                  21303696.9384                                   21303692.4534
                                                                        48.5004
        36.5004
   2563864.14847   2003125.00045
                  22922115.2504                                   22922109.8634
                                                                        46.5004
        30.0004
   -710710.69547   -509752.26245
                  22640705.0084                                   22640701.6214
                                                                        47.0004
        34.7504
 09 10 26 23 23  0.0000000  0  7G02G04G05G10G13G23G29
    995731.64848    791245.08247
                  20558089.4774                                   20558084.1954
                                                                        52.0004
        43.0004
   2925043.09848   2281520.00445
                  22327427.9064                                   22327425.3524
                                                                        48.5004
        35.2504
  -1818782.76247  -1381694.69145
                  22773675.6724                                   22773672.3634
                                                                        47.0004
        35.7504
  -1581533.02348  -1198259.12946
                  21900297.5474                                   21900294.4144
                                                                        48.7504
        37.5004
    656577.05548    527719.13746
                  21287003.7194                                   21286999.3954
                                                                        49.5004
        36.0004
   2549016.19947   1991555.18045
                  22919290.1724                                   22919284.2074
                                                                        46.0004
        30.2504
   -861680.48047   -627391.04345
                  22611976.5634                                   22611972.9494
                                                                        47.5004
        35.5004
 09 10 26 23 23 30.0000000  0  7G02G04G05G10G13G23G29
    921259.21948    733214.48847
                  20543918.0474                                   20543912.6804
                                                                        53.0004
        42.5004
   2924350.64548   2280980.43045
                  22327295.9774                                   22327293.7504
                                                                        48.2504
        35.2504
  -2009576.60947  -1530365.20346
                  22737368.9454                                   22737365.5474
                                                                        47.7504
        37.0004
  -1761441.36348  -1338447.49646
                  21866062.4844                                   21866059.0314
                                                                        48.5004
        37.7504
    569734.33248    460049.54346
                  21270477.6954                                   21270473.7854
                                                                        50.0004
        36.5004
   2534822.66047   1980495.26245
                  22916588.8754                                   22916583.2974
                                                                        47.0004
        30.0004
  -1011928.01247   -744467.03945
                  22583385.2664                                   22583382.0984
                                                                        47.5004
        35.0004
 09 10 26 23 24  0.0000000  0  7G02G04G05G10G13G23G29
    847576.71148    675799.65247
                  20529896.6954                                   20529890.9924
                                                                        52.0004
        42.7504
   2924194.70348   2280858.81645
                  22327266.5394                                   22327264.1024
                                                                        48.2504
        35.5004
  -2199883.43748  -1678656.18746
                  22701154.6094                                   22701151.2584
                                                                        48.2504
        37.5004
  -1940751.58248  -1478169.66046
                  21831940.5554                                   21831937.2664
                                                                        49.0004
        37.5004
    483766.70348    393061.79746
                  21254118.9454                                   21254114.6484
                                                                        50.0004
        36.5004
   2521275.99247   1969939.43044
                  22914011.5944                                   22914005.6954
                                                                        46.0004
        28.7504
  -1161459.21147   -860984.84845
                  22554930.5164                                   22554927.3524
                                                                        47.7504
        35.5004
 09 10 26 23 24 30.0000000  0  7G02G04G05G10G13G23G29
    774673.44948    618991.93047
                  20516023.5554                                   20516018.0864
                                                                        53.0004
        42.5004
   2924562.04748   2281144.92245
                  22327336.5554                                   22327333.8834
                                                                        48.7504
        35.5004
  -2389709.92647  -1826572.91446
                  22665031.4454                                   22665028.2274
                                                                        47.2504
        37.2504
  -2119470.96548  -1617431.39546
                  21797931.4774                                   21797927.9184
                                                                        49.5004
        37.7504
    398662.44548    326746.78546
                  21237923.9844                                   21237920.0124
                                                                        50.0004
        37.0004
   2508362.30547   1959876.80544
                  22911553.8984                                   22911547.8754
                                                                        46.0004
        28.0004
  -1310280.04348   -976949.11345
                  22526610.8054                                   22526607.8754
                                                                        48.2504
        35.5004
 09 10 26 23 25  0.0000000  0  7G02G04G05G10G13G23G29
    702543.25448    562786.61747
                  20502297.6804                                   20502291.8834
                                                                        53.2504
        43.0004
   2925446.64548   2281834.39545
                  22327504.7034                                   22327502.0044
                                                                        48.0004
        34.7504
  -2579061.56248  -1974119.72346
                  22628999.6254                                   22628995.8794
                                                                        48.2504
        37.2504
  -2297604.64848  -1756236.76246
                  21764033.3284                                   21764030.1214
                                                                        48.5004
        36.7504
    314416.49248    261100.60246
                  21221892.4694                                   21221888.3714
                                                                        50.7504
        37.0004
   2496073.85247   1950301.39144
                  22909214.9614                                   22909209.2344
                                                                        46.0004
        28.0004
  -1458396.11348  -1092364.22745
                  22498425.3054                                   22498422.1024
                                                                        48.5004
        35.5004
 09 10 26 23 25 30.0000000  0  7G02G04G05G10G13G23G29
    631179.83248    507178.72347
                  20488717.4844                                   20488712.2154
                                                                        52.5004
        42.5004
   2926838.85247   2282919.16045
                  22327769.6954                                   22327766.8874
                                                                        47.5004
        34.0004
  -2767941.44947  -2121298.86346
                  22593056.7664                                   22593053.5084
                                                                        47.0004
        37.2504
  -2475155.69948  -1894588.19946
                  21730246.2664                                   21730243.0944
                                                                        49.5004
        37.2504
    231021.90648    196117.82846
                  21206022.9924                                   21206019.0004
                                                                        51.0004
        36.2504
   2484402.25847   1941206.71544
                  22906994.0704                                   22906988.1604
                                                                        44.7504
        27.2504
  -1605810.52748  -1207232.59046
                  22470373.2664                                   22470370.1564
                                                                        48.0004
        36.0004
 09 10 26 23 26  0.0000000  0  7G02G04G05G10G13G23G29
    560573.00448    452160.43047
                  20475281.6094                                   20475275.8954
                                                                        52.7504
        42.7504
   2928726.89848   2284390.22745
                  22328129.1414                                   22328126.1254
                                                                        48.2504
        34.7504
  -2956357.07448  -2268116.19146
                  22557202.2194                                   22557198.8594
                                                                        48.0004
        36.0004
  -2652132.01648  -2032491.81646
                  21696568.9844                                   21696565.9614
                                                                        49.5004
        37.7504
    148468.32048    131790.42246
                  21190313.5554                                   21190309.6334
                                                                        51.5004
        36.7504
   2473334.97347   1932582.86344
                  22904887.6094                                   22904881.9534
                                                                        44.7504
        26.0004
  -1752531.34847  -1321560.49645
                  22442453.3674                                   22442449.9224
                                                                        47.5004
        35.5004
 09 10 26 23 26 30.0000000  0  7G02G04G05G10G13G23G29
    490717.58648    397727.60547
                  20461988.7114                                   20461983.3914
                                                                        52.0004
        42.7504
   2931104.13348   2286242.38345
                  22328581.8284                                   22328579.1994
                                                                        48.0004
        35.0004
  -3144311.50848  -2414574.17646
                  22521436.2584                                   22521432.3054
                                                                        48.0004
        36.5004
  -2828537.06648  -2169950.39146
                  21663000.3674                                   21662997.2934
                                                                        50.0004
        38.0004
     66750.64848     68114.31646
                  21174763.2034                                   21174758.8444
                                                                        50.5004
        36.5004
   2462865.29747   1924424.66844
                  22902895.9064                                   22902890.1724
                                                                        45.0004
        27.7504
  -1898561.49248  -1435350.19545
                  22414664.4924                                   22414661.5124
                                                                        48.0004
        35.7504
 09 10 26 23 27  0.0000000  0  7G02G04G05G10G13G23G29
    421610.08648    343877.62547
                  20448837.9304                                   20448832.1994
                                                                        52.2504
        42.5004
   2933965.75448   2288472.22345
                  22329126.3134                                   22329123.5594
                                                                        48.0004
        35.0004
  -3331806.59447  -2560674.23846
                  22485757.0164                                   22485753.3714
                                                                        47.5004
        36.7504
  -3004371.07848  -2306963.89146
                  21629540.4384                                   21629537.5044
                                                                        50.0004
        38.0004
    -14135.12948      5086.45746
                  21159371.0084                                   21159366.8914
                                                                        51.0004
        36.7504
   2452987.05547   1916727.36344
                  22901016.0864                                   22901010.4184
                                                                        45.0004
        27.5004
  -2043902.31247  -1548602.77745
                  22387007.1724                                   22387003.5784
                                                                        47.5004
        35.7504
 09 10 26 23 27 30.0000000  0  7G02G04G05G10G13G23G29
    353246.85548    290607.63347
                  20435828.9064                                   20435823.3524
                                                                        51.7504
        43.0004
   2937307.11747   2291076.08645
                  22329762.1414                                   22329759.4534
                                                                        47.5004
        35.2504
  -3518843.41047  -2706417.18446
                  22450165.0164                                   22450161.7074
                                                                        47.7504
        37.2504
  -3179635.54348  -2443533.59846
                  21596188.6804                                   21596185.0864
                                                                        50.0004
        38.0004
    -94191.72748    -57295.32846
                  21144136.8754                                   21144132.6214
                                                                        50.7504
        36.7504
   2443694.66847   1909486.54744
                  22899248.2584                                   22899241.8954
                                                                        45.0004
        28.7504
  -2188555.98048  -1661319.91445
                  22359480.3444                                   22359477.3054
                                                                        48.2504
        35.5004
 09 10 26 23 28  0.0000000  0  7G02G04G05G10G13G23G29
    285618.78148    237910.42647
                  20422959.4534                                   20422954.0554
                                                                        52.7504
        43.0004
   2941115.38747   2294043.36345
                  22330486.9144                                   22330484.0704
                                                                        47.2504
        34.0004
  -3705428.39548  -2851808.04346
                  22414658.8984                                   22414655.6684
                                                                        49.0004
        37.7504
  -3354337.34848  -2579664.88346
                  21562944.0234                                   21562940.9224
                                                                        50.0004
        38.2504
   -173429.43448   -119039.01646
                  21129058.3364                                   21129054.3984
                                                                        51.2504
        36.5004
   2434976.72347   1902693.37944
                  22897588.9844                                   22897583.2194
                                                                        45.0004
        28.5004
  -2332528.31247  -1773506.14845
                  22332083.1724                                   22332079.9884
                                                                        47.2504
        35.2504
 09 10 26 23 28 30.0000000  0  7G02G04G05G10G13G23G29
    218720.77048    185782.09847
                  20410229.0944                                   20410223.4694
                                                                        52.5004
        42.5004
   2945385.26647   2297370.46945
                  22331299.2974                                   22331296.6644
                                                                        47.5004
        34.0004
  -3891564.03548  -2996848.77746
                  22379238.3524                                   22379235.1724
                                                                        48.7504
        37.5004
  -3528478.85948  -2715359.53146
                  21529805.9774                                   21529802.6884
                                                                        50.0004
        38.0004
   -251853.24248   -180148.47746
                  21114134.5634                                   21114130.8014
                                                                        51.0004
        36.7504
   2426826.13747   1896342.30544
                  22896037.7344                                   22896032.2384
                                                                        44.0004
        28.5004
  -2475822.19147  -1885163.71146
                  22304815.1954                                   22304812.5704
                                                                        47.7504
        36.0004
 09 10 26 23 29  0.0000000  0  7G02G04G05G10G13G23G29
    152547.73448    134218.65647
                  20397637.0004                                   20397631.5984
                                                                        52.5004
        42.5004
   2950110.65247   2301052.91445
                  22332198.4924                                   22332195.5044
                                                                        47.0004
        33.7504
  -4077253.65248  -3141541.97346
                  22343902.9844                                   22343899.2464
                                                                        49.0004
        37.2504
  -3702063.09848  -2850619.96146
                  21496774.2194                                   21496771.0634
                                                                        49.7504
        38.5004
   -329468.33248   -240627.81246
                  21099365.1724                                   21099361.0204
                                                                        51.2504
        36.5004
   2419235.91847   1890427.89844
                  22894593.6024                                   22894587.9494
                                                                        44.2504
        28.5004
  -2618440.59448  -1996294.91445
                  22277675.6644                                   22277672.8794
                                                                        48.0004
        35.5004
 09 10 26 23 29 30.0000000  0  7G02G04G05G10G13G23G29
   1662518.27348   1310819.07847
                  20684974.7734                                   20684968.9614
                                                                        51.7504
        42.0004
   4530704.53947   3532684.51245
                  22632975.0864                                   22632972.5044
                                                                        47.0004
        33.5004
  -2687071.97348  -2058283.52346
                  22608445.5084                                   22608441.9534
                                                                        48.0004
        37.5004
  -2299665.55148  -1757842.62546
                  21763641.3444                                   21763638.0044
                                                                        50.2504
        37.5004
   1169143.85248    927121.91046
                  21384541.4774                                   21384537.7274
                                                                        50.5004
        36.5004
   3987620.77347   3112546.04344
                  23193047.1174                                   23193041.6954
                                                                        42.7504
        26.7504
  -1184960.06247   -879297.09046
                  22550458.4064                                   22550455.3324
                                                                        47.5004
        36.0004
 09 10 26 23 30  0.0000000  0  7G02G04G05G10G13G23G29
   1597782.55548   1260375.66847
                  20672656.1414                                   20672650.5824
                                                                        52.5004
        42.5004
   4536319.62547   3537059.21945
                  22634044.4064                                   22634041.3594
                                                                        47.5004
        33.2504
  -2871874.17248  -2202285.23046
                  22573279.0084                                   22573275.3984
                                                                        49.0004
        37.2504
  -2472140.32448  -1892238.54346
                  21730820.3284                                   21730816.9024
                                                                        50.0004
        38.7504
   1093132.98048    867892.65246
                  21370076.9534                                   21370073.1254
                                                                        50.2504
        37.0004
   3981132.42647   3107490.22344
                  23191812.0164                                   23191806.1254
                                                                        43.2504
        26.7504
  -1326233.05947   -989379.94146
                  22523575.1564                                   22523571.7154
                                                                        47.5004
        36.5004
 09 10 26 23 30 30.0000000  0  7G02G04G05G10G13G23G29
   1533761.10948   1210488.80947
                  20660473.2034                                   20660467.6454
                                                                        52.5004
        42.5004
   4542375.36747   3541778.10545
                  22635196.7814                                   22635194.2074
                                                                        47.7504
        33.7504
  -3056233.27348  -2345941.68446
                  22538196.3594                                   22538193.1174
                                                                        49.5004
        38.0004
  -2644061.23448  -2026202.88746
                  21698104.9454                                   21698101.5944
                                                                        50.0004
        38.5004
   1017919.57048    809284.77046
                  21355764.9844                                   21355760.5314
                                                                        51.0004
        36.2504
   3975187.44147   3102857.79744
                  23190680.8204                                   23190674.5234
                                                                        43.0004
        27.0004
  -1466834.58248  -1098939.56646
                  22496819.5704                                   22496816.5044
                                                                        48.0004
        36.2504
 09 10 26 23 31  0.0000000  0  7G02G04G05G10G13G23G29
   1470449.75848   1161155.30547
                  20648425.4384                                   20648419.8674
                                                                        52.0004
        42.2504
   4548865.39747   3546835.67245
                  22636431.5004                                   22636428.8204
                                                                        47.2504
        33.0004
  -3240150.41448  -2489253.72746
                  22503198.3754                                   22503194.5084
                                                                        49.7504
        37.7504
  -2815429.51648  -2159736.59846
                  21665494.6484                                   21665491.1564
                                                                        50.5004
        39.0004
    943499.75848    751295.32046
                  21341603.0234                                   21341598.9884
                                                                        50.2504
        36.0004
   3969780.23847   3098644.48844
                  23189652.4454                                   23189645.7854
                                                                        42.5004
        27.0004
  -1606765.82848  -1207976.89546
                  22470191.5164                                   22470188.1174
                                                                        48.5004
        36.7504
 09 10 26 23 31 30.0000000  0  7G02G04G05G10G13G23G29
   1407841.07848   1112369.34047
                  20636511.4534                                   20636505.8404
                                                                        51.5004
        42.2504
   4555778.31347   3552221.99245
                  22637746.9924                                   22637744.5514
                                                                        46.5004
        33.5004
  -3423631.94548  -2632226.33246
                  22468282.8594                                   22468279.3594
                                                                        48.0004
        37.7504
  -2986250.75048  -2292844.05546
                  21632987.8754                                   21632984.9184
                                                                        49.7504
        38.5004
    869865.48048    693917.98846
                  21327590.7974                                   21327586.5044
                                                                        50.5004
        36.2504
   3964901.14547   3094842.69944
                  23188723.6954                                   23188717.7814
                                                                        43.0004
        27.7504
  -1746032.98048  -1316496.76246
                  22443689.6564                                   22443686.6174
                                                                        48.2504
        36.0004
 09 10 26 23 32  0.0000000  0  7G02G04G05G10G13G23G29
   1345932.42648   1064128.82847
                  20624730.7274                                   20624725.1724
                                                                        51.5004
        42.0004
   4563111.88347   3557936.46945
                  22639142.6954                                   22639140.2304
                                                                        47.0004
        33.5004
  -3606677.30147  -2774859.06646
                  22433450.5864                                   22433447.0704
                                                                        47.2504
        38.0004
  -3156524.73448  -2425525.09046
                  21600586.0784                                   21600582.8674
                                                                        50.0004
        38.0004
    797013.30948    637150.05946
                  21313727.1644                                   21313723.2774
                                                                        50.0004
        36.2504
   3960544.55147   3091447.98844
                  23187894.3834                                   23187888.7774
                                                                        43.0004
        27.7504
  -1884635.66447  -1424498.86345
                  22417314.2114                                   22417311.3204
                                                                        47.5004
        35.7504
 09 10 26 23 32 30.0000000  0  7G02G04G05G10G13G23G29
   1284714.42248   1016426.47747
                  20613081.1884                                   20613075.4494
                                                                        52.2504
        42.5004
   4570855.14547   3563970.30545
                  22640615.7734                                   22640613.6134
                                                                        47.0004
        33.7504
  -3789293.20748  -2917157.18046
                  22398699.5474                                   22398696.4264
                                                                        49.0004
        38.0004
  -3326258.12148  -2557784.85546
                  21568286.9774                                   21568283.5704
                                                                        49.5004
        39.0004
    724934.38748    580984.68446
                  21300011.3594                                   21300007.2584
                                                                        50.0004
        36.5004
   3956699.99646   3088452.21544
                  23187162.3594                                   23187156.8874
                                                                        41.7504
        26.5004
  -2022581.13748  -1531988.85246
                  22391064.3364                                   22391060.9304
                                                                        48.2504
        36.0004
 09 10 26 23 33  0.0000000  0  7G02G04G05G10G13G23G29
   1224189.73848    969264.36747
                  20601563.6954                                   20601558.4804
                                                                        52.0004
        42.2504
   4579008.96547   3570324.08245
                  22642167.6884                                   22642165.0744
                                                                        47.7504
        34.0004
  -3971473.96948  -3059116.18046
                  22364032.1334                                   22364028.3594
                                                                        48.2504
        37.5004
  -3495445.62548  -2689619.25446
                  21536091.5634                                   21536088.7194
                                                                        49.5004
        38.7504
    653630.96548    525423.52746
                  21286442.7734                                   21286438.7624
                                                                        50.7504
        36.7504
   3953368.01647   3085855.85544
                  23186528.6724                                   23186522.8914
                                                                        43.7504
        27.7504
  -2159863.98448  -1638962.48446
                  22364940.2194                                   22364937.0314
                                                                        48.0004
        36.2504
 09 10 26 23 33 30.0000000  0  7G02G04G05G10G13G23G29
   1164353.66848    922638.84847
                  20590177.2034                                   20590171.4804
                                                                        51.7504
        42.5004
   4587567.59047   3576993.33645
                  22643796.2194                                   22643793.2424
                                                                        47.2504
        33.5004
  -4153222.48448  -3200738.37546
                  22329446.3204                                   22329443.0274
                                                                        48.0004
        37.7504
  -3664089.85948  -2821030.35246
                  21503999.9454                                   21503997.0204
                                                                        50.5004
        39.0004
    583098.64848    470463.29745
                  21273020.9224                                   21273016.6644
                                                                        50.2504
        35.7504
   3950542.37947   3083654.04344
                  23185991.3444                                   23185985.4384
                                                                        42.5004
        27.2504
  -2296487.60548  -1745422.45746
                  22338941.4384                                   22338938.3054
                                                                        48.0004
        36.2504
 09 10 26 23 34  0.0000000  0  8G02G04G05G10G13G23G29G16
   1105197.03548    876542.77347
                  20578919.9534                                   20578914.2974
                                                                        51.2504
        42.0004
   4596519.36748   3583968.91845
                  22645499.1484                                   22645496.6024
                                                                        48.0004
        33.5004
  -4334545.25048  -3342028.82446
                  22294941.8674                                   22294938.3014
                                                                        48.7504
        38.2504
  -3832197.50048  -2952023.32446
                  21472010.1094                                   21472006.6994
                                                                        49.7504
        38.5004
    513327.11348    416095.92245
                  21259743.5704                                   21259739.6844
                                                                        50.5004
        35.5004
   3948211.09447   3081837.42644
                  23185547.1644                                   23185541.4654
                                                                        42.7504
        26.7504
  -2432457.73448  -1851373.19945
                  22313067.2584                                   22313064.0984
                                                                        48.5004
        35.5004
   4434351.70356   3488397.97753
                  24333406.1564                                   24333402.0944
                                                                        38.7504
        20.0004
 09 10 26 23 34 30.0000000  0  8G02G04G05G10G13G23G29G16
   1046716.34848    830973.40647
                  20567791.4774                                   20567786.1564
                                                                        51.5004
        42.2504
   4605860.14547   3591247.56645
                  22647276.6804                                   22647274.0044
                                                                        46.0004
        32.5004
  -4515443.20348  -3482988.26246
                  22260518.1644                                   22260514.5204
                                                                        49.0004
        38.0004
  -3999769.49648  -3082598.89846
                  21440121.9454                                   21440119.0234
                                                                        49.7504
        39.2504
    444313.14848    362318.79745
                  21246610.7664                                   21246606.4064
                                                                        50.0004
        35.7504
   3946369.37147   3080402.30144
                  23185197.1254                                   23185190.9804
                                                                        43.7504
        27.2504
  -2567776.67247  -1956816.55146
                  22287316.7424                                   22287313.5824
                                                                        47.5004
        36.2504
   4276510.35246   3365404.79342
                  24303368.8364                                   24303365.9804
                                                                        37.0004
        16.7504
 09 10 26 23 35  0.0000000  0  8G02G04G05G10G13G23G29G16
    988905.93848    785926.32847
                  20556790.5474                                   20556785.2154
                                                                        52.0004
        42.2504
   4615582.48047   3598823.44145
                  22649126.7814                                   22649123.9614
                                                                        47.7504
        33.0004
  -4695918.72348  -3623618.51646
                  22226174.3284                                   22226170.9694
                                                                        48.5004
        38.0004
  -4166808.20748  -3212758.93046
                  21408335.7974                                   21408332.2194
                                                                        50.5004
        39.2504
    376050.98048    309127.48446
                  21233620.7194                                   21233616.6764
                                                                        50.0004
        36.5004
   3945009.70347   3079342.80944
                  23184937.9144                                   23184932.1254
                                                                        44.2504
        26.7504
  -2702446.38348  -2061753.98046
                  22261689.9064                                   22261686.7704
                                                                        48.0004
        36.5004
   4119229.34046   3242848.09043
                  24273440.0944                                   24273436.2774
                                                                        38.0004
        18.5004
 09 10 26 23 35 30.0000000  0  8G02G04G05G10G13G23G29G16
    931764.60248    741400.61747
                  20545917.2504                                   20545911.3404
                                                                        51.2504
        42.0004
   4625684.16047   3606694.91045
                  22651049.0554                                   22651045.8874
                                                                        47.5004
        32.5004
  -4875971.68048  -3763919.51646
                  22191911.2344                                   22191908.1884
                                                                        49.2504
        38.2504
  -4333313.34848  -3342503.19946
                  21376650.7734                                   21376647.6564
                                                                        49.7504
        39.5004
    308538.99648    256520.77345
                  21220774.1094                                   21220770.0594
                                                                        49.7504
        35.5004
   3944128.83247   3078656.37944
                  23184770.9924                                   23184764.8554
                                                                        43.0004
        27.0004
  -2836467.20748  -2166185.78146
                  22236186.9614                                   22236183.9454
                                                                        48.2504
        37.0004
   3962510.26246   3120729.29743
                  24243617.3834                                   24243613.5394
                                                                        40.7504
        20.5004
 09 10 26 23 36  0.0000000  0  8G02G04G05G10G13G23G29G16
    875293.43048    697397.12547
                  20535171.0634                                   20535165.4384
                                                                        51.5004
        42.0004
   4636164.36747   3614861.34045
                  22653043.3754                                   22653040.6024
                                                                        45.7504
        32.5004
  -5055597.43748  -3903887.62946
                  22157730.0474                                   22157726.7664
                                                                        49.0004
        38.5004
  -4499280.24248  -3471828.07046
                  21345068.3204                                   21345065.2894
                                                                        49.5004
        38.7504
    241777.64148    204498.94945
                  21208069.5004                                   21208065.5904
                                                                        49.7504
        35.2504
   3943725.96547   3078342.44944
                  23184694.0944                                   23184688.3054
                                                                        43.2504
        26.0004
  -2969834.83248  -2270108.59846
                  22210808.0394                                   22210804.4614
                                                                        48.5004
        36.0004
   3806357.57046   2999051.81643
                  24213902.5234                                   24213898.5234
                                                                        41.7504
        21.5004
 09 10 26 23 36 30.0000000  0  8G02G04G05G10G13G23G29G16
    819492.84448    653916.14847
                  20524552.3284                                   20524547.0044
                                                                        51.5004
        42.5004
   4647022.48847   3623322.29345
                  22655109.6414                                   22655106.7344
                                                                        47.0004
        32.0004
  -5234792.68048  -4043520.28946
                  22123630.4454                                   22123626.8524
                                                                        49.0004
        39.0004
  -4664706.09848  -3600731.34046
                  21313589.0164                                   21313585.6994
                                                                        50.0004
        39.0004
    175767.73048    153062.65645
                  21195508.5164                                   21195504.1994
                                                                        51.0004
        35.7504
   3943799.42247   3078399.68844
                  23184707.7424                                   23184702.0314
                                                                        43.5004
        26.0004
  -3102546.24648  -2373520.08246
                  22185553.4774                                   22185550.4804
                                                                        48.0004
        36.5004
   3650774.83247   2877818.51643
                  24184295.9384                                   24184292.2074
                                                                        42.5004
        22.0004
 09 10 26 23 37  0.0000000  0  8G02G04G05G10G13G23G29G16
    764361.12948    610956.37947
                  20514061.1094                                   20514055.7734
                                                                        52.7504
        42.0004
   4658255.42247   3632075.33245
                  22657247.0474                                   22657243.9924
                                                                        47.7504
        32.2504
  -5413557.08248  -4182817.23846
                  22089612.9454                                   22089609.4264
                                                                        50.0004
        39.2504
  -4829590.47348  -3729212.65246
                  21282212.6254                                   21282209.0594
                                                                        50.5004
        38.7504
    110506.98848    102210.09046
                  21183089.6024                                   21183085.6724
                                                                        51.0004
        36.0004
   3944346.11747   3078825.67644
                  23184811.3444                                   23184806.3674
                                                                        42.7504
        25.5004
  -3234601.32048  -2476420.10246
                  22160424.0234                                   22160421.3284
                                                                        48.0004
        36.5004
   3495763.09846   2757030.14143
                  24154797.7974                                   24154794.5704
                                                                        41.2504
        23.0004
 09 10 26 23 37 30.0000000  0  8G02G04G05G10G13G23G29G16
    709895.58648    568515.69147
                  20503696.9384                                   20503691.4414
                                                                        52.7504
        42.5004
   4669859.34447   3641117.35545
                  22659455.2734                                   22659452.4774
                                                                        47.0004
        32.2504
  -5591891.08248  -4321778.80546
                  22055676.7894                                   22055673.2774
                                                                        50.2504
        39.2504
  -4993933.68448  -3857272.28146
                  21250938.8914                                   21250935.6054
                                                                        50.7504
        39.5004
     45992.69548     51939.25045
                  21170812.5004                                   21170808.8674
                                                                        50.2504
        35.2504
   3945361.49647   3079616.84844
                  23185005.5704                                   23184999.5514
                                                                        44.5004
        27.0004
  -3366001.02047  -2578809.48046
                  22135420.0474                                   22135416.7704
                                                                        47.2504
        37.2504
   3341322.85946   2636687.10943
                  24125409.9384                                   24125405.7544
                                                                        41.0004
        21.7504
 09 10 26 23 38  0.0000000  0  8G02G04G05G10G13G23G29G16
    656096.29748    526594.16847
                  20493459.2974                                   20493453.8594
                                                                        53.5004
        42.2504
   4681832.27347   3650446.86745
                  22661733.4144                                   22661731.1644
                                                                        47.5004
        32.2504
  -5769790.79348  -4460401.95346
                  22021823.4534                                   22021820.4264
                                                                        50.2504
        38.5004
  -5157732.20348  -3984907.49646
                  21219769.1484                                   21219765.8094
                                                                        50.5004
        39.5004
    -17776.05948      2249.33646
                  21158677.8054                                   21158673.9774
                                                                        50.7504
        36.0004
   3946843.46547   3080771.63744
                  23185287.3204                                   23185281.5124
                                                                        45.2504
        27.5004
  -3496741.90647  -2680685.50046
                  22110540.3984                                   22110537.8324
                                                                        47.0004
        37.5004
   3187457.44546   2516792.01643
                  24096128.9844                                   24096125.6134
                                                                        40.0004
        21.2504
 09 10 26 23 38 30.0000000  0  8G02G04G05G10G13G23G29G16
   2178382.78548   1712791.43047
                  20783140.2274                                   20783135.1174
                                                                        52.5004
        42.5004
   6269591.28548   4887661.70745
                  22963874.3594                                   22963871.6524
                                                                        48.5004
        33.0004
  -4371830.50448  -3371082.24246
                  22287846.4774                                   22287842.9344
                                                                        50.5004
        38.5004
  -3745560.97348  -2884514.32846
                  21488496.3984                                   21488493.0864
                                                                        50.5004
        39.2504
   1494621.06648   1180740.62146
                  21446477.7974                                   21446474.1764
                                                                        51.0004
        36.0004
   5524208.05147   4309886.84044
                  23485450.1414                                   23485444.3324
                                                                        45.0004
        27.7504
  -2051400.38748  -1554445.34846
                  22385579.8054                                   22385576.7544
                                                                        48.0004
        37.0004
   4609592.34846   3624949.11743
                  24366753.4924                                   24366749.1724
                                                                        40.7504
        22.0004
 09 10 26 23 39  0.0000000  0  9G02G04G05G10G13G23G29G16G07
   2125906.84048   1671901.09847
                  20773154.8674                                   20773149.2974
                                                                        52.7504
        42.2504
   6282290.12947   4897556.88345
                  22966290.4224                                   22966288.1914
                                                                        46.7504
        32.0004
  -4548863.72748  -3509030.19546
                  22254158.2194                                   22254154.8484
                                                                        50.2504
        39.0004
  -3908272.52348  -3011302.53546
                  21457533.1644                                   21457530.2154
                                                                        51.0004
        40.0004
   1432334.52048   1132205.68445
                  21434625.0394                                   21434620.9454
                                                                        50.5004
        35.7504
   5526608.82847   4311757.52744
                  23485906.6174                                   23485901.4774
                                                                        44.5004
        26.7504
  -2180826.99648  -1655297.23446
                  22360950.9454                                   22360947.7074
                                                                        48.5004
        37.0004
   4456876.57846   3505949.88743
                  24337692.5634                                   24337688.6524
                                                                        41.5004
        21.2504
   6062142.98456   4735439.57453
                  24559090.5554                                   24559087.2034
                                                                        40.0004
        21.0004
 09 10 26 23 39 30.0000000  0  9G02G04G05G10G13G23G29G16G07
   2074086.83248   1631521.87547
                  20763293.5864                                   20763288.0474
                                                                        52.5004
        42.0004
   6295344.42247   4907729.09045
                  22968774.8674                                   22968771.7734
                                                                        47.2504
        32.0004
  -4725465.70748  -3646642.12146
                  22220551.8284                                   22220548.4184
                                                                        50.5004
        38.7504
  -4070442.35548  -3137668.59846
                  21426673.3984                                   21426670.2234
                                                                        51.2504
        39.0004
   1370783.03148   1084243.49645
                  21422912.2894                                   21422908.0944
                                                                        50.0004
        35.5004
   5529460.77047   4313979.76243
                  23486449.0474                                   23486443.7544
                                                                        43.0004
        23.7504
  -2309598.56248  -1755638.69546
                  22336446.2664                                   22336443.1134
                                                                        48.7504
        37.7504
   4304735.03546   3387398.16443
                  24308740.6644                                   24308736.4224
                                                                        41.5004
        20.2504
   5874357.06946   4589112.90743
                  24523355.6414                                   24523352.4264
                                                                        40.5004
        20.0004
 09 10 26 23 40  0.0000000  0  9G02G04G05G10G13G23G29G16G07
   2022914.85248   1591647.61347
                  20753556.0084                                   20753550.3874
                                                                        53.0004
        42.2504
   6308744.71547   4918170.85945
                  22971324.4924                                   22971321.7544
                                                                        46.7504
        31.0004
  -4901640.83248  -3783921.43046
                  22187026.9064                                   22187023.4694
                                                                        50.7504
        38.7504
  -4232075.43748  -3263616.43446
                  21395915.7894                                   21395912.3754
                                                                        50.0004
        39.5004
   1309957.75448   1036847.13745
                  21411337.5944                                   21411333.8284
                                                                        50.2504
        35.5004
   5532753.87947   4316545.81344
                  23487076.3524                                   23487070.1024
                                                                        44.5004
        24.7504
  -2437720.27347  -1855473.81646
                  22312065.8594                                   22312062.9264
                                                                        47.5004
        37.2504
   4153162.41446   3269289.69543
                  24279896.5314                                   24279892.7704
                                                                        40.7504
        19.2504
   5686904.21146   4443045.78143
                  24487684.7814                                   24487681.6994
                                                                        40.7504
        20.7504
 09 10 26 23 40 30.0000000  0  9G02G04G05G10G13G23G29G16G07
   1972390.76648   1552278.19947
                  20743941.3444                                   20743936.3984
                                                                        52.0004
        42.2504
   6322490.42647   4928881.81345
                  22973939.9454                                   22973937.1644
                                                                        46.2504
        31.5004
  -5077386.53148  -3920866.11746
                  22153583.7584                                   22153580.1334
                                                                        50.0004
        39.0004
  -4393169.46148  -3389144.23046
                  21365260.2194                                   21365257.0204
                                                                        50.2504
        39.0004
   1249859.28548    990017.10946
                  21399900.7034                                   21399897.2114
                                                                        50.0004
        36.0004
   5536487.56347   4319455.15644
                  23487786.4144                                   23487780.4654
                                                                        44.2504
        24.5004
  -2565190.52347  -1954801.27746
                  22287809.3204                                   22287805.8204
                                                                        47.5004
        37.0004
   4002161.80146   3151626.90643
                  24251162.0864                                   24251157.8204
                                                                        41.2504
        19.5004
   5499789.41446   4297242.09844
                  24452077.4384                                   24452075.1684
                                                                        41.0004
        24.0004
 09 10 26 23 41  0.0000000  0  9G02G04G05G10G13G23G29G16G07
   1922514.63748   1513413.68847
                  20734450.3444                                   20734444.7854
                                                                        52.0004
        42.0004
   6336579.33647   4939860.16845
                  22976621.5234                                   22976618.3674
                                                                        45.7504
        31.0004
  -5252700.14548  -4057474.11746
                  22120222.7664                                   22120219.0004
                                                                        50.5004
        39.0004
  -4553721.26648  -3514249.54746
                  21334708.6174                                   21334705.0634
                                                                        50.5004
        38.7504
   1190486.41848    943752.55145
                  21388602.8444                                   21388599.0704
                                                                        50.0004
        35.2504
   5540658.32847   4322705.09844
                  23488580.1414                                   23488574.2384
                                                                        43.5004
        24.5004
  -2692006.21548  -2053618.69546
                  22263676.3444                                   22263673.3524
                                                                        48.7504
        37.2504
   3851736.12146   3034412.12543
                  24222537.4384                                   24222532.7734
                                                                        41.0004
        18.2504
   5313014.71947   4151703.45744
                  24416535.7274                                   24416533.2234
                                                                        42.0004
        25.0004
 09 10 26 23 41 30.0000000  0  9G02G04G05G10G13G23G29G16G07
   1873287.57448   1475054.93847
                  20725082.9304                                   20725077.2814
                                                                        51.7504
        42.0004
   6351011.98447   4951106.39145
                  22979367.9614                                   22979365.1054
                                                                        47.2504
        31.7504
  -5427578.36748  -4193742.85946
                  22086944.2974                                   22086941.2194
                                                                        50.2504
        39.2504
  -4713727.74648  -3638929.92246
                  21304260.4224                                   21304257.3954
                                                                        50.7504
        39.7504
   1131840.76648    898054.63346
                  21377442.5704                                   21377439.1134
                                                                        49.2504
        36.0004
   5545266.51247   4326295.87144
                  23489457.3444                                   23489451.3484
                                                                        43.0004
        24.0004
  -2818165.21548  -2151924.38746
                  22239669.0474                                   22239666.3404
                                                                        49.0004
        38.0004
   3701890.19946   2917649.06343
                  24194022.1724                                   24194019.0354
                                                                        40.7504
        19.7504
   5126586.87546   4006435.13344
                  24381059.4774                                   24381056.6724
                                                                        41.7504
        26.2504
 09 10 26 23 42  0.0000000  0  9G02G04G05G10G13G23G29G16G07
   1824706.90248   1437199.86747
                  20715838.1644                                   20715832.5164
                                                                        52.5004
        42.5004
   6365784.08247   4962617.14145
                  22982179.1094                                   22982176.3484
                                                                        46.2504
        32.2504
  -5602020.86748  -4329672.08246
                  22053749.2034                                   22053745.3754
                                                                        49.2504
        39.2504
  -4873188.38348  -3763184.96146
                  21273916.2734                                   21273912.8714
                                                                        51.0004
        39.7504
   1073918.72348    852920.63345
                  21366420.4614                                   21366416.8834
                                                                        49.5004
        35.5004
   5550307.29747   4330223.79344
                  23490416.7664                                   23490410.8834
                                                                        43.5004
        25.2504
  -2943667.05148  -2249718.01646
                  22215787.3204                                   22215783.9804
                                                                        49.2504
        36.7504
   3552624.05946   2801337.85243
                  24165618.7344                                   24165614.2624
                                                                        40.5004
        22.0004
   4940505.97347   3861437.17244
                  24345650.1804                                   24345646.6294
                                                                        42.5004
        26.0004
 09 10 26 23 42 30.0000000  0  9G02G04G05G10G13G23G29G16G07
   1776772.72348   1399848.55546
                  20706716.7664                                   20706711.2034
                                                                        52.5004
        41.7504
   6380894.93847   4974391.82845
                  22985054.3754                                   22985051.9414
                                                                        46.0004
        32.0004
  -5776024.79348  -4465259.55946
                  22020637.3984                                   22020633.9104
                                                                        50.0004
        39.0004
  -5032100.81648  -3887012.82446
                  21243675.9924                                   21243672.7974
                                                                        51.5004
        40.0004
   1016720.42648    808350.59845
                  21355535.7664                                   21355532.0044
                                                                        49.2504
        35.2504
   5555779.18447   4334487.63344
                  23491458.3914                                   23491452.0514
                                                                        43.0004
        27.0004
  -3068509.48448  -2346997.83646
                  22192030.9144                                   22192027.1294
                                                                        50.2504
        37.5004
   3403941.16846   2685481.14543
                  24137324.2194                                   24137321.0164
                                                                        41.0004
        22.0004
   4754776.52746   3716713.10944
                  24310306.7034                                   24310303.3164
                                                                        40.7504
        25.0004
 09 10 26 23 43  0.0000000  0  9G02G04G05G10G13G23G29G16G07
   1729483.34448   1362999.69146
                  20697717.8984                                   20697712.3794
                                                                        51.0004
        41.2504
   6396341.51247   4986428.09845
                  22987993.5704                                   22987991.5314
                                                                        43.7504
        31.5004
  -5949588.66048  -4600504.12546
                  21987609.1414                                   21987606.1094
                                                                        50.0004
        39.5004
  -5190463.59048  -4010412.39146
                  21213540.3444                                   21213537.2734
                                                                        51.0004
        40.5004
    960243.52348    764342.69145
                  21344788.7734                                   21344785.0664
                                                                        48.2504
        35.7504
   5561679.07047   4339084.94544
                  23492580.5864                                   23492574.8364
                                                                        43.0004
        26.7504
  -3192691.60948  -2443763.12546
                  22168399.6024                                   22168396.5004
                                                                        49.5004
        37.2504
   3255843.07446   2570080.10243
                  24109142.8054                                   24109138.7894
                                                                        39.7504
        22.5004
   4569400.58446   3572264.47644
                  24275029.9064                                   24275027.1994
                                                                        40.5004
        24.0004
 09 10 26 23 43 30.0000000  0  9G02G04G05G10G13G23G29G16G07
   1682836.04348   1326651.14546
                  20688840.9304                                   20688835.6994
                                                                        52.7504
        41.7504
   6412120.08247   4998723.05945
                  22990996.0004                                   22990993.8404
                                                                        46.0004
        30.7504
  -6122711.44548  -4735405.00446
                  21954664.8754                                   21954661.5434
                                                                        50.5004
        39.5004
  -5348276.21148  -4133383.26646
                  21183509.7114                                   21183506.9574
                                                                        51.0004
        40.0004
    904485.18848    720894.71146
                  21334178.7034                                   21334174.7974
                                                                        48.5004
        36.0004
   5568002.76647   4344012.48844
                  23493783.8444                                   23493778.0514
                                                                        42.2504
        24.7504
  -3316213.07048  -2540013.60246
                  22144893.9924                                   22144890.8204
                                                                        48.5004
        37.2504
   3108330.18446   2455135.02343
                  24081072.1954                                   24081068.1214
                                                                        41.2504
        22.0004
   4384379.18846   3428092.00043
                  24239821.6174                                   24239818.8714
                                                                        37.5004
        23.7504
 09 10 26 23 44  0.0000000  0  9G02G04G05G10G13G23G29G16G07
   1636828.01648   1290800.73847
                  20680085.8204                                   20680080.7194
                                                                        52.0004
        42.2504
   6428226.69947   5011273.66045
                  22994061.8754                                   22994058.7974
                                                                        45.7504
        30.7504
  -6295394.59448  -4869963.31246
                  21921804.4224                                   21921800.7424
                                                                        49.2504
        39.2504
  -5505540.06648  -4255926.52746
                  21153583.6564                                   21153579.9064
                                                                        51.0004
        40.0004
    849442.41848    678004.29745
                  21323703.8834                                   21323699.8484
                                                                        48.7504
        35.2504
   5574745.82846   4349266.80543
                  23495066.5634                                   23495061.2814
                                                                        41.7504
        22.5004
  -3439075.82848  -2635750.80946
                  22121514.3204                                   22121510.8404
                                                                        48.5004
        37.0004
   2961402.71946   2340646.12143
                  24053112.0864                                   24053108.0004
                                                                        40.0004
        22.7504
   4199713.92746   3284197.09044
                  24204680.9774                                   24204678.3094
                                                                        39.0004
        24.2504
 09 10 26 23 44 30.0000000  0  9G02G04G05G10G13G23G29G16G07
   1591457.74248   1255447.28947
                  20671452.5944                                   20671446.8834
                                                                        51.7504
        42.0004
   6444658.34447   5024077.52045
                  22997188.2194                                   22997185.4804
                                                                        46.0004
        31.5004
  -6467636.48048  -5004177.74246
                  21889027.9304                                   21889024.6254
                                                                        50.0004
        39.5004
  -5662253.34048  -4378040.77046
                  21123761.8984                                   21123758.8914
                                                                        51.2504
        40.0004
    795112.81648    635669.59045
                  21313365.6484                                   21313361.0864
                                                                        49.0004
        35.2504
   5581904.53546   4354845.05943
                  23496429.0474                                   23496423.2704
                                                                        41.7504
        22.7504
  -3561278.70748  -2730973.81646
                  22098259.4924                                   22098256.5164
                                                                        48.2504
        37.2504
   2815062.08646   2226614.48443
                  24025264.8134                                   24025260.8834
                                                                        40.5004
        22.5004
   4015406.81646   3140581.14843
                  24169608.7814                                   24169605.4344
                                                                        40.7504
        22.5004
 09 10 26 23 45  0.0000000  0  9G02G04G05G10G13G23G29G16G07
   1546722.52048   1220588.66847
                  20662939.5474                                   20662934.0824
                                                                        52.0004
        42.0004
   6461411.63347   5037132.00045
                  23000376.0864                                   23000373.1334
                                                                        46.0004
        30.7504
  -6639436.84448  -5138048.15246
                  21856335.4534                                   21856331.9024
                                                                        50.2504
        39.7504
  -5818416.21948  -4499726.12146
                  21094045.0394                                   21094042.0744
                                                                        51.0004
        40.2504
    741493.46148    593888.28546
                  21303162.2814                                   21303157.5594
                                                                        49.0004
        36.0004
   5589474.66447   4360743.87943
                  23497869.8134                                   23497863.6684
                                                                        42.7504
        23.5004
  -3682822.00448  -2825682.86346
                  22075130.8134                                   22075127.6134
                                                                        49.0004
        37.0004
   2669309.09846   2113040.75043
                  23997528.9144                                   23997524.7154
                                                                        40.0004
        21.5004
   3831459.31347   2997245.47743
                  24134604.6954                                   24134601.1294
                                                                        42.0004
        22.7504
 09 10 26 23 45 30.0000000  0  9G02G04G05G10G13G23G29G16G07
   1502618.21148   1186221.68046
                  20654546.8284                                   20654541.3364
                                                                        53.2504
        41.7504
   6478481.37947   5050433.09845
                  23003624.6174                                   23003621.9184
                                                                        46.5004
        30.2504
  -6810796.37548  -5271575.05946
                  21823727.0554                                   21823723.2114
                                                                        50.0004
        39.5004
  -5974029.24248  -4620983.02746
                  21064432.9224                                   21064429.8164
                                                                        50.2504
        40.0004
    688580.02748    552657.04745
                  21293093.1414                                   21293089.1294
                                                                        49.0004
        35.5004
   5597450.78947   4366959.05143
                  23499387.1954                                   23499381.4534
                                                                        42.7504
        22.5004
  -3803707.10548  -2919879.03946
                  22052126.9774                                   22052124.0824
                                                                        48.5004
        37.0004
   2524142.81346   1999924.19943
                  23969904.7974                                   23969900.7154
                                                                        38.5004
        22.0004
   3647871.78947   2854190.36344
                  24099669.0234                                   24099665.7704
                                                                        42.2504
        26.2504
 09 10 26 23 46  0.0000000  0  9G02G04G05G10G13G23G29G16G07
   1459142.77748   1152344.71947
                  20646273.9064                                   20646268.5634
                                                                        52.5004
        42.0004
   6495864.57847   5063978.45345
                  23006932.6484                                   23006930.2704
                                                                        45.7504
        30.5004
  -6981715.07048  -5404758.44146
                  21791202.1484                                   21791198.5984
                                                                        51.0004
        39.5004
  -6129092.64148  -4741811.66446
                  21034925.1724                                   21034922.4304
                                                                        50.7504
        40.0004
    636370.66048    511974.43045
                  21283157.9454                                   21283153.8524
                                                                        49.5004
        35.2504
   5605829.79347   4373488.17643
                  23500981.8674                                   23500975.5204
                                                                        43.0004
        22.7504
  -3923934.71948  -3013562.88346
                  22029248.3364                                   22029245.6954
                                                                        48.7504
        37.0004
   2379564.17646   1887265.60243
                  23942391.3284                                   23942387.9144
                                                                        37.0004
        21.5004
   3464646.74646   2711417.87144
                  24064802.6174                                   24064799.3714
                                                                        41.5004
        25.5004
 09 10 26 23 46 30.0000000  0  9G02G04G05G10G13G23G29G16G07
   1416294.48048   1118956.44946
                  20638119.8204                                   20638114.5474
                                                                        52.2504
        41.5004
   6513557.98447   5077765.49244
                  23010299.4454                                   23010296.7504
                                                                        46.2504
        29.7504
  -7152190.68448  -5537596.56646
                  21758761.5704                                   21758758.2974
                                                                        50.2504
        39.5004
  -6283604.89848  -4862210.82846
                  21005522.7504                                   21005519.5434
                                                                        50.7504
        39.5004
    584862.27048    471838.03945
                  21273356.2734                                   21273352.0474
                                                                        49.5004
        35.0004
   5614607.28547   4380327.75044
                  23502652.4844                                   23502645.8914
                                                                        45.2504
        26.5004
  -4043503.11748  -3106733.05946
                  22006495.2664                                   22006492.3984
                                                                        49.0004
        37.2504
   2235574.43046   1775065.82043
                  23914991.0004                                   23914987.6374
                                                                        38.2504
        21.5004
   3281784.55146   2568927.96944
                  24030004.5634                                   24030001.3874
                                                                        41.7504
        24.7504
 09 10 26 23 47  0.0000000  0  9G02G04G05G10G13G23G29G16G07
   1374071.25448   1086055.23447
                  20630084.8364                                   20630079.9574
                                                                        53.0004
        42.0004
   6531558.88347   5091792.10945
                  23013724.8054                                   23013722.7154
                                                                        46.2504
        30.5004
  -7322223.09448  -5670089.35246
                  21726405.4064                                   21726401.8834
                                                                        50.5004
        40.0004
  -6437565.60248  -4982180.19546
                  20976224.9924                                   20976221.9694
                                                                        52.0004
        40.0004
    534052.83248    432246.26645
                  21263687.2424                                   21263683.1644
                                                                        50.5004
        35.0004
   5623780.14847   4387475.42644
                  23504398.1804                                   23504392.4614
                                                                        43.7504
        27.7504
  -4162412.55548  -3199389.75446
                  21983867.4774                                   21983864.5704
                                                                        48.7504
        37.5004
   2092175.16046   1663326.19543
                  23887703.7504                                   23887699.9924
                                                                        40.0004
        21.0004
   3099288.14146   2426723.03144
                  23995276.3444                                   23995273.5984
                                                                        41.0004
        26.5004
 09 10 26 23 47 30.0000000  0  9G02G04G05G10G13G23G29G16G07
   2907891.90648   2281240.16847
                  20921961.5234                                   20921956.1524
                                                                        52.0004
        42.0004
   8125282.85247   6333654.93445
                  23317000.6414                                   23316997.6914
                                                                        47.2504
        30.2504
  -5916386.51648  -4574632.25846
                  21993927.1564                                   21993923.6604
                                                                        51.0004
        40.0004
  -5015549.81648  -3874115.94146
                  21246825.6254                                   21246822.1214
                                                                        52.0004
        40.0004
   2059360.95748   1620798.04345
                  21553943.9304                                   21553939.4844
                                                                        49.7504
        34.0004
   7208763.21547   5622527.11744
                  23806009.9064                                   23806004.5704
                                                                        42.5004
        25.0004
  -2705239.92248  -2063930.54746
                  22261158.3984                                   22261155.2734
                                                                        49.2504
        38.0004
   3524791.01246   2779650.21943
                  24160321.8054                                   24160317.5474
                                                                        41.0004
        22.2504
   4492584.69146   3512408.71544
                  24260412.3134                                   24260409.0864
                                                                        41.0004
        25.5004
 09 10 26 23 48  0.0000000  0  9G02G04G05G10G13G23G29G16G07
   2866910.56648   2249306.65247
                  20914162.6804                                   20914157.3954
                                                                        52.5004
        42.0004
   8143887.40647   6348151.96145
                  23320540.8674                                   23320538.6334
                                                                        47.2504
        30.7504
  -6085531.42248  -4706433.46946
                  21961740.0474                                   21961736.4144
                                                                        51.0004
        39.7504
  -5168407.11348  -3993225.51646
                  21217737.5004                                   21217734.3244
                                                                        52.2504
        40.0004
   2009940.30148   1582288.41845
                  21544539.4454                                   21544535.1914
                                                                        49.7504
        35.0004
   7218713.98446   5630280.87143
                  23807902.9144                                   23807898.1134
                                                                        40.7504
        22.7504
  -2822832.65248  -2155561.23046
                  22238781.2894                                   22238778.4344
                                                                        49.0004
        37.2504
   3382573.37546   2668831.32043
                  24133258.1954                                   24133254.4224
                                                                        41.2504
        22.5004
   4310824.02046   3370777.10244
                  24225824.0234                                   24225820.6334
                                                                        41.5004
        24.5004
 09 10 26 23 48 30.0000000  0  9G02G04G05G10G13G23G29G16G07
   2826544.16848   2217852.31646
                  20906481.4534                                   20906476.1294
                                                                        52.5004
        41.7504
   8162786.47747   6362878.49644
                  23324137.3984                                   23324134.3404
                                                                        46.5004
        29.2504
  -6254234.66848  -4837890.52346
                  21929637.0164                                   21929633.4654
                                                                        51.2504
        40.5004
  -5320714.88748  -4111906.89146
                  21188754.4694                                   21188751.3164
                                                                        51.2504
        40.2504
   1961207.57048   1544314.85945
                  21535265.9064                                   21535261.8794
                                                                        50.7504
        35.0004
   7229045.74246   5638331.50043
                  23809869.5704                                   23809863.7504
                                                                        41.7504
        22.5004
  -2939770.10248  -2246681.31646
                  22216529.0084                                   22216525.7344
                                                                        49.5004
        38.0004
   3240945.19547   2558471.71543
                  24106307.9614                                   24106302.9884
                                                                        42.0004
        22.2504
   4129432.02747   3229432.87544
                  24191305.7194                                   24191302.6134
                                                                        42.0004
        25.5004
 09 10 26 23 49  0.0000000  0  9G02G04G05G10G13G23G29G16G07
   2786793.14548   2186877.49246
                  20898917.2194                                   20898911.9104
                                                                        52.5004
        41.7504
   8181979.43847   6377834.05544
                  23327789.6414                                   23327786.6214
                                                                        45.7504
        28.7504
  -6422492.47348  -4969000.50446
                  21897618.3834                                   21897614.6294
                                                                        51.0004
        40.0004
  -5472469.67648  -4230157.35946
                  21159876.3134                                   21159873.2624
                                                                        52.0004
        40.0004
   1913162.56348   1506877.19945
                  21526123.0314                                   21526119.3244
                                                                        49.0004
        34.2504
   7239756.98847   5646677.93043
                  23811908.2504                                   23811901.9224
                                                                        43.0004
        22.7504
  -3056049.12148  -2337288.34846
                  22194401.4924                                   22194398.5514
                                                                        50.2504
        38.0004
   3099910.22746   2448574.31643
                  24079469.5234                                   24079464.6294
                                                                        41.2504
        22.2504
   3948412.17647   3088378.44544
                  24156859.8674                                   24156855.6094
                                                                        43.2504
        25.5004
 09 10 26 23 49 30.0000000  0  9G02G04G05G10G13G23G29G16G07
   2747651.52048   2156377.53946
                  20891468.6484                                   20891463.1564
                                                                        52.0004
        41.7504
   8201459.09847   6393012.98444
                  23331496.2034                                   23331494.0944
                                                                        43.5004
        28.5004
  -6590307.84448  -5099765.69146
                  21865684.3754                                   21865680.9344
                                                                        50.5004
        40.0004
  -5623674.56648  -4347979.34046
                  21131103.4224                                   21131100.1254
                                                                        52.5004
        39.5004
   1865798.84448   1469970.41445
                  21517110.1254                                   21517106.3594
                                                                        48.5004
        34.5004
   7250839.87947   5655313.94943
                  23814017.3674                                   23814011.2504
                                                                        43.5004
        22.7504
  -3171673.66048  -2427385.38746
                  22172398.6804                                   22172395.8014
                                                                        49.7504
        38.0004
   2959465.34446   2339136.74643
                  24052743.6724                                   24052738.8594
                                                                        40.7504
        22.0004
   3767762.77347   2947612.68043
                  24122483.3834                                   24122478.8914
                                                                        44.5004
        22.5004
 09 10 26 23 50  0.0000000  0  9G02G04G05G10G13G23G29G16G07
   2709116.91448   2126350.57847
                  20884135.8594                                   20884130.1094
                                                                        52.2504
        42.0004
   8221222.32847   6408412.87544
                  23335257.3834                                   23335254.5864
                                                                        44.7504
        28.5004
  -6757679.98848  -5230185.52746
                  21833834.5704                                   21833830.7154
                                                                        50.7504
        39.7504
  -5774329.21148  -4465372.55546
                  21102434.3284                                   21102431.0744
                                                                        52.2504
        40.2504
   1819113.80948   1433592.45345
                  21508226.0634                                   21508222.3134
                                                                        49.2504
        35.0004
   7262291.16047   5664237.03943
                  23816196.7274                                   23816190.6174
                                                                        43.0004
        22.7504
  -3286643.36748  -2516972.14846
                  22150521.0394                                   22150518.3714
                                                                        50.5004
        38.0004
   2819611.74646   2230159.94943
                  24026130.4064                                   24026125.9614
                                                                        41.0004
        22.2504
   3587486.02047   2807137.35944
                  24088177.9304                                   24088173.4774
                                                                        43.5004
        24.7504
 09 10 26 23 50 30.0000000  0  9G02G04G05G10G13G23G29G16G07
   2671191.56648   2096798.35546
                  20876918.8524                                   20876913.4964
                                                                        51.7504
        41.2504
   8241270.19947   6424034.55144
                  23339072.6334                                   23339069.4494
                                                                        44.2504
        29.5004
  -6924603.56248  -5360255.85546
                  21802069.9534                                   21802066.0004
                                                                        51.0004
        40.0004
  -5924428.47748  -4582333.02746
                  21073871.7114                                   21073868.1684
                                                                        52.0004
        40.7504
   1773108.95348   1397744.51245
                  21499471.9384                                   21499467.6724
                                                                        49.7504
        35.5004
   7274111.60547   5673447.73043
                  23818446.0554                                   23818440.0664
                                                                        42.0004
        22.5004
  -3400953.78948  -2606045.19946
                  22128768.6724                                   22128765.5664
                                                                        50.2504
        37.2504
   2680354.77046   2121647.98043
                  23999630.4844                                   23999626.7344
                                                                        39.7504
        21.5004
   3407587.62147   2666956.81644
                  24053943.5944                                   24053939.6844
                                                                        43.5004
        25.0004
 09 10 26 23 51  0.0000000  0  9G02G04G05G10G13G23G29G16G07
   2633875.81348   2067721.14146
                  20869818.0864                                   20869812.5234
                                                                        51.5004
        41.5004
   8261602.64847   6439877.98844
                  23342941.6334                                   23342939.2304
                                                                        45.5004
        29.2504
  -7091076.13748  -5489974.73446
                  21770391.1334                                   21770387.3284
                                                                        50.7504
        40.2504
  -6073969.76648  -4698858.71946
                  21045415.3054                                   21045411.6994
                                                                        51.7504
        40.5004
   1727784.60548   1362426.79345
                  21490846.8834                                   21490842.8134
                                                                        48.2504
        34.2504
   7286300.11346   5682945.25843
                  23820765.3134                                   23820759.5274
                                                                        41.5004
        21.7504
  -3514603.12548  -2694603.11346
                  22107141.8524                                   22107138.6214
                                                                        50.5004
        38.0004
   2541697.30546   2013603.22343
                  23973244.1954                                   23973240.4924
                                                                        37.0004
        20.5004
   3228072.61747   2527075.07044
                  24019783.1334                                   24019780.0044
                                                                        43.5004
        25.5004
 09 10 26 23 51 30.0000000  0  9G02G04G05G10G13G23G29G16G07
   2597162.86748   2039113.66046
                  20862831.8984                                   20862825.7734
                                                                        51.2504
        41.5004
   8282211.93847   6455937.15645
                  23346862.9534                                   23346860.9884
                                                                        44.5004
        30.0004
  -7257100.43048  -5619344.28946
                  21738797.5704                                   21738794.2974
                                                                        49.7504
        40.0004
  -6222956.23448  -4814952.05546
                  21017063.5944                                   21017060.4964
                                                                        52.2504
        40.0004
   1683133.40248   1327633.60245
                  21482350.1254                                   21482346.1134
                                                                        48.0004
        34.0004
   7298848.65246   5692723.29743
                  23823152.9844                                   23823147.2704
                                                                        41.2504
        23.0004
  -3627595.05148  -2782648.78146
                  22085640.3984                                   22085637.0634
                                                                        50.0004
        38.2504
   2403636.21946   1906023.12143
                  23946972.9454                                   23946968.6214
                                                                        37.2504
        21.5004
   3048938.52047   2387490.15244
                  23985694.5394                                   23985691.7814
                                                                        42.5004
        26.2504
 09 10 26 23 52  0.0000000  0  9G02G04G05G10G13G23G29G16G07
   2561048.47748   2010972.59046
                  20855959.3674                                   20855953.9844
                                                                        52.0004
        41.0004
   8303093.15247   6472208.19544
                  23350836.8914                                   23350834.0594
                                                                        44.7504
        28.5004
  -7422677.69148  -5748365.52346
                  21707289.4454                                   21707286.3054
                                                                        49.7504
        41.2504
  -6371389.50848  -4930614.35546
                  20988817.8204                                   20988814.8634
                                                                        52.0004
        40.7504
   1639151.15648   1293361.67645
                  21473980.6334                                   21473976.8834
                                                                        48.0004
        34.5004
   7311751.68847   5702777.56643
                  23825608.3754                                   23825602.7034
                                                                        42.2504
        22.7504
  -3739931.62948  -2870183.79346
                  22064263.3364                                   22064260.1764
                                                                        50.2504
        37.2504
   2266170.56346   1798906.96944
                  23920813.7894                                   23920810.4774
                                                                        39.5004
        24.0004
   2870185.20347   2248201.91444
                  23951679.3364                                   23951676.3634
                                                                        42.2504
        27.2504
 09 10 26 23 52 30.0000000  0  9G02G04G05G10G13G23G29G16G07
   2525531.71548   1983297.18447
                  20849200.5554                                   20849194.8634
                                                                        51.7504
        42.0004
   8324243.94147   6488689.30144
                  23354861.6334                                   23354859.1764
                                                                        44.2504
        28.5004
  -7587806.27348  -5877037.13746
                  21675866.5704                                   21675863.2234
                                                                        51.0004
        41.0004
  -6519267.89148  -5045844.25846
                  20960677.5704                                   20960674.5234
                                                                        52.0004
        40.5004
   1595836.10948   1259609.70345
                  21465738.2584                                   21465734.0314
                                                                        48.5004
        34.2504
   7325006.42246   5713105.89143
                  23828130.1254                                   23828125.2584
                                                                        41.0004
        23.7504
  -3851611.52748  -2957207.10546
                  22043010.7814                                   22043008.0314
                                                                        50.0004
        38.2504
   2129302.67646   1692256.75044
                  23894768.4064                                   23894765.3954
                                                                        41.5004
        25.2504
   2691815.11747   2109212.34044
                  23917736.7974                                   23917733.3164
                                                                        43.5004
        26.2504
 09 10 26 23 53  0.0000000  0  9G02G04G05G10G13G23G29G16G07
   2490609.38748   1956084.98846
                  20842555.2814                                   20842549.8164
                                                                        52.2504
        41.5004
   8345660.43847   6505377.45344
                  23358937.0634                                   23358934.5634
                                                                        45.5004
        29.2504
  -7752485.92648  -6005358.93446
                  21644529.2274                                   21644525.5434
                                                                        49.2504
        41.0004
  -6666591.67248  -5160642.00046
                  20932642.6804                                   20932639.7074
                                                                        52.2504
        40.5004
   1553184.34048   1226374.55545
                  21457621.9924                                   21457617.6804
                                                                        48.0004
        34.7504
   7338608.29747   5723704.68844
                  23830719.2114                                   23830713.3754
                                                                        42.5004
        24.0004
  -3962635.41848  -3043719.21146
                  22021883.8754                                   22021880.7974
                                                                        50.0004
        38.0004
   1993032.09446   1586071.84844
                  23868838.0474                                   23868834.2894
                                                                        40.7504
        25.5004
   2513830.17647   1970522.82844
                  23883867.6484                                   23883863.7344
                                                                        44.2504
        27.7504
 09 10 26 23 53 30.0000000  0  9G02G04G05G10G13G23G29G16G07
   2456279.79748   1929334.66446
                  20836022.2974                                   20836017.1134
                                                                        53.0004
        41.5004
   8367340.70347   6522271.18844
                  23363062.5554                                   23363060.1764
                                                                        46.0004
        28.0004
  -7916715.75448  -6133330.21546
                  21613277.1484                                   21613273.8204
                                                                        50.5004
        41.0004
  -6813359.91048  -5275006.83646
                  20904713.7114                                   20904710.1684
                                                                        51.7504
        41.2504
   1511194.56348   1193655.28145
                  21449631.5004                                   21449627.4924
                                                                        48.7504
        34.5004
   7352554.90647   5734572.12943
                  23833373.1024                                   23833367.7344
                                                                        42.5004
        22.5004
  -4073003.80948  -3129720.53546
                  22000881.5864                                   22000878.5164
                                                                        50.2504
        38.5004
   1857360.57446   1480353.82444
                  23843020.0234                                   23843016.0984
                                                                        41.5004
        24.5004
   2336233.28547   1832135.71144
                  23850071.3524                                   23850068.3364
                                                                        43.5004
        26.0004
 09 10 26 23 54  0.0000000  0  9G02G04G05G10G13G23G29G16G07
   2422536.26248   1903041.00447
                  20829601.1724                                   20829595.6214
                                                                        53.0004
        42.0004
   8389276.75447   6539364.18444
                  23367236.7504                                   23367234.6334
                                                                        44.2504
        27.5004
  -8080499.52348  -6260953.91446
                  21582110.3594                                   21582106.5904
                                                                        49.7504
        40.2504
  -6959576.48848  -5388941.83246
                  20876889.5164                                   20876886.3094
                                                                        51.7504
        40.5004
   1469858.98447   1161445.73045
                  21441765.5944                                   21441761.2734
                                                                        47.7504
        34.0004
   7366837.60547   5745701.54343
                  23836091.0314                                   23836085.1724
                                                                        42.0004
        22.2504
  -4182720.69148  -3215214.20346
                  21980003.4844                                   21980000.0784
                                                                        50.7504
        38.5004
   1722284.25446   1375099.58643
                  23817315.5944                                   23817312.3284
                                                                        41.7504
        23.2504
   2159020.84447   1694048.16444
                  23816349.3834                                   23816345.3634
                                                                        43.2504
        28.0004
 09 10 26 23 54 30.0000000  0  9G02G04G05G10G13G23G29G16G07
   2389378.78548   1877204.00846
                  20823291.6804                                   20823286.2274
                                                                        52.5004
        41.7504
   8411467.70747   6556655.79744
                  23371460.1804                                   23371457.2544
                                                                        45.5004
        28.5004
  -8243833.35248  -6388227.00846
                  21551028.5084                                   21551024.9064
                                                                        50.7504
        40.2504
  -7105238.01648  -5502444.32046
                  20849171.0084                                   20849167.6994
                                                                        52.2504
        40.5004
   1429177.20748   1129745.63745
                  21434024.0704                                   21434019.7034
                                                                        49.0004
        34.0004
   7381454.91447   5757091.64843
                  23838872.6174                                   23838866.6254
                                                                        42.0004
        20.5004
  -4291783.34048  -3300198.07046
                  21959248.9694                                   21959246.0824
                                                                        50.2504
        38.5004
   1587806.32847   1270311.59443
                  23791725.2274                                   23791721.6294
                                                                        42.0004
        22.2504
   1982197.82847   1556264.08244
                  23782701.0004                                   23782696.5704
                                                                        43.5004
        25.2504
 09 10 26 23 55  0.0000000  0  9G02G04G05G10G13G23G29G16G07
   2356807.28148   1851823.62146
                  20817093.6254                                   20817087.8674
                                                                        53.0004
        41.5004
   8433912.86347   6574145.51644
                  23375731.2894                                   23375728.4884
                                                                        45.2504
        29.2504
  -8406714.44948  -6515147.35546
                  21520033.3134                                   21520029.6684
                                                                        50.7504
        41.0004
  -7250342.14548  -5615512.46146
                  20821558.5394                                   20821555.2234
                                                                        52.0004
        40.5004
   1389148.75448   1098554.64545
                  21426406.6254                                   21426402.6604
                                                                        48.0004
        34.5004
   7396405.95746   5768741.79743
                  23841716.6484                                   23841711.6454
                                                                        40.0004
        19.7504
  -4400189.65648  -3384670.52346
                  21938620.3834                                   21938616.9654
                                                                        50.5004
        38.0004
   1453930.03947   1165992.36743
                  23766250.5474                                   23766245.4654
                                                                        43.0004
        23.0004
   1805768.22347   1418786.55144
                  23749126.7114                                   23749123.2974
                                                                        42.7504
        26.0004
 09 10 26 23 55 30.0000000  0  9G02G04G05G10G13G23G29G16G07
   2324817.75048   1826896.73046
                  20811005.7664                                   20811000.6134
                                                                        52.7504
        41.2504
   8456608.06347   6591830.07444
                  23380049.9844                                   23380047.6804
                                                                        45.0004
        29.0004
  -8569144.00848  -6641715.84046
                  21489124.1174                                   21489120.5234
                                                                        50.7504
        41.0004
  -7394890.24248  -5728147.34846
                  20794052.1334                                   20794048.7854
                                                                        52.0004
        40.7504
   1349769.68047   1067869.64145
                  21418913.3674                                   21418909.0944
                                                                        47.7504
        34.7504
   7411685.62546   5780647.93843
                  23844625.2504                                   23844619.6254
                                                                        38.5004
        20.7504
  -4507942.12148  -3468633.47346
                  21918115.5164                                   21918112.4224
                                                                        49.5004
        38.2504
   1320654.55947   1062141.30543
                  23740888.3204                                   23740883.5354
                                                                        43.5004
        22.5004
   1629732.57847   1281615.93444
                  23715628.3284                                   23715624.6764
                                                                        42.2504
        25.7504
 09 10 26 23 56  0.0000000  0  9G02G04G05G10G13G23G29G16G07
   2293408.59448   1802422.07046
                  20805029.1174                                   20805023.5664
                                                                        53.5004
        41.0004
   8479549.99247   6609706.88744
                  23384415.7504                                   23384412.6024
                                                                        44.7504
        28.5004
  -8731120.37948  -6767931.20746
                  21458301.2194                                   21458297.8524
                                                                        51.0004
        40.7504
  -7538881.06648  -5840347.98446
                  20766651.4224                                   20766648.2774
                                                                        51.7504
        40.7504
   1311037.19947   1037688.46145
                  21411542.6414                                   21411538.4144
                                                                        47.7504
        34.0004
   7427290.33646   5792807.34844
                  23847594.7894                                   23847589.4574
                                                                        41.0004
        24.5004
  -4615039.50048  -3552085.97346
                  21897735.3134                                   21897732.1564
                                                                        49.7504
        38.0004
   1187980.96547    958759.24243
                  23715641.8594                                   23715636.3984
                                                                        42.5004
        22.0004
   1454092.71546   1144753.81644
                  23682205.2734                                   23682202.0124
                                                                        40.5004
        26.0004
 09 10 26 23 56 30.0000000  0  9G02G04G05G10G13G23G29G16G07
   3837999.97348   3005999.78146
                  21098954.8674                                   21098949.6414
                                                                        52.0004
        41.0004
  10078157.07847   7855374.71544
                  23688620.6724                                   23688617.6254
                                                                        44.5004
        28.0004
  -7317216.09048  -5666187.62146
                  21727358.2194                                   21727354.8754
                                                                        51.2504
        41.2504
  -6106887.74648  -4724509.02746
                  21039150.7344                                   21039147.2664
                                                                        52.0004
        40.7504
   2848371.59048   2235611.34845
                  21704087.8284                                   21704083.8914
                                                                        48.2504
        34.0004
   9018637.81346   7032818.32444
                  24150418.5634                                   24150413.5234
                                                                        40.7504
        24.5004
  -3146057.59448  -2407424.76646
                  22177273.3914                                   22177270.3014
                                                                        49.5004
        38.0004
   2631336.01647   2083451.45743
                  23990302.5234                                   23990297.5314
                                                                        42.7504
        19.7504
   2854278.80247   2235808.06344
                  23948651.5004                                   23948648.3674
                                                                        42.0004
        25.5004
 09 10 26 23 57  0.0000000  0  9G02G04G05G10G13G23G29G16G07
   3807746.37148   2982425.55146
                  21093197.8914                                   21093192.4454
                                                                        52.5004
        41.0004
  10101586.14847   7873631.10544
                  23693078.8284                                   23693076.4494
                                                                        45.0004
        27.0004
  -7478282.06648  -5791693.58646
                  21696707.9144                                   21696704.3444
                                                                        50.7504
        40.7504
  -6249760.26648  -4835838.26646
                  21011962.9384                                   21011959.9384
                                                                        51.5004
        41.0004
   2810926.62548   2206433.44545
                  21696961.8364                                   21696958.5394
                                                                        48.0004
        34.0004
   9034884.81347   7045478.23444
                  24153510.3914                                   24153504.6454
                                                                        42.0004
        24.5004
  -3251843.69548  -2489855.52746
                  22157142.9534                                   22157139.6454
                                                                        50.0004
        38.2504
   2499871.18046   1981011.32043
                  23965285.1254                                   23965280.7234
                                                                        41.0004
        20.2504
   2679439.54746   2099569.73844
                  23915380.1174                                   23915377.5434
                                                                        41.5004
        25.5004
 09 10 26 23 57 30.0000000  0  9G02G04G05G10G13G23G29G16G07
   3778065.13748   2959297.32046
                  21087549.6884                                   21087544.3164
                                                                        52.0004
        41.0004
  10125252.49247   7892072.40644
                  23697582.2664                                   23697579.7974
                                                                        45.0004
        27.5004
  -7638893.02748  -5916844.97746
                  21666144.6564                                   21666141.4064
                                                                        51.0004
        40.0004
  -6392074.91048  -4946732.78946
                  20984881.5944                                   20984878.0234
                                                                        51.0004
        40.2504
   2774119.35948   2177752.48445
                  21689958.0394                                   21689954.1524
                                                                        49.0004
        33.5004
   9051445.59846   7058382.71944
                  24156661.7734                                   24156656.2154
                                                                        41.0004
        25.0004
  -3356976.30948  -2571777.10546
                  22137137.1094                                   22137133.6024
                                                                        49.5004
        37.7504
   2369010.08246   1879041.62943
                  23940383.0004                                   23940378.0434
                                                                        40.2504
        20.0004
   2505001.31346   1963643.92644
                  23882186.4924                                   23882183.4384
                                                                        40.5004
        27.0004
 09 10 26 23 58  0.0000000  0  9G02G04G05G10G13G23G29G16G07
   3748953.41848   2936612.86746
                  21082010.1254                                   21082004.8364
                                                                        52.7504
        41.0004
  10149152.44947   7910695.73844
                  23702130.6334                                   23702127.3364
                                                                        45.2504
        27.5004
  -7799049.25048  -6041642.02746
                  21635668.3364                                   21635664.8954
                                                                        50.7504
        40.5004
  -6533831.25448  -5057192.26646
                  20957906.0784                                   20957903.0044
                                                                        51.0004
        40.2504
   2737946.02348   2149565.45745
                  21683074.3984                                   21683070.3554
                                                                        49.0004
        33.2504
   9068315.78946   7071528.29743
                  24159871.2584                                   24159866.2074
                                                                        41.0004
        22.0004
  -3461456.07448  -2653189.88746
                  22117255.1564                                   22117251.9574
                                                                        49.2504
        37.7504
   2238752.46946   1777542.19143
                  23915596.3054                                   23915591.8364
                                                                        41.5004
        20.0004
   2330965.61347   1828031.76644
                  23849068.6414                                   23849064.9184
                                                                        42.0004
        28.5004
 09 10 26 23 58 30.0000000  0  9G02G04G05G10G13G23G29G16G07
   3720409.98848   2914371.23046
                  21076578.3364                                   21076572.9304
                                                                        52.0004
        41.0004
  10173284.35247   7929499.79344
                  23706722.3594                                   23706720.0904
                                                                        44.5004
        27.2504
  -7958748.71148  -6166083.15246
                  21605278.5314                                   21605275.1484
                                                                        50.7504
        41.5004
  -6675028.04348  -5167215.72746
                  20931037.1174                                   20931033.9144
                                                                        51.2504
        40.5004
   2702405.84048   2121871.80545
                  21676311.4304                                   21676307.4304
                                                                        49.5004
        33.7504
   9085493.59846   7084913.57043
                  24163140.3984                                   24163134.4104
                                                                        39.0004
        19.7504
  -3565282.28148  -2734093.41446
                  22097497.6334                                   22097494.9734
                                                                        49.5004
        38.5004
   2109100.53946   1676514.73043
                  23890924.2504                                   23890920.1024
                                                                        40.7504
        22.2504
   2157335.91047   1692735.94544
                  23816028.3054                                   23816024.4884
                                                                        43.5004
        28.5004
 09 10 26 23 59  0.0000000  0  9G02G04G05G10G13G23G29G16G07
   3692434.43448   2892572.10246
                  21071254.8914                                   21071249.4384
                                                                        53.0004
        41.5004
  10197647.02347   7948483.68444
                  23711358.5234                                   23711355.7344
                                                                        43.5004
        27.0004
  -8117988.52048  -6290166.11346
                  21574976.3594                                   21574972.6764
                                                                        51.2504
        41.0004
  -6815662.73848  -5276801.19946
                  20904275.4774                                   20904271.6214
                                                                        51.5004
        40.5004
   2667497.47748   2094670.48845
                  21669668.4454                                   21669664.5704
                                                                        49.0004
        33.5004
   9102977.16446   7098537.10242
                  24166467.4694                                   24166461.6024
                                                                        39.7504
        17.2504
  -3668452.83248  -2814486.01646
                  22077865.1884                                   22077861.8954
                                                                        49.7504
        38.0004
   1980057.26647   1575961.55543
                  23866368.5784                                   23866364.7154
                                                                        42.0004
        22.5004
   1984116.08647   1557759.51244
                  23783065.1884                                   23783061.8284
                                                                        42.2504
        28.7504
 09 10 26 23 59 30.0000000  0  9G02G04G05G10G13G23G29G16G07
   3665023.02348   2871212.55946
                  21066038.6414                                   21066033.2234
                                                                        51.7504
        41.0004
  10222236.02047   7967643.92644
                  23716037.6024                                   23716034.8674
                                                                        44.0004
        28.5004
  -8276769.13348  -6413891.27346
                  21544761.3594                                   21544757.7664
                                                                        50.5004
        40.7504
  -6955736.40248  -5385949.51246
                  20877620.1804                                   20877617.0204
                                                                        52.0004
        41.0004
   2633216.64148   2067958.15245
                  21663145.0554                                   21663141.0354
                                                                        48.5004
        34.5004
   9120761.39846   7112394.93843
                  24169851.9614                                   24169845.6644
                                                                        40.7504
        18.2504
  -3770969.28548  -2894368.94146
                  22058356.6884                                   22058353.3014
                                                                        49.2504
        38.5004
   1851621.75446   1475881.96544
                  23841927.9224                                   23841924.1994
                                                                        41.2504
        24.5004
   1811306.31647   1423102.60544
                  23750180.0554                                   23750176.9344
                                                                        42.2504
        27.0004
