     2.11           OBSERVATION DATA    G (GPS)             RINEX VERSION / TYPE
teqc  2019Feb25                         20221121 12:28:26UTCPGM / RUN BY / DATE
OSX ker:10.11.6|Core i5|gcc 4.3 -m64|OSX ker:10.10+|=+      COMMENT
BIT 2 OF LLI FLAGS DATA COLLECTED UNDER A/S CONDITION       COMMENT
04712891                                                    MARKER NAME
2891                                                        MARKER NUMBER
-Unknown-           -Unknown-                               OBSERVER / AGENCY
0220400471          TRIMBLE R7          2.30                REC # / TYPE / VERS
-Unknown-           TRM39105.00     NONE                    ANT # / TYPE
  1449460.0081 -1709241.1746  5952441.5720                  APPROX POSITION XYZ
        0.0000        0.0000        0.0000                  ANTENNA: DELTA H/E/N
     1     1                                                WAVELENGTH FACT L1/2
    20    L1    L2    L5    L6    L7    L8    C1    P1    C2# / TYPES OF OBSERV
          P2    C5    C6    C7    C8    S1    S2    S5    S6# / TYPES OF OBSERV
          S7    S8                                          # / TYPES OF OBSERV
    30.0000                                                 INTERVAL
    15                                                      LEAP SECONDS
Forced Modulo Decimation to 30 seconds                      COMMENT
 SNR is mapped to RINEX snr flag value [0-9]                COMMENT
  L1 & L2: min(max(int(snr_dBHz/6), 0), 9)                  COMMENT
teqc edited: Beidou # 1 - 37 excluded                       COMMENT
  2009    10    16    23    10   30.0000000     GPS         TIME OF FIRST OBS
                                                            END OF HEADER
 09 10 16 23 10 30.0000000  0  6G02G04G12G13G23G30
   -226895.78158   -160665.62957
                  20855920.0394                                   20855913.9774
                                                                        49.5004
        42.2504
    -83493.34858    -58526.18756
                  20920256.7734                                   20920252.9024
                                                                        51.5004
        41.0004
     -3932.55157     -2822.59854
                  24199534.0944                                   24199529.7304
                                                                        43.0004
        26.2504
   -259898.41458   -181515.84855
                  21936054.7664                                   21936050.0234
                                                                        49.5004
        34.0004
   -122747.13758    -85803.33255
                  21945902.4224                                   21945896.1884
                                                                        48.0004
        34.7504
    -70996.81257    -49719.81654
                  22959862.3594                                   22959858.3094
                                                                        43.7504
        28.5004
 09 10 16 23 11  0.0000000  0  9G02G04G10G12G13G29G23G31G30
   -363999.27348   -267499.57047
                  20829830.1954                                   20829823.8244
                                                                        50.0004
        42.0004
   -134356.57048    -98159.87946
                  20910577.8674                                   20910574.0044
                                                                        51.5004
        41.0004
   -311102.31257   -226912.06254
                  24146408.5234                                   24146404.8714
                                                                        43.0004
        24.0004
     -6932.92247     -5160.59844
                  24198962.9224                                   24198959.1174
                                                                        43.2504
        25.0004
   -418080.65648   -304774.75445
                  21905953.7664                                   21905948.8594
                                                                        50.5004
        34.2504
   -284779.72357   -207713.44154
                  24297134.6804                                   24297130.6024
                                                                        42.7504
        25.0004
   -197517.50448   -144065.95745
                  21931674.5084                                   21931668.1054
                                                                        48.7504
        34.7504
    -73239.49257    -53400.87554
                  24021001.5784                                   24020996.4064
                                                                        43.0004
        27.0004
   -114352.81247    -83503.75844
                  22951611.6644                                   22951607.9304
                                                                        44.7504
        28.2504
 09 10 16 23 11 30.0000000  0  9G02G04G10G12G13G29G23G31G30
   -500079.78148   -373536.34046
                  20803934.9224                                   20803928.4654
                                                                        50.7504
        41.7504
   -184193.21548   -136993.65646
                  20901094.2424                                   20901090.3014
                                                                        52.7504
        41.0004
   -523470.25847   -392393.49244
                  24105996.2734                                   24105992.7774
                                                                        43.5004
        25.0004
     -9112.82447     -6859.21944
                  24198548.3284                                   24198544.1524
                                                                        44.2504
        27.5004
   -575193.87548   -427200.64545
                  21876055.7894                                   21876051.3594
                                                                        49.7504
        34.2504
   -478986.93046   -359044.03944
                  24260177.9924                                   24260173.9414
                                                                        41.7504
        25.2504
   -271156.00848   -201446.58645
                  21917661.3834                                   21917655.0274
                                                                        49.0004
        35.2504
   -122208.39847    -91558.44944
                  24011683.2034                                   24011678.2734
                                                                        42.7504
        26.5004
   -156607.46547   -116429.41044
                  22943570.9614                                   22943567.3794
                                                                        43.0004
        28.5004
 09 10 16 23 12  0.0000000  0  9G02G04G10G12G13G29G23G31G30
   -635010.64548   -478677.24646
                  20778258.3594                                   20778252.5004
                                                                        49.5004
        41.7504
   -232879.23848   -174930.84846
                  20891829.6484                                   20891825.8134
                                                                        51.7504
        40.7504
   -735056.82047   -557266.08244
                  24065732.1724                                   24065729.4184
                                                                        42.7504
        24.2504
    -10349.73047     -7823.04344
                  24198313.8594                                   24198309.0744
                                                                        45.5004
        29.5004
   -731110.59048   -548694.19945
                  21846385.7974                                   21846381.3444
                                                                        49.5004
        34.5004
   -672305.09046   -509681.77744
                  24223391.1954                                   24223387.6024
                                                                        40.0004
        24.5004
   -343538.26247   -257848.34045
                  21903887.4224                                   21903881.4024
                                                                        46.2504
        34.7504
   -170009.57847   -128806.14144
                  24002586.4694                                   24002582.2624
                                                                        42.0004
        27.0004
   -197637.81647   -148401.05144
                  22935763.0314                                   22935759.4964
                                                                        44.5004
        28.7504
 09 10 16 23 12 30.0000000  0  9G02G04G10G12G13G29G23G31G30
   -768762.16048   -582899.19547
                  20752806.0084                                   20752800.0784
                                                                        49.5004
        42.0004
   -280387.32848   -211950.11346
                  20882789.0704                                   20882785.2384
                                                                        51.7504
        41.0004
   -945831.30946   -721505.85544
                  24025623.3834                                   24025620.3484
                                                                        41.0004
        26.0004
    -10618.27047     -8032.28145
                  24198262.4534                                   24198258.2034
                                                                        45.7504
        30.0004
   -885800.17248   -669231.54745
                  21816949.6804                                   21816944.9144
                                                                        50.5004
        34.0004
   -864703.54746   -659602.73044
                  24186778.9614                                   24186775.5164
                                                                        39.0004
        25.7504
   -414636.75447   -313249.77045
                  21890357.7664                                   21890351.5824
                                                                        47.0004
        35.5004
   -216616.34446   -165123.12544
                  23993717.6024                                   23993713.5204
                                                                        41.2504
        25.2504
   -237418.23047   -179398.77344
                  22928192.9454                                   22928189.5904
                                                                        45.2504
        29.5004
 09 10 16 23 13  0.0000000  0  9G02G04G10G12G13G29G23G31G30
   -901338.35248   -686205.31647
                  20727577.8914                                   20727571.9844
                                                                        50.7504
        42.2504
   -326724.58648   -248057.07046
                  20873971.2584                                   20873967.4694
                                                                        51.5004
        41.2504
  -1155797.21146   -885115.52744
                  23985668.1334                                   23985665.1134
                                                                        41.5004
        26.0004
     -9926.89547     -7493.56644
                  24198393.7274                                   24198389.8134
                                                                        45.0004
        29.5004
  -1039266.03548   -788815.33245
                  21787746.0704                                   21787741.6054
                                                                        49.5004
        35.2504
  -1056185.63346   -808809.78544
                  24150341.3754                                   24150338.4144
                                                                        40.7504
        27.5004
   -484458.03948   -367656.00045
                  21877071.3594                                   21877064.9304
                                                                        48.0004
        35.0004
   -262036.07846   -200515.17244
                  23985073.9064                                   23985069.8244
                                                                        41.0004
        25.5004
   -275956.00847   -209428.27044
                  22920859.7734                                   22920856.0434
                                                                        45.2504
        27.7504
 09 10 16 23 13 30.0000000  0  9G02G04G10G12G13G29G23G31G30
  -1032760.57848   -788612.20747
                  20702569.1024                                   20702562.8244
                                                                        50.5004
        42.0004
   -371914.81248   -283270.22346
                  20865372.2424                                   20865368.3204
                                                                        50.5004
        40.5004
  -1364974.94147  -1048111.05544
                  23945862.8524                                   23945860.0704
                                                                        42.2504
        27.2504
     -8300.78547     -6226.48444
                  24198703.1644                                   24198699.2664
                                                                        44.0004
        28.0004
  -1191528.67648   -907461.55945
                  21758771.6174                                   21758766.7624
                                                                        50.0004
        34.2504
  -1246770.94547   -957317.96144
                  24114074.0004                                   24114070.9734
                                                                        42.5004
        28.7504
   -553025.03947   -421084.82045
                  21864023.3834                                   21864017.0984
                                                                        47.7504
        34.2504
   -306292.67246   -235000.89544
                  23976652.7894                                   23976648.3674
                                                                        39.0004
        25.5004
   -313275.38347   -238508.27044
                  22913758.0864                                   22913754.4064
                                                                        44.5004
        28.7504
 09 10 16 23 14  0.0000000  0  9G02G04G10G12G13G29G23G31G30
  -1163058.04748   -890142.68447
                  20677774.1174                                   20677768.0984
                                                                        51.5004
        42.2504
   -415990.05548   -317614.57846
                  20856984.4844                                   20856981.1644
                                                                        51.2504
        41.5004
  -1573393.06247  -1210514.69144
                  23906202.2034                                   23906198.9804
                                                                        43.5004
        27.0004
     -5773.76647     -4257.40244
                  24199183.5234                                   24199179.7624
                                                                        42.7504
        26.5004
  -1342616.91448  -1025192.67245
                  21730020.0234                                   21730016.0434
                                                                        49.5004
        34.7504
  -1436487.70747  -1105149.23844
                  24077972.3674                                   24077968.6764
                                                                        43.0004
        28.2504
   -620369.54348   -473561.05945
                  21851208.6884                                   21851202.0274
                                                                        49.0004
        35.2504
   -349418.63746   -268605.53544
                  23968446.4144                                   23968441.3324
                                                                        40.2504
        26.0004
   -349409.82047   -266665.00044
                  22906881.5164                                   22906878.1994
                                                                        45.7504
        28.5004
 09 10 16 23 14 30.0000000  0  9G02G04G10G12G13G29G23G31G30
  -1292257.44148   -990817.50047
                  20653188.4224                                   20653182.3014
                                                                        50.2504
        42.5004
   -458979.55548   -351112.87946
                  20848804.1414                                   20848800.6024
                                                                        51.7504
        41.0004
  -1781077.65647  -1372346.78944
                  23866681.0944                                   23866677.7664
                                                                        43.5004
        25.7504
     -2377.18446     -1610.77044
                  24199829.7894                                   24199825.3404
                                                                        41.7504
        24.5004
  -1492556.76648  -1142028.93445
                  21701487.6174                                   21701483.2114
                                                                        50.2504
        34.7504
  -1625362.01247  -1252324.16844
                  24042030.7584                                   24042027.7544
                                                                        43.2504
        28.2504
   -686520.99248   -525107.61745
                  21838620.2114                                   21838613.9414
                                                                        48.7504
        35.2504
   -391444.13746   -301352.73444
                  23960449.0314                                   23960444.1524
                                                                        41.2504
        25.2504
   -384389.38747   -293921.79744
                  22900225.0314                                   22900222.0594
                                                                        44.0004
        27.2504
 09 10 16 23 15  0.0000000  0  9G02G04G10G12G13G29G23G31G30
  -1420389.57048  -1090660.69947
                  20628805.5084                                   20628799.5234
                                                                        51.0004
        42.2504
   -500916.74648   -383791.22346
                  20840823.7894                                   20840820.0084
                                                                        52.5004
        41.5004
  -1988058.34447  -1533630.42244
                  23827293.4224                                   23827289.6024
                                                                        42.0004
        25.7504
      1854.55947      1686.67243
                  24200634.8754                                   24200630.6174
                                                                        42.0004
        22.7504
  -1641377.80148  -1257993.38745
                  21673167.5784                                   21673163.3364
                                                                        49.0004
        35.0004
  -1813422.69946  -1398864.96544
                  24006244.2894                                   24006240.3014
                                                                        41.5004
        26.0004
   -751511.85548   -575749.84045
                  21826252.9454                                   21826245.9884
                                                                        49.0004
        34.7504
   -432402.57846   -333268.47744
                  23952654.6884                                   23952650.4264
                                                                        41.7504
        25.7504
   -418248.53947   -320305.56644
                  22893782.6644                                   22893778.7974
                                                                        44.5004
        28.5004
 09 10 16 23 15 30.0000000  0  9G02G04G10G12G13G29G23G31G30
  -1547484.44548  -1189695.59847
                  20604620.1724                                   20604614.1294
                                                                        52.0004
        42.7504
   -541834.28948   -415675.04346
                  20833037.2974                                   20833033.7934
                                                                        52.5004
        41.5004
  -2194364.39847  -1694388.33243
                  23788034.4534                                   23788030.9884
                                                                        42.2504
        23.5004
      6886.65247      5607.84044
                  24201593.6884                                   24201588.7544
                                                                        42.7504
        25.7504
  -1789109.63348  -1373109.10245
                  21645055.2504                                   21645050.4534
                                                                        49.2504
        34.7504
  -2000699.08246  -1544794.66443
                  23970606.1644                                   23970602.7384
                                                                        40.2504
        22.5004
   -815374.66448   -625513.08645
                  21814100.0634                                   21814093.3984
                                                                        49.0004
        35.0004
   -472327.53146   -364378.92244
                  23945058.1024                                   23945053.4384
                                                                        41.7504
        26.5004
   -451021.41047   -345842.86744
                  22887545.6564                                   22887542.3554
                                                                        44.7504
        27.7504
 09 10 16 23 16  0.0000000  0  9G02G04G10G12G13G29G23G31G30
  -1673566.67648  -1287941.43447
                  20580627.5634                                   20580621.2194
                                                                        51.0004
        42.0004
   -581759.59048   -446785.66046
                  20825439.8444                                   20825436.0274
                                                                        52.5004
        41.2504
  -2400019.58246  -1854639.07043
                  23748899.4694                                   23748896.4844
                                                                        40.7504
        23.0004
     12690.54347     10130.39144
                  24202697.4534                                   24202693.1764
                                                                        44.5004
        27.2504
  -1935776.25848  -1487394.78145
                  21617145.6954                                   21617140.8404
                                                                        49.2504
        34.7504
  -2187214.56246  -1690131.40643
                  23935112.9774                                   23935109.2814
                                                                        40.2504
        22.5004
   -878136.62148   -674418.52045
                  21802157.0234                                   21802150.4654
                                                                        48.7504
        34.2504
   -511246.46147   -394705.37944
                  23937651.3914                                   23937647.6174
                                                                        42.2504
        26.7504
   -482736.03947   -370555.54344
                  22881510.7344                                   22881507.1454
                                                                        45.2504
        29.2504
 09 10 16 23 16 30.0000000  0  9G02G04G10G12G13G29G23G31G30
  -1798662.19948  -1385418.43047
                  20556822.3984                                   20556816.3204
                                                                        50.0004
        42.0004
   -620721.05548   -477145.23046
                  20818025.8054                                   20818022.2074
                                                                        50.5004
        40.7504
  -2605048.73047  -2014401.96544
                  23709884.5944                                   23709881.6414
                                                                        43.2504
        27.7504
     19236.03947     15230.72744
                  24203943.4924                                   24203939.5634
                                                                        44.2504
        29.0004
  -2081402.44148  -1600869.74645
                  21589433.9614                                   21589429.2194
                                                                        49.2504
        35.0004
  -2372993.50046  -1834894.14844
                  23899761.1564                                   23899757.9654
                                                                        40.0004
        26.0004
   -939825.39848   -722487.71145
                  21790418.2114                                   21790411.1604
                                                                        49.0004
        34.2504
   -549188.37146   -424270.51644
                  23930431.7274                                   23930427.2974
                                                                        39.2504
        26.0004
   -513421.83647   -394466.60545
                  22875671.3834                                   22875667.9734
                                                                        45.7504
        30.0004
 09 10 16 23 17  0.0000000  0  9G02G04G10G12G13G29G23G31G30
  -1922794.64548  -1482144.96947
                  20533200.9614                                   20533194.6294
                                                                        51.5004
        42.0004
   -658745.27748   -506774.52346
                  20810789.8754                                   20810786.2074
                                                                        51.7504
        40.5004
  -2809475.28547  -2173695.34044
                  23670983.3674                                   23670980.1024
                                                                        44.7504
        29.0004
     26495.11347     20887.14845
                  24205324.7424                                   24205320.8054
                                                                        43.7504
        30.0004
  -2226011.72348  -1713552.31645
                  21561915.7194                                   21561911.2384
                                                                        50.2504
        34.7504
  -2558058.37546  -1979100.44144
                  23864545.1174                                   23864541.7934
                                                                        41.0004
        28.0004
  -1000467.12948   -769741.00445
                  21778878.1334                                   21778871.6484
                                                                        49.5004
        35.0004
   -586179.96946   -453095.10244
                  23923392.4614                                   23923387.6724
                                                                        40.2504
        26.7504
   -543105.71147   -417596.87945
                  22870022.7344                                   22870020.0594
                                                                        46.2504
        30.2504
 09 10 16 23 17 30.0000000  0  9G02G04G10G12G13G29G23G31G30
  -2045984.73448  -1578137.22346
                  20509758.6094                                   20509752.2934
                                                                        51.0004
        41.7504
   -695855.08248   -535691.27346
                  20803728.1564                                   20803724.3324
                                                                        51.5004
        40.2504
  -3013318.13347  -2332533.87544
                  23632193.1954                                   23632189.9774
                                                                        44.2504
        29.0004
     34443.00046     27080.25044
                  24206837.2814                                   24206833.1844
                                                                        41.2504
        26.2504
  -2369623.43748  -1825457.55545
                  21534587.1414                                   21534582.5744
                                                                        49.7504
        34.7504
  -2742428.84046  -2122765.72344
                  23829459.9454                                   23829456.6954
                                                                        41.7504
        29.2504
  -1060084.92248   -816196.47345
                  21767533.0234                                   21767526.7774
                                                                        49.2504
        34.2504
   -622245.18447   -481197.85244
                  23916529.0314                                   23916525.1644
                                                                        42.5004
        27.5004
   -571812.25847   -439965.64845
                  22864559.8524                                   22864556.8444
                                                                        46.0004
        30.5004
 09 10 16 23 18  0.0000000  0  9G02G04G10G12G13G29G23G31G30
   -592830.79348   -445809.43047
                  20786284.8054                                   20786278.1054
                                                                        51.0004
        42.2504
    843345.32048    663685.69546
                  21096628.2664                                   21096624.5474
                                                                        51.7504
        40.7504
  -1641172.24247  -1263329.23044
                  23893303.2814                                   23893300.3164
                                                                        43.0004
        27.2504
   1618472.71546   1261389.00044
                  24508266.6954                                   24508263.7234
                                                                        40.5004
        25.2504
   -936835.02348   -708999.05945
                  21807238.0704                                   21807233.3404
                                                                        50.5004
        34.7504
  -1350700.03946  -1038301.64544
                  24094296.7274                                   24094294.0434
                                                                        41.0004
        29.0004
    456718.81648    365728.56345
                  22056171.4304                                   22056164.7114
                                                                        49.7504
        34.7504
    918011.36747    719002.04344
                  24209630.9534                                   24209625.9844
                                                                        42.0004
        27.5004
    975853.07447    766007.32044
                  23159070.9384                                   23159068.1884
                                                                        45.5004
        29.0004
 09 10 16 23 18 30.0000000  0  9G02G04G10G12G13G29G23G31G30
   -714198.45348   -540381.60946
                  20763188.9224                                   20763183.1884
                                                                        50.7504
        41.5004
    807993.35248    636138.69946
                  21089901.1174                                   21089897.3554
                                                                        50.7504
        41.2504
  -1843907.93047  -1421305.01644
                  23854724.0314                                   23854720.7814
                                                                        42.0004
        25.5004
   1627723.24247   1268597.16444
                  24510027.6804                                   24510024.2274
                                                                        42.5004
        27.0004
  -1078512.68448   -819397.23845
                  21780277.8594                                   21780272.5744
                                                                        50.0004
        34.5004
  -1533740.37946  -1180930.43044
                  24059465.4694                                   24059462.4344
                                                                        41.2504
        28.5004
    399080.04748    320815.23045
                  22045203.1884                                   22045196.5124
                                                                        48.0004
        34.0004
    883726.74647    692286.64844
                  24203106.2504                                   24203102.0944
                                                                        42.5004
        27.2504
    949027.58247    745104.25044
                  23153966.1484                                   23153963.4224
                                                                        44.2504
        29.2504
 09 10 16 23 19  0.0000000  0  9G02G04G10G12G13G29G23G31G30
   -834685.43748   -634267.58647
                  20740261.1174                                   20740254.9414
                                                                        52.0004
        42.0004
    773486.00048    609249.85246
                  21083334.2504                                   21083330.4884
                                                                        52.0004
        40.7504
  -2046119.32047  -1578872.32444
                  23816244.8524                                   23816241.0164
                                                                        42.2504
        25.0004
   1637588.27347   1276284.19544
                  24511905.2274                                   24511901.0354
                                                                        44.0004
        27.2504
  -1219252.34448   -929064.51645
                  21753495.5164                                   21753491.0204
                                                                        49.5004
        35.2504
  -1716144.02746  -1323063.10544
                  24024755.4924                                   24024751.6884
                                                                        41.0004
        28.2504
    342396.72348    276646.40245
                  22034416.5314                                   22034410.3364
                                                                        48.7504
        33.5004
    850297.46947    666237.77744
                  24196745.2584                                   24196740.9104
                                                                        42.0004
        27.2504
    923107.00447    724906.34444
                  23149033.7584                                   23149030.5314
                                                                        45.2504
        27.7504
 09 10 16 23 19 30.0000000  0  9G02G04G10G12G13G29G23G31G30
   -954303.73048   -727476.65647
                  20717498.2034                                   20717492.2384
                                                                        51.0004
        42.2504
    739808.40648    583007.57446
                  21076925.9614                                   21076922.2774
                                                                        51.0004
        40.5004
  -2247816.85247  -1736039.19544
                  23777862.8134                                   23777859.1294
                                                                        42.5004
        26.2504
   1648052.00047   1284437.79744
                  24513896.9304                                   24513892.4734
                                                                        45.2504
        28.0004
  -1359066.00048  -1038010.23046
                  21726889.9614                                   21726885.3014
                                                                        50.0004
        36.0004
  -1897921.87546  -1464708.25044
                  23990164.0634                                   23990160.6054
                                                                        39.7504
        25.7504
    286653.82048    233210.34845
                  22023808.5864                                   22023802.0864
                                                                        48.5004
        34.2504
    817708.44547    640843.62944
                  24190543.9924                                   24190539.2194
                                                                        43.0004
        28.5004
    898075.36747    705401.11344
                  23144270.1254                                   23144267.0744
                                                                        44.0004
        27.0004
 09 10 16 23 20  0.0000000  0  9G02G04G10G12G13G29G23G31G30
  -1073067.48448   -820019.85247
                  20694898.5474                                   20694892.7734
                                                                        51.2504
        42.5004
    706943.80548    557398.79346
                  21070671.7814                                   21070668.0084
                                                                        51.2504
        40.7504
  -2449014.23847  -1892816.35944
                  23739576.5314                                   23739573.0314
                                                                        43.0004
        27.7504
   1659095.79347   1293043.38744
                  24515998.4304                                   24515994.0554
                                                                        44.5004
        27.2504
  -1497967.03548  -1146244.81245
                  21700458.1644                                   21700453.6414
                                                                        49.7504
        35.0004
  -2079086.93746  -1605875.84444
                  23955689.1024                                   23955685.4574
                                                                        40.5004
        24.0004
    231835.45348    190494.76245
                  22013377.2034                                   22013371.0004
                                                                        49.2504
        34.2504
    785941.84847    616090.37944
                  24184498.7034                                   24184495.0124
                                                                        42.2504
        25.5004
    873914.52047    686574.39544
                  23139672.5084                                   23139669.1994
                                                                        43.7504
        27.5004
 09 10 16 23 20 30.0000000  0  9G02G04G10G12G13G29G23G31G30
  -1190980.71948   -911900.28947
                  20672460.1094                                   20672454.3164
                                                                        51.5004
        42.2504
    674884.98848    532417.87146
                  21064571.0944                                   21064567.5824
                                                                        51.5004
        40.5004
  -2649714.80147  -2049206.39544
                  23701384.2114                                   23701380.9844
                                                                        43.5004
        28.2504
   1670710.92647   1302094.16444
                  24518208.2814                                   24518204.2464
                                                                        42.2504
        24.7504
  -1635959.04348  -1253771.02345
                  21674199.0004                                   21674194.6374
                                                                        50.0004
        35.7504
  -2259641.65246  -1746567.84844
                  23921330.8524                                   23921327.4414
                                                                        41.5004
        26.5004
    177934.97348    148494.37145
                  22003120.6644                                   22003114.0084
                                                                        48.7504
        34.5004
    754990.91047    591972.68844
                  24178608.6024                                   24178604.5124
                                                                        42.0004
        25.0004
    850617.16847    668420.50044
                  23135239.0554                                   23135235.9614
                                                                        43.2504
        27.2504
 09 10 16 23 21  0.0000000  0  9G02G04G10G12G13G29G23G31G30
  -1308062.27748  -1003132.69147
                  20650180.6094                                   20650174.3204
                                                                        51.5004
        42.5004
    643611.21948    508048.70346
                  21058619.9304                                   21058616.3524
                                                                        52.2504
        40.7504
  -2849935.85547  -2205222.75044
                  23663283.5554                                   23663280.6094
                                                                        42.5004
        28.7504
   1682875.01647   1311572.67644
                  24520522.9774                                   24520518.6844
                                                                        42.0004
        25.0004
  -1773059.61348  -1360602.63345
                  21648109.4454                                   21648104.7544
                                                                        50.7504
        34.5004
  -2439603.71947  -1886798.01244
                  23887085.4614                                   23887082.6094
                                                                        42.5004
        28.2504
    124931.12548    107192.64545
                  21993034.0004                                   21993027.4924
                                                                        49.0004
        35.0004
    724833.30146    568473.18444
                  24172869.9224                                   24172865.7034
                                                                        41.5004
        24.5004
    828161.06347    650922.26644
                  23130966.3834                                   23130962.6214
                                                                        44.0004
        26.5004
 09 10 16 23 21 30.0000000  0  9G02G04G10G12G13G29G23G31G30
  -1424327.29748  -1093728.89547
                  20628055.9144                                   20628050.0704
                                                                        51.5004
        42.2504
    613104.61748    484277.32446
                  21052814.9304                                   21052811.6884
                                                                        51.7504
        41.0004
  -3049691.64147  -2360876.57844
                  23625271.0004                                   23625267.9654
                                                                        42.5004
        26.7504
   1695568.46946   1321463.64144
                  24522938.6254                                   24522934.3674
                                                                        41.5004
        26.5004
  -1909283.21948  -1466750.86745
                  21622186.9224                                   21622182.3524
                                                                        50.2504
        35.2504
  -2618986.73447  -2026577.03944
                  23852950.0634                                   23852947.2034
                                                                        42.7504
        29.0004
     72806.84848     66576.32445
                  21983115.5004                                   21983108.7194
                                                                        48.7504
        33.5004
    695451.22747    545578.02344
                  24167278.9694                                   24167274.6484
                                                                        42.2504
        25.0004
    806527.15647    634064.65644
                  23126849.2734                                   23126845.7774
                                                                        44.2504
        27.0004
 09 10 16 23 22  0.0000000  0  9G02G04G10G12G13G29G23G31G30
  -1539786.39148  -1183697.24647
                  20606085.0234                                   20606079.2304
                                                                        51.0004
        42.7504
    583352.19548    461093.59846
                  21047153.3364                                   21047149.4494
                                                                        51.7504
        41.2504
  -3248991.20747  -2516174.89544
                  23587345.3674                                   23587341.8874
                                                                        42.0004
        27.5004
   1708777.37546   1331756.25444
                  24525452.0164                                   24525448.3404
                                                                        40.0004
        26.0004
  -2044639.81648  -1572223.53545
                  21596429.8674                                   21596424.7664
                                                                        51.0004
        35.5004
  -2797799.65647  -2165911.85545
                  23818922.9144                                   23818920.2114
                                                                        43.0004
        30.0004
     21549.22348     26635.30545
                  21973361.2114                                   21973354.6724
                                                                        49.2504
        34.5004
    666831.21846    523276.67744
                  24161833.0164                                   24161828.6454
                                                                        40.5004
        25.7504
    785701.56647    617836.93844
                  23122886.6414                                   23122883.4344
                                                                        45.5004
        28.0004
 09 10 16 23 22 30.0000000  0  9G02G04G10G12G13G29G23G31G30
  -1654448.26648  -1273044.08647
                  20584265.5704                                   20584259.4734
                                                                        52.0004
        42.2504
    554341.59448    438487.92646
                  21041632.5634                                   21041629.2664
                                                                        52.2504
        40.7504
  -3447842.95347  -2671124.26244
                  23549505.6954                                   23549501.7464
                                                                        43.5004
        27.7504
   1722487.84846   1342439.71944
                  24528061.2814                                   24528057.6804
                                                                        41.2504
        27.0004
  -2179138.88748  -1677028.01645
                  21570835.2194                                   21570830.8244
                                                                        50.2504
        35.5004
  -2976050.52347  -2304808.66044
                  23785002.9304                                   23784999.8524
                                                                        43.5004
        27.0004
    -28853.93448    -12639.85945
                  21963769.5634                                   21963763.1334
                                                                        48.7504
        34.0004
    638960.47746    501559.19543
                  24156528.9534                                   24156524.5234
                                                                        40.5004
        22.5004
    765671.00047    602228.78944
                  23119074.7734                                   23119071.8524
                                                                        46.0004
        27.5004
 09 10 16 23 23  0.0000000  0  8G02G04G10G13G29G23G31G30
  -1768329.10248  -1361782.35547
                  20562594.6644                                   20562588.7344
                                                                        51.7504
        42.2504
    526054.53548    416446.05546
                  21036250.0314                                   21036246.3444
                                                                        52.7504
        40.5004
  -3646262.01247  -2825736.51644
                  23511747.8914                                   23511743.7974
                                                                        44.7504
        27.0004
  -2312794.48048  -1781175.22346
                  21545401.2584                                   21545396.7544
                                                                        50.2504
        36.0004
  -3153753.51647  -2443278.43044
                  23751186.8754                                   23751184.1994
                                                                        42.0004
        28.7504
    -78420.44948    -51263.10545
                  21954337.8754                                   21954331.1644
                                                                        49.2504
        33.7504
    611819.98446    480410.72343
                  24151364.6564                                   24151359.8094
                                                                        40.7504
        22.5004
    746415.92647    587224.89844
                  23115410.6414                                   23115407.5904
                                                                        46.0004
        28.0004
 09 10 16 23 23 30.0000000  0  8G02G04G10G13G29G23G31G30
  -1881435.03548  -1449916.85947
                  20541071.2034                                   20541065.3244
                                                                        52.0004
        42.5004
    498482.36748    394961.25046
                  21031002.8524                                   21030999.2814
                                                                        52.2504
        40.5004
  -3844253.21147  -2980015.38344
                  23474071.3754                                   23474067.8404
                                                                        44.2504
        28.5004
  -2445612.37148  -1884669.66846
                  21520126.9454                                   21520122.6644
                                                                        49.5004
        36.2504
  -3330913.82847  -2581325.36344
                  23717474.6414                                   23717471.6884
                                                                        43.5004
        27.7504
   -127158.96548    -89241.16045
                  21945063.0864                                   21945056.7934
                                                                        49.0004
        34.2504
    585400.56346    459824.15244
                  24146336.7274                                   24146332.5554
                                                                        40.5004
        24.5004
    727926.83247    572817.86744
                  23111892.6094                                   23111889.2464
                                                                        46.0004
        28.2504
 09 10 16 23 24  0.0000000  0  8G02G04G10G13G29G23G31G30
  -1993771.64548  -1537451.85947
                  20519694.4064                                   20519688.3444
                                                                        51.2504
        42.7504
    471616.78948    374027.00446
                  21025890.5784                                   21025887.1724
                                                                        52.0004
        40.2504
  -4041820.84047  -3133964.14844
                  23436475.3204                                   23436471.9774
                                                                        43.0004
        29.0004
  -2577597.83648  -1987515.48446
                  21495011.0004                                   21495006.3204
                                                                        49.7504
        36.0004
  -3507535.53947  -2718952.59444
                  23683864.5004                                   23683861.0944
                                                                        44.0004
        27.2504
   -175077.31648   -126580.11745
                  21935944.4924                                   21935938.4694
                                                                        48.5004
        34.7504
    559693.09846    439792.27344
                  24141444.9384                                   24141440.5944
                                                                        40.7504
        25.5004
    710194.21147    559000.23444
                  23108517.8754                                   23108514.6414
                                                                        45.2504
        29.2504
 09 10 16 23 24 30.0000000  0  8G02G04G10G13G29G23G31G30
  -2105343.04748  -1624390.60247
                  20498463.0704                                   20498456.8634
                                                                        52.2504
        42.5004
    445450.93448    353638.01646
                  21020911.6644                                   21020908.4344
                                                                        52.5004
        40.2504
  -4238968.04747  -3287585.26244
                  23398959.0944                                   23398955.9614
                                                                        43.0004
        28.7504
  -2708754.66848  -2089715.63745
                  21470052.7814                                   21470048.0784
                                                                        50.5004
        35.5004
  -3683621.25447  -2856162.18444
                  23650356.5164                                   23650352.7774
                                                                        45.0004
        28.5004
   -222182.43048   -163285.39145
                  21926980.8914                                   21926974.6024
                                                                        49.2504
        35.0004
    534690.75847    420309.89544
                  24136687.0554                                   24136682.8594
                                                                        42.7504
        25.2504
    693209.62547    545765.45744
                  23105286.0164                                   23105282.4144
                                                                        45.0004
        28.2504
 09 10 16 23 25  0.0000000  0  8G02G04G10G13G29G23G31G30
  -2216160.77048  -1710742.00447
                  20477375.0084                                   20477368.8364
                                                                        52.2504
        42.7504
    419970.98448    333783.47346
                  21016062.9304                                   21016059.4184
                                                                        52.0004
        41.0004
  -4435705.25047  -3440886.92644
                  23361521.4774                                   23361518.5704
                                                                        44.0004
        29.7504
  -2839093.13348  -2191278.07446
                  21445250.1334                                   21445245.4774
                                                                        50.7504
        36.0004
  -3859180.63747  -2992961.65244
                  23616948.7894                                   23616945.1884
                                                                        44.7504
        27.7504
   -268487.74248   -199367.44945
                  21918168.8134                                   21918163.0394
                                                                        49.0004
        34.7504
    510378.80946    401365.49244
                  24132061.6484                                   24132056.7664
                                                                        41.5004
        27.5004
    676958.67247    533102.32844
                  23102193.7664                                   23102190.0824
                                                                        45.2504
        28.0004
 09 10 16 23 25 30.0000000  0  9G02G04G10G05G13G29G23G31G30
  -2326234.58648  -1796513.92647
                  20456429.2344                                   20456423.1054
                                                                        52.0004
        42.7504
    395164.65248    314453.83246
                  21011342.4224                                   21011338.7034
                                                                        51.5004
        40.0004
  -4632040.44947  -3593875.39144
                  23324160.5784                                   23324156.3794
                                                                        44.0004
        29.5004
   1286125.50856   1043396.70754
                  24220026.8594                                   24220023.7154
                                                                        40.7504
        27.5004
  -2968622.29348  -2292209.89145
                  21420601.3914                                   21420596.9414
                                                                        50.7504
        35.5004
  -4034222.13347  -3129357.63344
                  23583639.6564                                   23583636.1884
                                                                        44.5004
        28.0004
   -314005.56248   -234835.88745
                  21909507.6024                                   21909501.0704
                                                                        49.2504
        34.5004
    486744.66046    382949.25044
                  24127563.8674                                   24127559.5514
                                                                        41.0004
        27.5004
    661428.03947    521000.57044
                  23099237.5314                                   23099234.6254
                                                                        44.0004
        28.2504
 09 10 16 23 26  0.0000000  0  9G02G04G10G05G13G29G23G31G30
  -2435576.58648  -1881715.40247
                  20435621.6414                                   20435615.5634
                                                                        51.5004
        42.7504
    371016.30548    295636.96946
                  21006746.9694                                   21006743.4614
                                                                        51.5004
        39.7504
  -4827986.04347  -3746560.23444
                  23286872.6724                                   23286869.2504
                                                                        43.5004
        28.0004
   1088287.30546    889237.17644
                  24182379.7504                                   24182376.2504
                                                                        41.5004
        27.2504
  -3097354.82848  -2392520.96545
                  21396104.4064                                   21396100.0984
                                                                        50.7504
        35.5004
  -4208757.16047  -3265358.90244
                  23550426.3134                                   23550423.3164
                                                                        43.5004
        29.0004
   -358751.22748   -269702.64545
                  21900992.4614                                   21900986.0944
                                                                        49.2504
        33.7504
    463772.00046    365048.44544
                  24123192.1884                                   24123188.1884
                                                                        40.5004
        26.0004
    646601.06347    509447.00444
                  23096416.6884                                   23096413.5824
                                                                        43.2504
        26.0004
 09 10 16 23 26 30.0000000  0  9G02G04G10G05G13G29G23G31G30
  -2544198.72348  -1966356.06247
                  20414951.7274                                   20414945.5784
                                                                        52.0004
        42.7504
    347512.45748    277322.32046
                  21002274.4304                                   21002270.6844
                                                                        52.2504
        40.0004
  -5023551.49647  -3898948.86744
                  23249657.7734                                   23249654.1604
                                                                        42.5004
        27.2504
    890741.02747    735305.03944
                  24144788.3674                                   24144784.0394
                                                                        43.5004
        26.5004
  -3225301.20348  -2492219.43746
                  21371757.1414                                   21371753.0004
                                                                        50.5004
        36.2504
  -4382795.64847  -3400973.29744
                  23517307.8754                                   23517304.8794
                                                                        44.5004
        28.5004
   -402738.46148   -303978.41845
                  21892622.2814                                   21892615.7304
                                                                        49.0004
        33.7504
    441446.58247    347652.05144
                  24118943.4924                                   24118939.9384
                                                                        42.7504
        27.5004
    632462.86347    498430.24644
                  23093725.8524                                   23093723.0664
                                                                        43.0004
        26.7504
 09 10 16 23 27  0.0000000  0  9G02G04G10G05G13G29G23G31G30
  -2652103.66448  -2050437.77047
                  20394417.8834                                   20394411.9964
                                                                        51.7504
        43.0004
    324647.37548    259505.35246
                  20997923.0634                                   20997919.8984
                                                                        52.0004
        39.7504
  -5218738.54347  -4051042.66844
                  23212515.0084                                   23212511.2704
                                                                        42.0004
        28.0004
    693484.89547    581599.01244
                  24107251.7424                                   24107247.2154
                                                                        45.0004
        27.2504
  -3352463.73448  -2591307.15245
                  21347559.0864                                   21347554.5234
                                                                        50.7504
        35.2504
  -4556338.55147  -3536201.49245
                  23484283.7664                                   23484280.5394
                                                                        44.2504
        30.5004
   -445972.31648   -337667.18745
                  21884394.9774                                   21884388.6844
                                                                        48.5004
        33.7504
    419762.42247    330755.21944
                  24114817.2344                                   24114813.3984
                                                                        42.0004
        27.0004
    619006.84847    487945.06344
                  23091165.2424                                   23091162.2304
                                                                        43.0004
        27.5004
 09 10 16 23 27 30.0000000  0  9G02G04G10G05G13G29G23G31G30
  -1183870.90648   -906360.29747
                  20673813.2734                                   20673807.6914
                                                                        51.7504
        42.2504
   1877836.14148   1469782.32846
                  21293485.1884                                   21293482.1454
                                                                        52.7504
        40.5004
  -3838122.85247  -2975238.21944
                  23475237.3364                                   23475233.7344
                                                                        42.2504
        28.7504
   2071943.68847   1655722.76644
                  24369563.9774                                   24369559.3634
                                                                        43.0004
        26.2504
  -1903420.59448  -1462182.60546
                  21623302.6724                                   21623298.3634
                                                                        50.5004
        36.0004
  -3153962.02047  -2443440.50444
                  23751147.5164                                   23751144.4614
                                                                        45.0004
        29.5004
   1086963.02748    856827.83645
                  22176102.7504                                   22176096.3134
                                                                        48.2504
        33.7504
   1974134.18846   1541953.98444
                  24410604.7114                                   24410600.6604
                                                                        40.0004
        26.5004
   2181646.52347   1705586.35244
                  23388525.8444                                   23388522.8914
                                                                        44.5004
        27.5004
 09 10 16 23 28  0.0000000  0  9G02G04G10G05G13G29G23G31G30
  -1290349.82048   -989330.86347
                  20653551.1724                                   20653545.0594
                                                                        52.7504
        42.5004
   1856232.62148   1452948.42246
                  21289374.2424                                   21289370.8984
                                                                        51.7504
        40.7504
  -4032558.50447  -3126746.55944
                  23438238.1644                                   23438234.4494
                                                                        43.2504
        29.7504
   1875262.49246   1502464.72744
                  24332136.1334                                   24332132.2464
                                                                        41.2504
        27.0004
  -2029022.16848  -1560054.01246
                  21599401.3524                                   21599396.9414
                                                                        50.7504
        36.0004
  -3326518.18447  -2577899.80544
                  23718310.9304                                   23718307.5744
                                                                        44.2504
        29.0004
   1045219.77348    824300.64145
                  22168159.2344                                   22168153.1524
                                                                        49.0004
        33.5004
   1953714.59846   1526042.60944
                  24406718.5704                                   24406714.9454
                                                                        40.0004
        24.5004
   2169534.90647   1696148.66444
                  23386221.1724                                   23386217.5634
                                                                        44.5004
        26.7504
 09 10 16 23 28 30.0000000  0  9G02G04G10G05G13G29G23G31G30
  -1396119.41048  -1071748.73447
                  20633423.9224                                   20633417.6454
                                                                        52.7504
        42.7504
   1835252.27048   1436600.09046
                  21285381.8204                                   21285378.3444
                                                                        52.2504
        40.2504
  -4226620.05547  -3277963.34845
                  23401309.1024                                   23401305.4654
                                                                        43.5004
        30.0004
   1678866.47747   1349428.97344
                  24294762.2034                                   24294759.8054
                                                                        42.0004
        27.2504
  -2153845.98048  -1657319.32846
                  21575648.1954                                   21575643.7074
                                                                        51.2504
        36.0004
  -3498582.38347  -2711975.77344
                  23685567.9844                                   23685564.3954
                                                                        44.5004
        29.7504
   1004214.52748    792348.49645
                  22160356.1024                                   22160349.8954
                                                                        49.0004
        33.7504
   1933919.07846   1510617.46944
                  24402950.8444                                   24402947.9384
                                                                        40.7504
        24.7504
   2158086.99247   1687228.22344
                  23384042.0944                                   23384038.7894
                                                                        44.7504
        25.7504
 09 10 16 23 29  0.0000000  0  9G02G04G10G05G13G29G23G31G30
  -1501184.20748  -1153617.41047
                  20613430.5394                                   20613424.7894
                                                                        52.7504
        42.5004
   1814888.00848   1420731.84846
                  21281506.7114                                   21281503.1484
                                                                        51.7504
        39.7504
  -4420310.60247  -3428891.00845
                  23364450.4774                                   23364447.0984
                                                                        43.0004
        30.0004
   1482752.16447   1196612.70344
                  24257443.8674                                   24257440.4384
                                                                        42.5004
        28.5004
  -2277896.20348  -1753981.90246
                  21552042.2734                                   21552037.8524
                                                                        51.0004
        36.0004
  -3670157.40647  -2845670.66044
                  23652918.6254                                   23652914.5314
                                                                        44.0004
        29.5004
    963940.35948    760966.00845
                  22152692.2344                                   22152685.9694
                                                                        49.2504
        34.0004
   1914739.61346   1495672.35943
                  24399302.2734                                   24399297.8284
                                                                        40.2504
        22.7504
   2147293.98847   1678818.08244
                  23381988.7504                                   23381985.0594
                                                                        45.5004
        26.7504
 09 10 16 23 29 30.0000000  0  9G02G04G10G05G13G29G23G31G30
  -1605547.54748  -1234939.47347
                  20593570.9694                                   20593564.8554
                                                                        52.5004
        42.7504
   1795133.87148   1405339.01246
                  21277747.6644                                   21277744.3794
                                                                        52.0004
        40.0004
  -4613632.78547  -3579531.65644
                  23327663.1414                                   23327659.1844
                                                                        44.5004
        27.7504
   1286917.35247   1044014.21545
                  24220178.0394                                   24220174.0274
                                                                        44.0004
        30.0004
  -2401175.48848  -1850043.68045
                  21528582.9454                                   21528578.9694
                                                                        50.0004
        35.5004
  -3841245.28147  -2978985.93744
                  23620362.1884                                   23620358.1174
                                                                        44.7504
        29.0004
    924391.33648    730148.59845
                  22145166.6564                                   22145159.7934
                                                                        48.7504
        33.5004
   1896169.71146   1481202.27044
                  24395769.2114                                   24395764.0594
                                                                        41.2504
        24.5004
   2137148.70747   1670912.52044
                  23380058.0164                                   23380054.7114
                                                                        44.2504
        25.5004
 09 10 16 23 30  0.0000000  0  9G02G04G10G05G13G29G23G31G30
  -1709217.08248  -1315720.95747
                  20573843.4064                                   20573837.2584
                                                                        52.2504
        42.7504
   1775979.57048   1390413.58646
                  21274102.5864                                   21274098.9804
                                                                        51.5004
        40.0004
  -4806592.44147  -3729889.87544
                  23290943.5394                                   23290939.6644
                                                                        43.5004
        29.2504
   1091355.28946    891628.22744
                  24182963.3444                                   24182959.6604
                                                                        41.7504
        29.5004
  -2523691.14848  -1945510.46946
                  21505269.3524                                   21505264.8134
                                                                        50.5004
        36.5004
  -4011852.26247  -3111926.47744
                  23587896.1804                                   23587892.4774
                                                                        43.0004
        28.0004
    885557.23048    699888.25445
                  22137776.1484                                   22137770.3054
                                                                        48.7504
        33.2504
   1878198.71946   1467198.89844
                  24392348.6174                                   24392344.3364
                                                                        41.5004
        24.5004
   2127640.20347   1663503.27044
                  23378248.6414                                   23378245.5124
                                                                        44.7504
        27.5004
 09 10 16 23 30 30.0000000  0  9G02G04G10G05G13G29G23G31G30
  -1812193.94548  -1395962.62947
                  20554247.4224                                   20554241.1374
                                                                        52.0004
        42.7504
   1757421.49648   1375952.73846
                  21270571.2734                                   21270567.5514
                                                                        52.0004
        39.7504
  -4999189.69547  -3879965.69544
                  23254293.9774                                   23254290.3834
                                                                        45.5004
        29.5004
    896065.88747    739454.69544
                  24145801.0864                                   24145797.2974
                                                                        42.0004
        28.2504
  -2645443.66048  -2040382.60246
                  21482100.7034                                   21482096.3284
                                                                        51.0004
        36.5004
  -4181976.98447  -3244491.18044
                  23555521.8364                                   23555519.2424
                                                                        42.5004
        28.0004
    847434.69948    670182.39145
                  22130522.1884                                   22130515.8914
                                                                        49.2504
        33.5004
   1860822.59047   1453659.06343
                  24389042.6024                                   24389037.5204
                                                                        42.2504
        22.7504
   2118763.69547   1656586.53144
                  23376559.9774                                   23376557.0314
                                                                        43.5004
        27.0004
 09 10 16 23 31  0.0000000  0  9G02G04G10G05G13G29G23G31G30
  -1914481.33248  -1475667.08247
                  20534782.7974                                   20534776.8364
                                                                        52.2504
        43.0004
   1739454.07848   1361952.14846
                  21267151.8284                                   21267148.0274
                                                                        52.0004
        39.7504
  -5191425.95747  -4029760.19144
                  23217712.6804                                   23217708.5864
                                                                        45.5004
        29.2504
    701046.96546    587491.92644
                  24108690.5084                                   24108686.0204
                                                                        41.0004
        26.0004
  -2766435.81248  -2134662.19546
                  21459076.3914                                   21459072.2424
                                                                        51.0004
        36.0004
  -4351621.77747  -3376681.90644
                  23523239.5704                                   23523237.1054
                                                                        43.2504
        29.7504
    810017.96948    641026.48445
                  22123401.8364                                   22123395.4734
                                                                        49.5004
        33.2504
   1844034.93847   1440577.77343
                  24385847.9694                                   24385842.4384
                                                                        43.2504
        22.5004
   2110512.43847   1650157.02344
                  23374989.3674                                   23374986.7344
                                                                        43.7504
        27.7504
 09 10 16 23 31 30.0000000  0  9G02G04G10G05G13G29G23G31G30
  -2016082.33648  -1554836.68447
                  20515448.8524                                   20515442.6454
                                                                        52.5004
        42.7504
   1722071.34448   1348407.15246
                  21263844.4454                                   21263840.6764
                                                                        51.0004
        39.7504
  -5383303.19747  -4179274.87144
                  23181199.4534                                   23181195.4534
                                                                        45.0004
        29.2504
    506296.55146    435738.38344
                  24071630.2424                                   24071626.4804
                                                                        40.0004
        27.5004
  -2886670.34448  -2228351.46945
                  21436196.5004                                   21436192.2774
                                                                        51.0004
        35.5004
  -4520787.96547  -3508499.68045
                  23491049.3284                                   23491046.0784
                                                                        44.2504
        30.0004
    773301.30948    612416.07845
                  22116415.0394                                   22116408.5784
                                                                        50.0004
        33.7504
   1827829.28146   1427950.05944
                  24382764.2344                                   24382759.1454
                                                                        40.5004
        24.2504
   2102878.65647   1644208.50444
                  23373537.0084                                   23373534.0124
                                                                        43.7504
        27.5004
 09 10 16 23 32  0.0000000  0  9G02G04G10G05G13G29G23G31G30
  -2117000.95748  -1633474.57847
                  20496244.7504                                   20496238.7704
                                                                        52.0004
        42.5004
   1705266.71148   1335312.62946
                  21260646.7344                                   21260642.7304
                                                                        51.5004
        39.5004
  -5574824.37147  -4328512.12944
                  23144753.8674                                   23144750.3714
                                                                        45.5004
        29.5004
    311811.68446    284191.77044
                  24034620.8674                                   24034617.3284
                                                                        41.2504
        26.7504
  -3006150.84848  -2321453.17646
                  21413460.1564                                   21413455.4264
                                                                        51.0004
        36.0004
  -4689478.00847  -3639946.46145
                  23458948.4534                                   23458945.4534
                                                                        43.5004
        30.7504
    737278.22748    584346.13345
                  22109560.1884                                   22109553.8284
                                                                        49.7504
        33.2504
   1812198.36347   1415770.19144
                  24379788.9454                                   24379784.7774
                                                                        42.5004
        25.2504
   2095855.44547   1638735.88344
                  23372199.9454                                   23372197.7814
                                                                        43.2504
        27.0004
 09 10 16 23 32 30.0000000  0  9G02G04G10G05G13G29G23G31G30
  -2217234.76648  -1711578.84447
                  20477170.6644                                   20477164.5664
                                                                        52.5004
        42.5004
   1689040.35948   1322668.72746
                  21257558.9064                                   21257555.0784
                                                                        51.2504
        39.5004
  -5765985.90647  -4477469.16045
                  23108377.0474                                   23108373.8324
                                                                        45.5004
        30.7504
    117595.67247    132854.61344
                  23997663.0164                                   23997659.2544
                                                                        42.5004
        28.7504
  -3124874.42248  -2413965.14546
                  21390867.9924                                   21390863.8404
                                                                        50.7504
        36.5004
  -4857688.00847  -3771019.18445
                  23426939.0704                                   23426935.8484
                                                                        44.5004
        31.2504
    701948.67648    556816.59045
                  22102837.0164                                   22102830.9184
                                                                        49.7504
        33.7504
   1797141.45346   1404037.57044
                  24376923.6094                                   24376920.2274
                                                                        39.7504
        24.5004
   2089441.31647   1633737.84844
                  23370979.5554                                   23370977.5514
                                                                        43.7504
        27.5004
 09 10 16 23 33  0.0000000  0  9G02G04G10G05G13G29G23G31G30
  -2316788.34448  -1789153.03547
                  20458226.2504                                   20458220.2894
                                                                        52.5004
        43.0004
   1673384.92648   1310469.69146
                  21254579.7114                                   21254576.0704
                                                                        52.0004
        40.0004
  -5956790.31247  -4626147.85945
                  23072068.4454                                   23072064.9104
                                                                        45.2504
        31.2504
    -76354.42647    -18275.28145
                  23960755.8204                                   23960751.7234
                                                                        43.7504
        30.5004
  -3242844.44148  -2505889.62146
                  21368419.0164                                   21368414.7274
                                                                        50.7504
        36.2504
  -5025420.59447  -3901719.94545
                  23395020.4454                                   23395017.4184
                                                                        43.5004
        31.0004
    667305.93048    529822.24245
                  22096244.5314                                   22096238.4654
                                                                        49.5004
        33.5004
   1782651.39146   1392746.63344
                  24374165.2894                                   24374162.2854
                                                                        40.0004
        24.5004
   2083628.44947   1629208.30944
                  23369873.8674                                   23369870.5864
                                                                        43.0004
        26.7504
 09 10 16 23 33 30.0000000  0  9G02G04G10G05G13G29G23G31G30
  -2415665.97748  -1866200.56247
                  20439410.2664                                   20439404.5944
                                                                        52.7504
        42.7504
   1658294.10248   1298710.61746
                  21251707.9064                                   21251704.4844
                                                                        51.2504
        40.5004
  -6147240.93747  -4774550.91445
                  23035826.3364                                   23035823.1294
                                                                        44.5004
        30.0004
   -270042.05547   -169200.68745
                  23923898.1804                                   23923894.6294
                                                                        44.0004
        31.0004
  -3360065.48848  -2597230.63746
                  21346112.2894                                   21346107.9924
                                                                        50.5004
        36.7504
  -5192678.48047  -4032050.80145
                  23363192.3754                                   23363189.2774
                                                                        43.2504
        30.7504
    633343.05548    503357.64845
                  22089781.6254                                   22089775.7304
                                                                        49.0004
        33.0004
   1768720.54346   1381891.43443
                  24371515.6334                                   24371512.1564
                                                                        36.7504
        22.2504
   2078408.64147   1625140.91444
                  23368880.6954                                   23368877.3714
                                                                        43.5004
        26.0004
 09 10 16 23 34  0.0000000  0  9G02G04G10G05G13G29G23G31G30
  -2513872.29748  -1942724.93747
                  20420722.2894                                   20420716.2464
                                                                        51.7504
        42.7504
   1643760.36748   1287385.63746
                  21248941.9844                                   21248938.4774
                                                                        51.5004
        39.5004
  -6337341.14547  -4922680.92245
                  22999651.3364                                   22999648.5634
                                                                        42.5004
        30.5004
   -463470.62547   -319924.21144
                  23887089.7194                                   23887086.1334
                                                                        43.5004
        29.5004
  -3476541.47748  -2687991.12546
                  21323947.6094                                   21323943.5084
                                                                        50.7504
        36.2504
  -5359464.69147  -4162014.11744
                  23331454.7504                                   23331450.8914
                                                                        43.5004
        29.7504
    600052.74648    477417.14145
                  22083446.9774                                   22083440.6994
                                                                        50.0004
        33.2504
   1755340.81346   1371465.59844
                  24368968.7504                                   24368966.0944
                                                                        39.5004
        25.5004
   2073773.29747   1621528.90644
                  23367998.9224                                   23367995.6024
                                                                        44.5004
        26.0004
 09 10 16 23 34 30.0000000  0  9G02G04G10G05G13G29G23G31G30
  -2611409.22348  -2018727.73847
                  20402161.8284                                   20402155.7624
                                                                        51.7504
        42.7504
   1629779.52348   1276491.46946
                  21246281.6174                                   21246278.0824
                                                                        52.0004
        39.7504
  -6527090.77347  -5070537.74244
                  22963543.6094                                   22963540.0784
                                                                        44.5004
        29.7504
   -656640.78947   -470446.41444
                  23850330.6564                                   23850326.7934
                                                                        43.7504
        29.0004
  -3592273.90248  -2778172.23446
                  21301924.7274                                   21301920.3554
                                                                        51.0004
        37.0004
  -5525779.05947  -4291609.74644
                  23299805.6024                                   23299801.6684
                                                                        43.0004
        29.5004
    567430.64148    451997.28545
                  22077239.1484                                   22077232.9844
                                                                        48.2504
        32.2504
   1742507.72347   1361465.77044
                  24366527.8364                                   24366523.4104
                                                                        42.0004
        26.2504
   2069717.03147   1618368.17244
                  23367226.7274                                   23367223.2974
                                                                        43.0004
        26.5004
 09 10 16 23 35  0.0000000  0  9G02G04G10G05G13G29G23G31G30
  -2708274.97748  -2094207.55547
                  20383729.0554                                   20383723.0704
                                                                        52.2504
        42.7504
   1616350.39148   1266027.17646
                  21243726.4064                                   21243722.4454
                                                                        51.2504
        39.0004
  -6716486.98047  -5218119.16444
                  22927502.7664                                   22927498.8834
                                                                        44.2504
        29.5004
   -849549.57447   -620764.91844
                  23813620.7734                                   23813616.6484
                                                                        44.5004
        27.0004
  -3707260.69148  -2867772.34446
                  21280043.2034                                   21280038.9184
                                                                        51.2504
        36.0004
  -5691618.43447  -4420835.21544
                  23268247.1414                                   23268244.2074
                                                                        43.0004
        29.2504
    535475.89848    427097.47745
                  22071158.4774                                   22071151.8204
                                                                        48.5004
        33.0004
   1730219.48047   1351890.47344
                  24364189.5314                                   24364185.2304
                                                                        42.7504
        27.0004
   2066237.84847   1615657.07444
                  23366565.2974                                   23366561.0394
                                                                        43.5004
        26.0004
 09 10 16 23 35 30.0000000  0  9G02G04G10G05G13G29G23G31G30
  -2804472.75448  -2169166.85947
                  20365423.0554                                   20365416.9494
                                                                        51.7504
        42.5004
   1603467.32848   1255988.37146
                  21241274.5704                                   21241270.9844
                                                                        51.5004
        39.2504
  -6905531.67247  -5365426.71145
                  22891529.1254                                   22891524.7854
                                                                        43.5004
        30.0004
  -1042199.30947   -770881.60944
                  23776960.7664                                   23776957.0234
                                                                        43.2504
        27.7504
  -3821505.26248  -2956794.34046
                  21258303.4454                                   21258299.3914
                                                                        51.2504
        36.5004
  -5856984.40247  -4549691.79345
                  23236778.8444                                   23236775.4884
                                                                        42.5004
        30.2504
    504182.71548    402713.15245
                  22065203.6024                                   22065197.2274
                                                                        48.5004
        33.0004
   1718469.87547   1342734.94144
                  24361953.5864                                   24361949.8134
                                                                        43.2504
        27.0004
   2063329.16847   1613390.60944
                  23366011.5084                                   23366007.8324
                                                                        43.2504
        25.5004
 09 10 16 23 36  0.0000000  0  9G02G04G10G05G13G29G23G31G30
  -2900007.18448  -2243609.26647
                  20347243.5234                                   20347237.2304
                                                                        52.0004
        42.5004
   1591123.67648   1246369.93846
                  21238925.9144                                   21238922.4534
                                                                        52.0004
        39.5004
  -7094227.53947  -5512462.44145
                  22855620.8834                                   22855617.4694
                                                                        44.5004
        30.5004
  -1234593.09847   -920798.82044
                  23740349.6174                                   23740346.0164
                                                                        44.5004
        29.5004
  -3935010.31648  -3045239.75046
                  21236703.9534                                   21236699.5904
                                                                        51.0004
        36.0004
  -6021879.58647  -4678181.49645
                  23205400.4924                                   23205397.5664
                                                                        43.2504
        30.2504
    473544.33648    378839.06645
                  22059373.1484                                   22059367.0044
                                                                        48.5004
        33.5004
   1707251.40647   1333993.25844
                  24359819.1954                                   24359814.8714
                                                                        43.2504
        26.0004
   2060982.43847   1611561.93844
                  23365564.6174                                   23365561.1804
                                                                        42.0004
        24.5004
 09 10 16 23 36 30.0000000  0  9G02G04G10G05G13G29G23G31G30
  -2994880.09448  -2317536.18447
                  20329189.7194                                   20329183.4884
                                                                        52.7504
        43.0004
   1579315.05548   1237168.40646
                  21236678.7114                                   21236674.8834
                                                                        52.0004
        39.5004
  -7282575.30147  -5659226.93445
                  22819779.9534                                   22819776.6454
                                                                        44.0004
        31.0004
  -1426731.56247  -1070517.06245
                  23703786.7424                                   23703783.3984
                                                                        45.2504
        31.0004
  -4047777.87548  -3133110.43446
                  21215245.1414                                   21215240.9734
                                                                        51.2504
        37.2504
  -6186304.35247  -4806304.72745
                  23174111.7584                                   23174108.4024
                                                                        43.5004
        32.0004
    443556.55948    355471.98845
                  22053666.8054                                   22053660.1024
                                                                        48.5004
        32.2504
   1696559.01247   1325661.57044
                  24357784.2814                                   24357779.7034
                                                                        43.0004
        24.5004
   2059192.39547   1610167.07844
                  23365223.9064                                   23365220.6604
                                                                        42.5004
        24.5004
 09 10 16 23 37  0.0000000  0  9G02G04G10G05G13G29G23G31G30
  -1513669.68748  -1163346.27047
                  20611054.6174                                   20611048.4104
                                                                        51.7504
        42.2504
   3143457.76248   2455980.84446
                  21534324.9694                                   21534321.4844
                                                                        51.5004
        39.5004
  -5895148.20747  -4578114.87945
                  23083797.9454                                   23083795.0044
                                                                        44.5004
        30.5004
    -43187.93447      7568.94945
                  23967066.6174                                   23967063.3484
                                                                        44.5004
        31.2504
  -2584385.32848  -1992804.50046
                  21493719.2814                                   21493714.8954
                                                                        51.0004
        36.2504
  -4774832.52347  -3706456.55945
                  23442705.9614                                   23442702.7074
                                                                        43.5004
        31.7504
   1989636.56348   1560209.73845
                  22347876.1174                                   22347869.4614
                                                                        48.7504
        33.5004
   3261808.49247   2545336.46943
                  24655640.9144                                   24655636.1294
                                                                        42.7504
        22.5004
   3633374.30547   2836802.25044
                  23664780.6724                                   23664777.7504
                                                                        42.0004
        25.2504
 09 10 16 23 37 30.0000000  0  9G02G04G10G05G13G29G23G31G30
  -1607222.06248  -1236244.25047
                  20593252.3364                                   20593246.3674
                                                                        51.7504
        42.7504
   3132708.85548   2447604.96946
                  21532279.6334                                   21532276.4494
                                                                        50.5004
        39.7504
  -6082797.57047  -4724335.16445
                  23048090.0004                                   23048086.4654
                                                                        45.0004
        31.2504
   -234813.94547   -141750.02745
                  23930601.4304                                   23930597.9964
                                                                        43.7504
        30.5004
  -2695679.69948  -2079527.40245
                  21472540.6024                                   21472536.2664
                                                                        51.0004
        35.7504
  -4938313.06647  -3833843.94545
                  23411596.1804                                   23411593.4344
                                                                        44.0004
        32.0004
   1960939.43848   1537848.34845
                  22342415.0704                                   22342408.3134
                                                                        49.0004
        33.2504
   3252156.59446   2537815.49243
                  24653804.5784                                   24653799.0664
                                                                        41.7504
        22.5004
   3632684.13346   2836264.37144
                  23664649.5084                                   23664646.6954
                                                                        41.0004
        26.5004
 09 10 16 23 38  0.0000000  0  9G02G04G10G05G13G29G23G31G30
  -1700117.11348  -1308630.02747
                  20575575.0164                                   20575568.8054
                                                                        51.7504
        42.7504
   3122483.04748   2439636.62946
                  21530333.9224                                   21530330.6294
                                                                        51.2504
        39.0004
  -6270098.22347  -4870283.63345
                  23012447.9304                                   23012444.1334
                                                                        45.0004
        31.2504
   -426185.09047   -290870.35944
                  23894183.9924                                   23894180.4734
                                                                        42.5004
        28.5004
  -2806239.63348  -2165677.98446
                  21451501.7814                                   21451497.1954
                                                                        50.5004
        36.0004
  -5101322.11747  -3960863.94945
                  23380576.8204                                   23380573.2074
                                                                        43.5004
        30.5004
   1932881.02748   1515984.63345
                  22337075.9534                                   22337069.3794
                                                                        49.5004
        32.7504
   3243017.33646   2530693.99243
                  24652064.9844                                   24652059.9844
                                                                        40.5004
        21.2504
   3632535.47347   2836148.52044
                  23664620.9064                                   23664618.4694
                                                                        42.0004
        25.5004
 09 10 16 23 38 30.0000000  0  9G02G04G10G05G13G29G23G31G30
  -1792355.97748  -1380504.46547
                  20558022.2424                                   20558016.5904
                                                                        51.2504
        42.7504
   3112776.88748   2432073.26646
                  21528487.1024                                   21528483.7074
                                                                        51.0004
        39.2504
  -6457049.79347  -5015960.09045
                  22976871.9454                                   22976868.2544
                                                                        45.5004
        31.7504
   -617301.32847   -439792.06245
                  23857816.1564                                   23857812.2854
                                                                        43.5004
        30.5004
  -2916066.20748  -2251257.13746
                  21430602.3134                                   21430598.0044
                                                                        50.5004
        36.0004
  -5263859.03547  -4087516.05144
                  23349647.3754                                   23349643.6764
                                                                        43.7504
        29.7504
   1905457.61748   1494615.74645
                  22331857.3284                                   22331850.6804
                                                                        49.0004
        32.7504
   3234386.59446   2523968.73843
                  24650421.8054                                   24650417.8364
                                                                        38.5004
        21.5004
   3632923.66847   2836451.00444
                  23664695.4694                                   23664692.4924
                                                                        42.0004
        26.7504
 09 10 16 23 39  0.0000000  0  9G02G04G10G05G13G29G23G31G30
  -1883941.77048  -1451870.05547
                  20540594.3594                                   20540587.9454
                                                                        51.7504
        42.7504
   3103585.29748   2424910.98046
                  21526738.2194                                   21526734.6764
                                                                        50.7504
        39.0004
  -6643654.23047  -5161366.14145
                  22941362.0704                                   22941358.3914
                                                                        45.2504
        30.5004
   -808164.02747   -588516.21545
                  23821496.6484                                   23821492.3094
                                                                        44.0004
        30.5004
  -3025161.74248  -2336266.64846
                  21409842.1724                                   21409837.8714
                                                                        51.0004
        36.7504
  -5425925.11347  -4213801.25845
                  23318806.9614                                   23318803.3594
                                                                        44.0004
        31.0004
   1878663.53548   1473737.27345
                  22326758.7114                                   22326752.1174
                                                                        49.5004
        33.2504
   3226257.96146   2517634.62543
                  24648874.9614                                   24648871.7074
                                                                        38.0004
        21.0004
   3633841.85547   2837166.44544
                  23664869.6804                                   23664866.8914
                                                                        42.0004
        25.2504
 09 10 16 23 39 30.0000000  0  9G02G04G10G05G13G29G23G31G30
  -1974873.95748  -1522726.36347
                  20523290.4844                                   20523284.6254
                                                                        52.5004
        43.0004
   3094906.29748   2418148.15646
                  21525086.7974                                   21525083.0554
                                                                        50.5004
        40.0004
  -6829909.03147  -5306499.63345
                  22905919.2274                                   22905915.2074
                                                                        45.5004
        31.2504
   -998770.78147   -737040.91845
                  23785225.2734                                   23785221.6294
                                                                        44.2504
        31.2504
  -3133525.93448  -2420706.29346
                  21389221.3984                                   21389217.0234
                                                                        50.2504
        36.7504
  -5587517.59047  -4339717.48445
                  23288056.4844                                   23288053.1564
                                                                        44.5004
        31.5004
   1852496.97348   1453347.75445
                  22321778.6954                                   22321773.0824
                                                                        48.7504
        33.0004
   3218629.72346   2511690.57443
                  24647423.2734                                   24647420.1564
                                                                        38.0004
        22.0004
   3635287.19947   2838292.65644
                  23665145.1254                                   23665141.8094
                                                                        42.0004
        26.0004
 09 10 16 23 40  0.0000000  0  9G02G04G10G05G13G29G23G31G30
  -2065153.87548  -1593074.27347
                  20506110.7584                                   20506104.4184
                                                                        52.5004
        43.2504
   3086735.89548   2411781.74646
                  21523531.6954                                   21523528.2934
                                                                        50.5004
        39.2504
  -7015814.30147  -5451360.86345
                  22870542.6094                                   22870539.1214
                                                                        45.0004
        32.5004
  -1189122.74247   -885367.04345
                  23749002.2664                                   23748998.9064
                                                                        43.2504
        31.2504
  -3241159.37948  -2504576.54346
                  21368739.1414                                   21368734.9224
                                                                        50.5004
        36.5004
  -5748636.44947  -4465264.64545
                  23257396.7814                                   23257393.1914
                                                                        45.2504
        31.0004
   1826953.89547   1433444.02345
                  22316918.6254                                   22316912.0744
                                                                        47.7504
        32.7504
   3211496.13346   2506131.79344
                  24646066.4924                                   24646062.9654
                                                                        38.5004
        24.2504
   3637254.36747   2839825.62944
                  23665519.2664                                   23665516.1094
                                                                        42.2504
        26.0004
 09 10 16 23 40 30.0000000  0  9G02G04G10G05G13G29G23G31G30
  -2154783.21548  -1662915.32847
                  20489054.7974                                   20489048.8094
                                                                        52.5004
        43.0004
   3079069.94548   2405808.44546
                  21522072.7814                                   21522069.1454
                                                                        50.5004
        39.2504
  -7201369.71147  -5595949.44545
                  22835232.3594                                   22835228.9494
                                                                        45.0004
        32.0004
  -1379219.85947  -1033494.62145
                  23712828.2734                                   23712824.7034
                                                                        43.2504
        31.5004
  -3348063.43448  -2587878.39146
                  21348396.2664                                   21348391.6914
                                                                        51.0004
        36.7504
  -5909281.39547  -4590442.52345
                  23226827.1484                                   23226824.2194
                                                                        43.0004
        31.7504
   1802030.26648   1414022.98445
                  22312175.8754                                   22312169.8134
                                                                        48.2504
        32.5004
   3204853.02347   2500955.21144
                  24644802.9924                                   24644799.4614
                                                                        42.5004
        28.5004
   3639738.09447   2841760.95344
                  23665991.8524                                   23665988.7074
                                                                        42.5004
        26.0004
 09 10 16 23 41  0.0000000  0 10G02G04G10G05G13G29G23G31G30G25
  -2243761.91848  -1732249.31647
                  20472122.6094                                   20472116.7544
                                                                        52.5004
        42.5004
   3071906.02748   2400226.30546
                  21520709.3984                                   21520705.8484
                                                                        49.7504
        39.0004
  -7386573.52347  -5740264.04345
                  22799989.0474                                   22799985.5744
                                                                        45.0004
        31.7504
  -1569060.41047  -1181422.29345
                  23676702.6174                                   23676698.4304
                                                                        43.2504
        30.7504
  -3454237.80148  -2670611.65246
                  21328192.1414                                   21328187.3984
                                                                        50.7504
        37.0004
  -6069450.64147  -4715249.73845
                  23196348.1644                                   23196344.9184
                                                                        44.5004
        31.5004
   1777723.55948   1395082.68845
                  22307550.2424                                   22307543.7544
                                                                        48.5004
        32.5004
   3198697.53547   2496158.57844
                  24643631.9774                                   24643627.8954
                                                                        44.5004
        27.5004
   3642735.34347   2844096.51744
                  23666562.8054                                   23666558.8914
                                                                        43.7504
        25.7504
   4478953.93856   3525358.27353
                  24214377.4534                                   24214373.9924
                                                                        38.0004
        18.2504
 09 10 16 23 41 30.0000000  0  9G02G04G10G05G13G29G23G30G25
  -2332095.51648  -1801080.71947
                  20455313.3204                                   20455307.4534
                                                                        51.5004
        43.0004
   3065236.47748   2395029.33646
                  21519440.1174                                   21519436.5554
                                                                        49.7504
        38.7504
  -7571429.78147  -5884307.82445
                  22764811.9144                                   22764808.6054
                                                                        45.5004
        32.2504
  -1758648.07047  -1329152.88745
                  23640624.5784                                   23640621.3134
                                                                        45.0004
        31.2504
  -3559687.42648  -2752780.20746
                  21308125.3754                                   21308120.5704
                                                                        51.5004
        36.0004
  -6229147.44947  -4839688.78945
                  23165959.0474                                   23165955.2584
                                                                        45.7504
        32.2504
   1754025.75048   1376616.85245
                  22303040.8444                                   22303034.2814
                                                                        48.5004
        33.0004
   3646236.76646   2846824.92244
                  23667228.7424                                   23667225.1884
                                                                        41.2504
        25.5004
   4309888.40246   3393618.94943
                  24182205.6644                                   24182202.2344
                                                                        39.7504
        19.7504
 09 10 16 23 42  0.0000000  0  9G02G04G10G05G13G29G23G30G25
  -2419783.53948  -1869409.07847
                  20438626.7894                                   20438620.6294
                                                                        51.0004
        42.5004
   3059059.21148   2390215.89146
                  21518264.8444                                   21518261.1484
                                                                        49.7504
        38.7504
  -7755936.58247  -6028079.37145
                  22729702.1484                                   22729698.1604
                                                                        46.5004
        32.0004
  -1947981.68047  -1476685.54745
                  23604596.1174                                   23604592.1484
                                                                        44.2504
        31.0004
  -3664411.73448  -2834383.57046
                  21288197.1644                                   21288192.7814
                                                                        50.2504
        36.5004
  -6388369.91847  -4963758.23445
                  23135659.6334                                   23135656.6804
                                                                        45.0004
        31.7504
   1730935.08648   1358624.10245
                  22298646.7424                                   22298640.3914
                                                                        48.0004
        32.0004
   3650239.09447   2849943.68844
                  23667990.8204                                   23667987.4494
                                                                        42.7504
        24.2504
   4141179.82047   3262157.75443
                  24150102.2504                                   24150098.0164
                                                                        42.0004
        22.5004
 09 10 16 23 42 30.0000000  0  9G02G04G10G05G13G29G23G30G25
  -2506822.78548  -1937231.87147
                  20422064.1024                                   20422058.2584
                                                                        51.5004
        43.0004
   3053374.96148   2385786.60946
                  21517182.8594                                   21517179.0314
                                                                        50.5004
        39.0004
  -7940088.60247  -6171574.46545
                  22694658.5234                                   22694655.2464
                                                                        46.0004
        32.7504
  -2137056.01647  -1624016.14545
                  23568616.2194                                   23568612.6024
                                                                        44.5004
        30.7504
  -3768407.42248  -2915419.17246
                  21268407.5164                                   21268402.7234
                                                                        50.5004
        37.0004
  -6547112.81647  -5087454.01245
                  23105451.3444                                   23105449.0434
                                                                        44.5004
        32.2504
   1708452.08248   1341104.87145
                  22294368.5164                                   22294362.3164
                                                                        48.2504
        32.5004
   3654742.25047   2853452.69144
                  23668846.7194                                   23668843.9414
                                                                        42.5004
        25.7504
   3972833.33647   3130978.68444
                  24118066.2344                                   24118062.3834
                                                                        43.2504
        25.2504
 09 10 16 23 43  0.0000000  0  9G02G04G10G05G13G29G23G30G25
  -2593213.56648  -2004549.39147
                  20405624.3284                                   20405618.5124
                                                                        53.0004
        42.7504
   3048181.39848   2381739.66046
                  21516194.4064                                   21516190.9614
                                                                        51.0004
        38.7504
  -8123884.56247  -6314792.11345
                  22659683.6484                                   22659679.9344
                                                                        46.0004
        31.5004
  -2325870.17247  -1771144.00845
                  23532686.2114                                   23532682.1764
                                                                        44.5004
        30.2504
  -3871673.87948  -2995886.52746
                  21248756.5084                                   21248752.3674
                                                                        51.0004
        36.7504
  -6705374.48047  -5210774.80945
                  23075335.3754                                   23075332.5314
                                                                        43.7504
        31.5004
   1686574.09848   1324057.10945
                  22290204.8914                                   22290198.8834
                                                                        48.0004
        32.5004
   3659742.09847   2857348.68443
                  23669798.1094                                   23669795.3284
                                                                        42.0004
        22.0004
   3804851.32447   3000083.65243
                  24086100.7114                                   24086096.2734
                                                                        43.2504
        22.7504
 09 10 16 23 43 30.0000000  0  9G02G04G10G05G13G29G23G30G25
  -2678956.45348  -2071362.05547
                  20389307.9454                                   20389302.2154
                                                                        52.5004
        43.0004
   3043475.34048   2378072.60546
                  21515299.1174                                   21515295.5004
                                                                        51.0004
        38.5004
  -8307323.51247  -6457731.54745
                  22624776.3054                                   22624772.5124
                                                                        45.5004
        32.0004
  -2514423.41447  -1918068.55145
                  23496805.8524                                   23496801.7934
                                                                        44.5004
        31.2504
  -3974212.01248  -3075786.37146
                  21229244.0864                                   21229239.6414
                                                                        50.7504
        36.7504
  -6863153.59447  -5333719.59445
                  23045311.4774                                   23045308.0594
                                                                        45.2504
        31.7504
   1665297.84048   1307478.24245
                  22286156.4064                                   22286150.0204
                                                                        48.2504
        32.0004
   3665234.58646   2861628.54744
                  23670843.4534                                   23670840.6764
                                                                        41.5004
        24.0004
   3637235.08247   2869473.61744
                  24054203.6414                                   24054200.3674
                                                                        43.0004
        25.2504
 09 10 16 23 44  0.0000000  0  9G02G04G10G05G13G29G23G30G25
  -2764051.28548  -2137669.73047
                  20373114.9844                                   20373109.1254
                                                                        52.2504
        42.7504
   3039254.92248   2374783.95746
                  21514496.0394                                   21514492.4264
                                                                        51.2504
        38.5004
  -8490403.41047  -6600391.20345
                  22589937.3054                                   22589933.2974
                                                                        46.0004
        32.5004
  -2702713.66447  -2064788.20345
                  23460975.4304                                   23460971.3794
                                                                        45.2504
        31.7504
  -4076020.96948  -3155118.02046
                  21209870.5864                                   21209866.0984
                                                                        50.7504
        36.7504
  -7020448.03547  -5456286.69945
                  23015379.0474                                   23015375.6054
                                                                        44.5004
        31.5004
   1644621.11348   1291366.49645
                  22282222.1174                                   22282215.5744
                                                                        48.0004
        32.7504
   3671216.64147   2866289.91044
                  23671982.0004                                   23671978.5784
                                                                        42.5004
        24.2504
   3469987.49446   2739150.88643
                  24022377.6414                                   24022374.0594
                                                                        41.0004
        22.2504
 09 10 16 23 44 30.0000000  0  9G02G04G10G05G13G29G23G30G25
  -2848500.29748  -2203474.13747
                  20357045.0314                                   20357039.0004
                                                                        52.7504
        42.2504
   3035515.22748   2371869.90246
                  21513784.3914                                   21513780.6764
                                                                        50.0004
        38.5004
  -8673125.14847  -6742771.76245
                  22555166.2894                                   22555163.1174
                                                                        46.0004
        33.0004
  -2890742.19947  -2211303.92645
                  23425194.8134                                   23425190.4694
                                                                        44.5004
        31.0004
  -4177102.86748  -3233883.12546
                  21190635.3524                                   21190631.0354
                                                                        50.5004
        36.5004
  -7177258.55547  -5578476.75845
                  22985539.1254                                   22985535.7114
                                                                        44.7504
        31.7504
   1624538.98048   1275718.07045
                  22278400.0784                                   22278393.5944
                                                                        48.0004
        32.2504
   3677681.75447   2871327.64144
                  23673212.4144                                   23673208.8094
                                                                        44.5004
        26.7504
   3303108.20746   2609115.17243
                  23990621.2274                                   23990617.9884
                                                                        39.7504
        22.0004
 09 10 16 23 45  0.0000000  0  9G02G04G10G05G13G29G23G30G25
  -2932307.36348  -2268778.30147
                  20341096.7584                                   20341090.9344
                                                                        52.5004
        42.5004
   3032250.45348   2369325.94546
                  21513162.9384                                   21513159.5234
                                                                        51.0004
        38.2504
  -8855490.48047  -6884874.56645
                  22520463.3984                                   22520459.8984
                                                                        46.7504
        33.0004
  -3078510.95747  -2357617.23845
                  23389463.1254                                   23389459.5044
                                                                        42.2504
        31.5004
  -4277461.46948  -3312084.61346
                  21171537.7664                                   21171533.0204
                                                                        50.7504
        37.0004
  -7333586.44547  -5700290.73045
                  22955790.8204                                   22955787.7504
                                                                        43.7504
        31.0004
   1605045.35948   1260528.19945
                  22274690.7114                                   22274684.3164
                                                                        48.2504
        31.5004
   3684623.49247   2876736.83644
                  23674533.4144                                   23674529.8484
                                                                        44.2504
        26.0004
   3136595.74246   2479365.25043
                  23958935.0864                                   23958931.5634
                                                                        40.5004
        20.7504
 09 10 16 23 45 30.0000000  0  9G02G04G10G05G13G29G23G30G25
  -3015472.09848  -2333581.97747
                  20325271.0944                                   20325265.1294
                                                                        52.7504
        43.2504
   3029458.33248   2367150.25846
                  21512631.4694                                   21512628.1764
                                                                        50.5004
        38.5004
  -9037497.22747  -7026697.99245
                  22485828.6564                                   22485824.8094
                                                                        47.0004
        33.0004
  -3266017.95747  -2503726.59845
                  23353782.0084                                   23353778.0944
                                                                        45.2504
        31.7504
  -4377095.94148  -3389721.86346
                  21152578.0004                                   21152573.7384
                                                                        50.0004
        37.0004
  -7489429.77047  -5821727.12145
                  22926134.9224                                   22926131.7384
                                                                        44.7504
        32.2504
   1586138.23047   1245795.35545
                  22271092.4924                                   22271086.2734
                                                                        47.2504
        32.2504
   3692038.34047   2882514.65244
                  23675944.4064                                   23675941.2894
                                                                        44.0004
        25.5004
   2970453.16046   2349903.55943
                  23927319.5944                                   23927315.3014
                                                                        41.7504
        20.7504
 09 10 16 23 46  0.0000000  0  9G02G04G10G05G13G29G23G30G25
  -3097996.34848  -2397886.63747
                  20309566.9924                                   20309561.6644
                                                                        52.0004
        43.2504
   3027135.09848   2365339.94946
                  21512189.6174                                   21512185.9774
                                                                        50.7504
        38.5004
  -9219145.25047  -7168241.88745
                  22451262.2584                                   22451258.2974
                                                                        46.0004
        33.0004
  -3453263.17247  -2649631.91845
                  23318150.7584                                   23318146.2894
                                                                        45.5004
        31.5004
  -4476007.66048  -3466795.91846
                  21133755.4384                                   21133751.5164
                                                                        50.7504
        37.2504
  -7644788.16847  -5942785.60945
                  22896571.4454                                   22896568.3954
                                                                        44.5004
        32.2504
   1567813.12147   1231516.00045
                  22267605.6484                                   22267599.2464
                                                                        47.2504
        31.2504
   3699921.09047   2888657.04344
                  23677444.7344                                   23677441.4964
                                                                        43.7504
        25.5004
   2804680.87547   2220730.34443
                  23895773.6804                                   23895769.5864
                                                                        42.5004
        22.0004
 09 10 16 23 46 30.0000000  0  9G02G04G10G05G13G29G23G30G25
  -3179881.58648  -2461693.31247
                  20293985.1484                                   20293979.3404
                                                                        53.0004
        42.7504
   3025276.67248   2363891.80946
                  21511835.8054                                   21511832.1724
                                                                        51.0004
        38.5004
  -9400434.52347  -7309506.22745
                  22416764.2344                                   22416759.9344
                                                                        46.7504
        32.5004
  -3640246.94147  -2795333.50045
                  23282568.6724                                   23282564.2544
                                                                        44.5004
        30.2504
  -4574198.12548  -3543307.96146
                  21115070.4924                                   21115066.1524
                                                                        50.0004
        37.0004
  -7799661.19547  -6063465.85545
                  22867099.9224                                   22867096.8714
                                                                        43.5004
        32.5004
   1550066.26247   1217687.26645
                  22264228.5314                                   22264222.0704
                                                                        47.7504
        31.0004
   3708266.52747   2895159.94144
                  23679032.2814                                   23679029.0744
                                                                        44.5004
        25.7504
   2639279.61747   2091846.29344
                  23864299.1724                                   23864295.4574
                                                                        43.5004
        25.2504
 09 10 16 23 47  0.0000000  0  9G02G04G10G05G13G29G23G30G25
  -1685704.78548  -1297399.70347
                  20578317.1564                                   20578311.7504
                                                                        52.5004
        43.2504
   4599301.35248   3590404.55946
                  21811363.1024                                   21811359.3164
                                                                        50.7504
        38.0004
  -8005936.85547  -6222884.66045
                  22682128.0554                                   22682123.9694
                                                                        47.0004
        32.5004
  -2251541.08647  -1713225.04745
                  23546830.2734                                   23546826.4344
                                                                        45.2504
        30.5004
  -3096243.76648  -2391655.20746
                  21396315.9614                                   21396311.1254
                                                                        50.5004
        36.7504
  -6378622.10247  -4956162.66045
                  23137514.7664                                   23137511.5394
                                                                        43.5004
        32.0004
   3108315.35947   2431907.32045
                  22560753.5314                                   22560747.6094
                                                                        47.0004
        32.2504
   5292490.59847   4129620.29344
                  23980500.2894                                   23980497.2814
                                                                        43.0004
        25.5004
   4049677.58647   3190857.73844
                  24132688.7664                                   24132685.4924
                                                                        42.2504
        25.0004
 09 10 16 23 47 30.0000000  0  9G02G04G10G05G13G29G23G30G25
  -1766314.25448  -1360212.29347
                  20562978.0554                                   20562972.0784
                                                                        53.0004
        43.0004
   4598363.91048   3589674.05546
                  21811184.5704                                   21811180.8834
                                                                        51.5004
        38.2504
  -8186505.16047  -6363587.23445
                  22647767.1724                                   22647763.4804
                                                                        47.2504
        33.2504
  -2437999.04747  -1858516.98045
                  23511348.2504                                   23511344.3714
                                                                        45.0004
        31.5004
  -3192993.40648  -2467044.53546
                  21377904.9304                                   21377900.3834
                                                                        50.5004
        36.5004
  -6532521.23047  -5076084.08245
                  23108228.4454                                   23108225.2114
                                                                        44.0004
        32.2504
   3091715.01648   2418971.96145
                  22557594.6954                                   22557588.4344
                                                                        48.0004
        32.0004
   5301748.35947   4136834.12943
                  23982261.6334                                   23982259.1174
                                                                        42.2504
        22.5004
   3885023.60946   3062556.00044
                  24101356.8674                                   24101352.7504
                                                                        41.2504
        24.0004
 09 10 16 23 48  0.0000000  0  9G02G04G10G05G13G29G23G30G25
  -1846288.23448  -1422529.68047
                  20547759.4384                                   20547753.4694
                                                                        52.5004
        43.0004
   4597881.39848   3589298.05946
                  21811092.7974                                   21811089.2114
                                                                        50.2504
        38.0004
  -8366712.34447  -6504008.44145
                  22613475.1094                                   22613470.9924
                                                                        47.2504
        33.0004
  -2624193.94947  -2003603.92245
                  23475916.8674                                   23475913.2664
                                                                        45.2504
        32.0004
  -3289024.43048  -2541873.91846
                  21359630.6484                                   21359626.4844
                                                                        50.0004
        36.5004
  -6685932.12147  -5195625.00045
                  23079035.4614                                   23079032.1884
                                                                        44.0004
        32.5004
   3075682.28947   2406478.94545
                  22554543.6804                                   22554537.4884
                                                                        47.5004
        32.2504
   5311455.18847   4144397.84443
                  23984108.9924                                   23984105.6414
                                                                        43.2504
        22.0004
   3720744.43846   2934546.34443
                  24070094.6884                                   24070091.0944
                                                                        41.2504
        22.7504
 09 10 16 23 48 30.0000000  0  9G02G04G10G05G13G29G23G30G25
  -1925626.34448  -1484351.60247
                  20532661.9304                                   20532656.1054
                                                                        53.0004
        42.7504
   4597851.55548   3589274.80546
                  21811087.1564                                   21811083.2544
                                                                        50.5004
        37.7504
  -8546556.78947  -6644146.95745
                  22579251.2034                                   22579248.3204
                                                                        46.5004
        32.5004
  -2810123.75447  -2148484.27045
                  23440535.6954                                   23440531.8714
                                                                        45.5004
        33.0004
  -3384336.50448  -2616143.08246
                  21341493.7584                                   21341489.3444
                                                                        50.7504
        37.0004
  -6838852.87547  -5314784.00045
                  23049935.6254                                   23049932.3874
                                                                        43.0004
        32.0004
   3060214.64547   2394426.25045
                  22551600.4384                                   22551594.3984
                                                                        47.2504
        31.5004
   5321607.63347   4152308.74243
                  23986040.7974                                   23986037.3324
                                                                        42.2504
        21.7504
   3556842.60546   2806830.68843
                  24038905.2424                                   24038901.6134
                                                                        40.5004
        22.5004
 09 10 16 23 49  0.0000000  0  9G02G04G10G05G13G29G23G30G25
  -2004329.47348  -1545678.73047
                  20517685.2734                                   20517679.4304
                                                                        52.0004
        42.0004
   4598271.37948   3589601.96146
                  21811166.8364                                   21811163.2034
                                                                        51.2504
        37.2504
  -8726037.55947  -6784002.07845
                  22545097.8204                                   22545093.8794
                                                                        47.2504
        33.7504
  -2995787.77047  -2293157.52745
                  23405205.0554                                   23405200.9264
                                                                        45.5004
        32.7504
  -3478930.41048  -2689852.60946
                  21323493.0004                                   21323488.6024
                                                                        49.7504
        36.5004
  -6991282.46947  -5433560.29745
                  23020929.3524                                   23020926.0554
                                                                        43.7504
        32.5004
   3045308.38347   2382810.98845
                  22548763.9924                                   22548757.3524
                                                                        46.5004
        31.5004
   5332201.81647   4160564.02343
                  23988056.9774                                   23988053.5474
                                                                        43.2504
        22.7504
   3393319.82846   2679410.41443
                  24007787.0704                                   24007783.8014
                                                                        41.5004
        22.5004
 09 10 16 23 49 30.0000000  0  9G02G04G10G05G13G29G23G30G25
  -2082398.01648  -1606511.38747
                  20502829.3054                                   20502823.2704
                                                                        52.5004
        43.0004
   4599138.34848   3590277.54346
                  21811332.0234                                   21811328.3244
                                                                        50.0004
        37.0004
  -8905152.66447  -6923572.26245
                  22511012.9774                                   22511009.4844
                                                                        47.0004
        34.0004
  -3181184.46547  -2437622.47345
                  23369925.2814                                   23369921.6054
                                                                        44.0004
        32.0004
  -3572806.03548  -2763002.44146
                  21305629.1724                                   21305624.6764
                                                                        49.2504
        36.7504
  -7143219.58247  -5551952.87145
                  22992016.7664                                   22992013.4534
                                                                        44.0004
        33.5004
   3030961.29747   2371631.41445
                  22546033.5314                                   22546027.0234
                                                                        47.7504
        32.0004
   5343233.45347   4169160.19944
                  23990155.9614                                   23990152.9144
                                                                        43.7504
        26.0004
   3230178.14547   2552287.07043
                  23976743.0164                                   23976738.7034
                                                                        42.0004
        22.2504
 09 10 16 23 50  0.0000000  0  9G02G04G10G05G13G29G23G30G25
  -2159832.49248  -1666849.88747
                  20488093.9534                                   20488088.0984
                                                                        52.2504
        43.0004
   4600450.02048   3591299.64546
                  21811581.6094                                   21811577.5704
                                                                        50.0004
        38.0004
  -9083900.85547  -7062856.57445
                  22476998.4844                                   22476994.5514
                                                                        47.2504
        34.0004
  -3366312.79347  -2581878.28945
                  23334695.8754                                   23334692.3984
                                                                        44.5004
        31.7504
  -3665963.67248  -2835592.78546
                  21287901.7814                                   21287897.2774
                                                                        49.2504
        36.7504
  -7294662.30547  -5669960.18045
                  22963198.2894                                   22963194.7934
                                                                        44.0004
        32.5004
   3017170.43847   2360885.34845
                  22543409.0394                                   22543402.8914
                                                                        47.0004
        31.5004
   5354698.81647   4178094.24644
                  23992337.9454                                   23992335.2424
                                                                        43.7504
        25.0004
   3067419.67247   2425462.34843
                  23945771.1334                                   23945767.2194
                                                                        42.5004
        22.2504
 09 10 16 23 50 30.0000000  0  9G02G04G10G05G13G29G23G30G25
  -2236635.14848  -1726696.15247
                  20473478.9384                                   20473473.0084
                                                                        52.2504
        43.2504
   4602201.72748   3592664.55546
                  21811914.9774                                   21811911.1954
                                                                        49.7504
        38.0004
  -9262281.82047  -7201854.73445
                  22443053.8134                                   22443049.8594
                                                                        46.5004
        33.5004
  -3551172.64147  -2725924.89845
                  23299518.7814                                   23299514.7854
                                                                        45.5004
        31.7504
  -3758405.34048  -2907625.26646
                  21270310.8444                                   21270306.3404
                                                                        48.7504
        36.7504
  -7445610.36747  -5787582.05545
                  22934473.7814                                   22934470.1414
                                                                        44.0004
        33.0004
   3003931.28547   2350569.17645
                  22540889.6884                                   22540883.5044
                                                                        45.7504
        30.7504
   5366592.53146   4187362.03144
                  23994601.4534                                   23994598.2974
                                                                        41.7504
        25.0004
   2905044.68847   2298936.37943
                  23914872.2424                                   23914867.8674
                                                                        43.7504
        22.7504
 09 10 16 23 51  0.0000000  0  9G02G04G10G05G13G29G23G30G25
  -2312805.44548  -1786049.72347
                  20458984.2274                                   20458978.2704
                                                                        51.7504
        42.7504
   4604392.05948   3594371.32446
                  21812331.8444                                   21812328.2234
                                                                        49.0004
        38.0004
  -9440293.70347  -7340565.34045
                  22409179.0004                                   22409175.1024
                                                                        46.5004
        33.0004
  -3735762.64547  -2869761.27345
                  23264392.1094                                   23264388.0554
                                                                        45.7504
        32.5004
  -3850130.76648  -2979099.63746
                  21252856.2424                                   21252851.4104
                                                                        49.5004
        37.2504
  -7596061.88347  -5904817.03545
                  22905843.6954                                   22905840.2384
                                                                        45.5004
        33.0004
   2991241.65247   2340681.19545
                  22538474.6724                                   22538468.2074
                                                                        46.0004
        30.2504
   5378911.48046   4196961.24243
                  23996944.6024                                   23996942.1994
                                                                        41.0004
        22.7504
   2743055.93847   2172711.36344
                  23884046.8284                                   23884042.5004
                                                                        43.0004
        24.5004
 09 10 16 23 51 30.0000000  0  9G02G04G10G05G13G29G23G30G25
  -2388345.45748  -1844912.27347
                  20444609.8914                                   20444603.7384
                                                                        52.2504
        43.0004
   4607016.67248   3596416.49246
                  21812831.1484                                   21812827.6994
                                                                        50.5004
        38.0004
  -9617936.57047  -7478988.37945
                  22375374.6254                                   22375370.7624
                                                                        46.2504
        33.0004
  -3920082.48447  -3013387.06645
                  23229317.6174                                   23229313.0944
                                                                        45.5004
        32.7504
  -3941141.38348  -3050016.99646
                  21235537.2424                                   21235532.7344
                                                                        50.2504
        37.0004
  -7746016.15647  -6021664.53945
                  22877308.1644                                   22877305.0514
                                                                        44.2504
        32.2504
   2979097.36347   2331218.14145
                  22536164.0554                                   22536157.8834
                                                                        46.5004
        31.7504
   5391650.34446   4206887.61343
                  23999369.2894                                   23999366.6254
                                                                        40.5004
        22.7504
   2581454.05546   2046787.85543
                  23853294.6334                                   23853291.1094
                                                                        41.0004
        22.5004
 09 10 16 23 52  0.0000000  0  9G02G04G10G05G13G29G23G30G25
  -2463254.21948  -1903282.85947
                  20430355.0084                                   20430349.0784
                                                                        51.7504
        42.7504
   4610074.19948   3598798.99646
                  21813413.0554                                   21813409.0904
                                                                        50.0004
        37.0004
  -9795207.55547  -7617121.68745
                  22341641.2814                                   22341637.7774
                                                                        46.0004
        34.0004
  -4104129.50047  -3156800.32445
                  23194294.6024                                   23194290.2154
                                                                        46.5004
        33.2504
  -4031436.73448  -3120376.98846
                  21218354.4144                                   21218350.3874
                                                                        50.2504
        37.5004
  -7895470.78147  -6138122.71945
                  22848868.0004                                   22848864.4384
                                                                        44.7504
        31.5004
   2967496.39847   2322178.41845
                  22533956.3054                                   22533950.0904
                                                                        46.7504
        31.5004
   5404806.36346   4217139.07443
                  24001873.3204                                   24001870.3244
                                                                        41.2504
        23.0004
   2420242.19146   1921168.29344
                  23822616.8284                                   23822613.6764
                                                                        40.7504
        24.5004
 09 10 16 23 52 30.0000000  0  9G02G04G10G05G13G29G23G30G25
  -2537534.60248  -1961163.64847
                  20416220.0944                                   20416213.9774
                                                                        51.2504
        43.0004
   4613559.52047   3601514.78946
                  21814075.9224                                   21814072.5904
                                                                        47.7504
        37.0004
  -9972107.36747  -7754965.68745
                  22307978.7424                                   22307974.8954
                                                                        46.5004
        34.5004
  -4287905.03147  -3300002.07845
                  23159323.3054                                   23159319.1294
                                                                        46.5004
        33.2504
  -4121019.31648  -3190181.59446
                  21201307.5944                                   21201303.0314
                                                                        48.5004
        37.0004
  -8044426.38347  -6254192.03945
                  22820522.7194                                   22820519.4884
                                                                        44.0004
        33.7504
   2956433.54747   2313557.93445
                  22531851.2584                                   22531845.3284
                                                                        46.5004
        31.2504
   5418373.53546   4227710.82843
                  24004455.1334                                   24004452.1024
                                                                        40.7504
        22.5004
   2259420.02046   1795852.35943
                  23792014.3284                                   23792009.8834
                                                                        41.5004
        22.7504
 09 10 16 23 53  0.0000000  0  9G02G04G10G05G13G29G23G30G25
  -2611185.45748  -2018553.96547
                  20402204.6564                                   20402198.8364
                                                                        51.5004
        43.0004
   4617472.17648   3604563.63746
                  21814820.4614                                   21814817.4774
                                                                        49.7504
        37.0004
 -10148633.05147  -7892518.14845
                  22274386.3054                                   22274382.8324
                                                                        45.0004
        34.5004
  -4471406.14547  -3442989.98845
                  23124403.6884                                   23124400.0944
                                                                        45.7504
        33.2504
  -4209887.03948  -3259429.17646
                  21184396.6724                                   21184392.1644
                                                                        48.7504
        36.2504
  -8192879.64547  -6369869.90245
                  22792273.3364                                   22792269.6844
                                                                        44.2504
        32.7504
   2945908.48447   2305356.60245
                  22529848.7584                                   22529842.2854
                                                                        47.2504
        31.5004
   5432349.71947   4238601.38743
                  24007114.0554                                   24007110.9454
                                                                        42.7504
        23.0004
   2098991.75446   1670843.36743
                  23761485.0314                                   23761481.1374
                                                                        40.5004
        23.5004
 09 10 16 23 53 30.0000000  0  9G02G04G10G05G13G29G23G30G25
  -2684208.49648  -2075454.98847
                  20388308.9844                                   20388302.9774
                                                                        51.7504
        42.7504
   4621807.76248   3607942.00446
                  21815645.7584                                   21815642.3324
                                                                        50.0004
        37.7504
 -10324784.44547  -8029778.94945
                  22240866.1564                                   22240862.4454
                                                                        46.0004
        34.2504
  -4654632.55547  -3585763.83245
                  23089537.2504                                   23089533.5554
                                                                        47.5004
        33.2504
  -4298042.70748  -3328121.88346
                  21167621.1564                                   21167616.5004
                                                                        49.2504
        36.7504
  -8340830.49247  -6485156.28145
                  22764119.0234                                   22764115.9534
                                                                        45.5004
        34.0004
   2935915.54347   2297569.86745
                  22527947.1724                                   22527940.6954
                                                                        47.7504
        32.0004
   5446729.76246   4249806.65244
                  24009851.1724                                   24009848.0984
                                                                        41.7504
        24.2504
   1938957.34446   1546141.22344
                  23731031.6564                                   23731027.7894
                                                                        39.5004
        26.7504
 09 10 16 23 54  0.0000000  0  9G02G04G10G05G13G29G23G30G25
  -2756602.09448  -2131865.55147
                  20374532.7274                                   20374526.8634
                                                                        51.5004
        42.7504
   4626566.25448   3611649.90646
                  21816551.2344                                   21816547.6954
                                                                        49.0004
        37.2504
 -10500557.43447  -8166744.91845
                  22207417.9224                                   22207413.8404
                                                                        46.7504
        34.5004
  -4837580.29347  -3728320.50845
                  23054723.8984                                   23054719.8794
                                                                        46.5004
        33.7504
  -4385483.69148  -3396257.68046
                  21150981.5474                                   21150977.5204
                                                                        48.5004
        36.2504
  -8488274.62947  -6600047.78945
                  22736060.9224                                   22736057.9844
                                                                        45.0004
        33.0004
   2926455.41447   2290198.30545
                  22526146.7424                                   22526140.3674
                                                                        47.0004
        31.0004
   5461512.27047   4261325.55543
                  24012664.1564                                   24012660.5164
                                                                        43.2504
        22.5004
   1779321.62147   1421749.80544
                  23700654.2814                                   23700650.3634
                                                                        42.0004
        25.2504
 09 10 16 23 54 30.0000000  0  9G02G04G10G05G13G29G23G30G25
  -2828368.71948  -2187787.55147
                  20360875.8364                                   20360870.0164
                                                                        52.2504
        42.7504
   4631743.18048   3615683.85546
                  21817536.3914                                   21817532.7274
                                                                        49.2504
        36.5004
 -10675952.67647  -8303416.55145
                  22174041.4144                                   22174037.4064
                                                                        46.7504
        34.7504
  -5020249.97347  -3870660.48045
                  23019962.5634                                   23019958.7974
                                                                        46.5004
        33.5004
  -4472212.84848  -3463838.78946
                  21134477.4224                                   21134472.9184
                                                                        49.0004
        36.5004
  -8635212.68447  -6714544.94545
                  22708099.6804                                   22708096.2664
                                                                        45.5004
        33.2504
   2917522.64847   2283237.69545
                  22524447.0164                                   22524440.9574
                                                                        46.5004
        30.0004
   5476691.64846   4273153.65643
                  24015552.0864                                   24015549.0434
                                                                        41.2504
        22.0004
   1620084.44547   1297668.94544
                  23670352.1884                                   23670348.3244
                                                                        42.0004
        25.5004
 09 10 16 23 55  0.0000000  0  9G02G04G10G05G13G29G23G30G25
  -2899507.89848  -2243220.62147
                  20347338.6254                                   20347332.8204
                                                                        51.2504
        42.7504
   4637336.76648   3620042.48846
                  21818601.0474                                   21818597.1914
                                                                        49.7504
        36.7504
 -10850967.90247  -8439792.04345
                  22140736.7344                                   22140732.7734
                                                                        47.0004
        34.5004
  -5202639.83247  -4012782.44545
                  22985255.1414                                   22985250.4964
                                                                        47.2504
        33.5004
  -4558229.55148  -3530864.76246
                  21118109.1724                                   21118104.9454
                                                                        49.0004
        37.2504
  -8781642.33647  -6828645.98845
                  22680235.3364                                   22680231.7344
                                                                        45.5004
        33.0004
   2909115.47347   2276686.68045
                  22522847.0394                                   22522841.0394
                                                                        45.2504
        30.2504
   5492264.76646   4285288.62943
                  24018515.5944                                   24018512.1174
                                                                        41.5004
        21.5004
   1461249.06347   1173901.14144
                  23640126.7894                                   23640122.6214
                                                                        42.0004
        24.0004
 09 10 16 23 55 30.0000000  0  9G02G04G10G05G13G29G23G30G25
  -2970024.81248  -2298168.82047
                  20333919.6724                                   20333913.5044
                                                                        51.0004
        42.2504
   4643339.70748   3624720.11346
                  21819742.9534                                   21819739.6954
                                                                        49.2504
        37.0004
 -11025605.77047  -8575873.48445
                  22107504.0784                                   22107500.1334
                                                                        47.0004
        33.7504
  -5384752.77747  -4154688.62945
                  22950599.6644                                   22950595.5394
                                                                        47.0004
        33.7504
  -4643538.67648  -3597339.40246
                  21101875.1254                                   21101870.9964
                                                                        49.7504
        36.7504
  -8927566.04747  -6942352.75845
                  22652466.5704                                   22652463.4734
                                                                        45.0004
        33.2504
   2901226.17247   2270539.15645
                  22521345.3134                                   22521339.4654
                                                                        45.7504
        30.0004
   5508223.21546   4297723.85543
                  24021552.1094                                   24021549.4414
                                                                        41.2504
        22.5004
   1302812.40646   1050444.03543
                  23609976.6024                                   23609973.0784
                                                                        40.7504
        23.0004
 09 10 16 23 56  0.0000000  0  9G02G04G10G05G13G29G23G30G25
  -3039919.24648  -2352631.91047
                  20320619.2114                                   20320612.9384
                                                                        52.0004
        42.0004
   4649750.42648   3629715.49246
                  21820963.2274                                   21820958.9924
                                                                        48.7504
        36.5004
 -11199863.86747  -8711659.00445
                  22074343.8524                                   22074339.8554
                                                                        47.7504
        34.5004
  -5566586.68447  -4296377.35945
                  22915998.3364                                   22915993.8484
                                                                        47.5004
        34.0004
  -4728140.23848  -3663262.68046
                  21085776.0314                                   21085771.2704
                                                                        49.5004
        37.2504
  -9072981.79347  -7055663.72345
                  22624794.9924                                   22624791.6564
                                                                        44.5004
        33.0004
   2893852.88347   2264793.73044
                  22519942.5864                                   22519936.0044
                                                                        46.5004
        29.7504
   5524563.77346   4310456.73043
                  24024662.1414                                   24024658.9064
                                                                        41.7504
        22.5004
   1144777.61347    927300.03943
                  23579903.3364                                   23579900.1564
                                                                        42.2504
        22.5004
 09 10 16 23 56 30.0000000  0  9G02G04G10G05G13G29G23G30G25
  -3109186.82048  -2406606.52047
                  20307437.7734                                   20307431.9144
                                                                        51.5004
        42.2504
   4656571.13348   3635030.32046
                  21822261.1254                                   21822257.3554
                                                                        49.7504
        36.5004
 -11373736.13748  -8847143.87945
                  22041257.4144                                   22041253.1884
                                                                        48.5004
        34.7504
  -5748135.25047  -4437843.75445
                  22881450.4224                                   22881446.4454
                                                                        47.5004
        32.5004
  -4812029.40648  -3728630.85246
                  21069812.6174                                   21069807.9574
                                                                        50.2504
        37.0004
  -9217883.00847  -7168573.71945
                  22597221.1024                                   22597217.6334
                                                                        45.2504
        33.2504
   2886997.39147   2259451.79745
                  22518638.5784                                   22518632.0634
                                                                        47.0004
        30.7504
   5541287.74646   4323488.39143
                  24027844.5474                                   24027841.2274
                                                                        41.5004
        22.7504
    987151.44946    804474.48843
                  23549908.3914                                   23549904.9064
                                                                        39.7504
        22.7504
 09 10 16 23 57  0.0000000  0  9G02G04G10G05G13G29G23G30G25
  -1602406.12148  -1232491.63747
                  20594168.7114                                   20594162.8204
                                                                        51.7504
        42.5004
   6239219.16848   4868262.53546
                  22123429.0784                                   22123425.6684
                                                                        48.7504
        36.0004
  -9971794.80148  -7754722.09845
                  22308037.6484                                   22308034.3284
                                                                        48.0004
        34.5004
  -4353970.53947  -3351481.59045
                  23146751.2344                                   23146747.0314
                                                                        47.5004
        33.0004
  -3319783.93748  -2565842.18046
                  21353777.3134                                   21353772.7854
                                                                        50.0004
        37.2504
  -7786843.08647  -6053477.68745
                  22869539.2584                                   22869535.8204
                                                                        46.2504
        33.5004
   4456077.59447   3482111.68445
                  22817223.9384                                   22817217.8674
                                                                        45.7504
        30.7504
   7133810.77347   5564415.26644
                  24330891.3754                                   24330888.2894
                                                                        42.5004
        24.5004
   2405361.65246   1909573.37544
                  23819784.6564                                   23819781.8834
                                                                        41.0004
        25.0004
 09 10 16 23 57 30.0000000  0  8G02G04G10G05G13G29G23G25
  -1670423.20348  -1285491.85247
                  20581225.3594                                   20581219.1914
                                                                        51.5004
        42.5004
   6246850.96548   4874209.36346
                  22124881.2424                                   22124877.5864
                                                                        49.7504
        36.5004
 -10144891.48847  -7889602.64545
                  22275099.0474                                   22275094.9694
                                                                        46.7504
        34.5004
  -4534945.21547  -3492500.80545
                  23112312.9534                                   23112308.6804
                                                                        46.7504
        34.7504
  -3402251.24648  -2630102.46546
                  21338084.2424                                   21338080.1174
                                                                        50.2504
        36.7504
  -7930711.66047  -6165583.09045
                  22842161.7664                                   22842158.7814
                                                                        46.0004
        33.7504
   4450248.23847   3477569.36745
                  22816114.6954                                   22816108.1024
                                                                        47.0004
        30.5004
   2248558.13347   1787388.85244
                  23789946.5704                                   23789942.5864
                                                                        42.2504
        25.5004
 09 10 16 23 58  0.0000000  0  8G02G04G10G05G13G29G23G25
  -1737819.21148  -1338008.23047
                  20568400.2664                                   20568394.1214
                                                                        51.0004
        42.7504
   6254881.00448   4880466.49246
                  22126409.1414                                   22126405.7974
                                                                        49.5004
        36.5004
 -10317601.38747  -8024181.78545
                  22242232.6414                                   22242229.2704
                                                                        47.2504
        35.0004
  -4715634.27747  -3633297.48045
                  23077928.8524                                   23077925.3914
                                                                        47.7504
        34.7504
  -3484011.89848  -2693812.07446
                  21322525.7584                                   21322521.8594
                                                                        50.0004
        37.2504
  -8074064.70747  -6277286.76645
                  22814882.8364                                   22814879.1294
                                                                        45.5004
        33.5004
   4444923.91447   3473420.55145
                  22815101.7034                                   22815095.2154
                                                                        46.2504
        30.0004
   2092165.48447   1665524.44544
                  23760185.8834                                   23760182.1174
                                                                        43.0004
        28.0004
 09 10 16 23 58 30.0000000  0  8G02G04G10G05G13G29G23G25
  -1804590.86348  -1390038.05947
                  20555694.1174                                   20555687.9924
                                                                        51.7504
        42.7504
   6263310.87148   4887035.21946
                  22128013.4694                                   22128009.9574
                                                                        49.2504
        36.0004
 -10489918.97747  -8158455.27045
                  22209442.1174                                   22209438.6484
                                                                        47.2504
        35.5004
  -4896032.03947  -3773867.13345
                  23043600.5314                                   23043596.5744
                                                                        47.5004
        34.5004
  -3565062.77748  -2756968.68046
                  21307102.6884                                   21307098.1884
                                                                        50.0004
        37.2504
  -8216896.92647  -6388584.63745
                  22787702.7344                                   22787699.2504
                                                                        45.7504
        35.0004
   4440105.85547   3469666.19145
                  22814184.7194                                   22814178.7344
                                                                        45.5004
        30.0004
   1936189.79347   1543984.96544
                  23730504.9924                                   23730500.9884
                                                                        44.5004
        28.2504
 09 10 16 23 59  0.0000000  0  8G02G04G10G05G13G29G23G25
  -1870738.70348  -1441581.79347
                  20543106.3834                                   20543100.3754
                                                                        52.2504
        42.5004
   6272138.04348   4893913.52346
                  22129693.3524                                   22129689.6374
                                                                        49.5004
        36.2504
 -10661843.01247  -8292422.02745
                  22176726.3594                                   22176722.3284
                                                                        47.0004
        34.0004
  -5076137.24647  -3914208.83245
                  23009327.5164                                   23009323.2734
                                                                        47.7504
        34.0004
  -3645403.90648  -2819572.26646
                  21291814.2734                                   21291810.2774
                                                                        49.2504
        37.2504
  -8359206.78947  -6499475.40645
                  22760621.8284                                   22760618.6884
                                                                        46.5004
        34.7504
   4435791.53947   3466304.35245
                  22813363.6564                                   22813357.7234
                                                                        46.0004
        30.5004
   1780633.09047   1422771.93444
                  23700903.3134                                   23700899.4064
                                                                        43.0004
        26.0004
 09 10 16 23 59 30.0000000  0  8G02G04G10G05G13G29G23G25
  -1936266.31248  -1492642.23047
                  20530636.9224                                   20530630.8324
                                                                        51.7504
        42.2504
   6281356.78148   4901096.94146
                  22131447.6724                                   22131443.9064
                                                                        48.7504
        36.5004
 -10833374.41847  -8426082.96145
                  22144084.5704                                   22144080.8554
                                                                        46.7504
        35.5004
  -5255950.99247  -4054323.45345
                  22975110.1564                                   22975106.1094
                                                                        47.7504
        34.5004
  -3725038.93448  -2881625.57446
                  21276660.2584                                   21276655.7544
                                                                        48.5004
        36.7504
  -8500995.28147  -6609959.93745
                  22733640.6564                                   22733637.1884
                                                                        46.2504
        34.5004
   4431974.80147   3463330.23444
                  22812637.5314                                   22812631.3874
                                                                        44.7504
        29.7504
   1625494.26647   1301884.50044
                  23671381.0704                                   23671377.7464
                                                                        42.5004
        24.5004
