     2.11           OBSERVATION DATA    G (GPS)             RINEX VERSION / TYPE
teqc  2019Feb25                         20221121 12:28:28UTCPGM / RUN BY / DATE
OSX ker:10.11.6|Core i5|gcc 4.3 -m64|OSX ker:10.10+|=+      COMMENT
BIT 2 OF LLI FLAGS DATA COLLECTED UNDER A/S CONDITION       COMMENT
04712901                                                    MARKER NAME
2901                                                        MARKER NUMBER
-Unknown-           -Unknown-                               OBSERVER / AGENCY
0220400471          TRIMBLE R7          2.30                REC # / TYPE / VERS
-Unknown-           TRM39105.00     NONE                    ANT # / TYPE
  1449460.3091 -1709241.7936  5952442.7495                  APPROX POSITION XYZ
        0.0000        0.0000        0.0000                  ANTENNA: DELTA H/E/N
     1     1                                                WAVELENGTH FACT L1/2
    20    L1    L2    L5    L6    L7    L8    C1    P1    C2# / TYPES OF OBSERV
          P2    C5    C6    C7    C8    S1    S2    S5    S6# / TYPES OF OBSERV
          S7    S8                                          # / TYPES OF OBSERV
    30.0000                                                 INTERVAL
    15                                                      LEAP SECONDS
Forced Modulo Decimation to 30 seconds                      COMMENT
 SNR is mapped to RINEX snr flag value [0-9]                COMMENT
  L1 & L2: min(max(int(snr_dBHz/6), 0), 9)                  COMMENT
teqc edited: Beidou # 1 - 37 excluded                       COMMENT
  2009    10    17    23    10   30.0000000     GPS         TIME OF FIRST OBS
                                                            END OF HEADER
 09 10 17 23 10 30.0000000  0  7G02G04G12G13G23G30G31
   -207035.99258   -139578.64557
                  20838918.8914                                   20838912.5044
                                                                        50.5004
        42.2504
    -75318.77058    -50031.02356
                  21038765.1724                                   21038761.3834
                                                                        51.0004
        41.7504
     -5098.77357     -3767.74654
                  24391923.6644                                   24391919.3244
                                                                        42.0004
        25.2504
   -238460.75058   -155922.48855
                  21885321.7894                                   21885317.1334
                                                                        49.5004
        34.5004
   -111187.11758    -72987.48055
                  22024492.2974                                   22024485.6024
                                                                        48.5004
        35.0004
    -60161.62157    -35634.44154
                  23088354.1334                                   23088351.0394
                                                                        44.5004
        28.2504
    -72942.41456    -42710.99654
                  24149962.4144                                   24149957.4064
                                                                        40.2504
        26.0004
 09 10 17 23 11  0.0000000  0  9G02G04G10G12G13G23G29G30G31
   -344603.68448   -246774.17647
                  20812740.7584                                   20812734.5784
                                                                        51.0004
        42.7504
   -126522.20748    -89929.79346
                  21029021.5474                                   21029017.4844
                                                                        51.7504
        41.0004
   -279780.70357   -196686.71954
                  23994793.4844                                   23994789.4614
                                                                        42.7504
        24.7504
    -10219.18447     -7757.64544
                  24390949.8364                                   24390945.1174
                                                                        43.7504
        27.0004
   -396625.53548   -279167.79345
                  21855224.1334                                   21855219.2774
                                                                        49.5004
        34.7504
   -185631.30948   -130995.93745
                  22010325.9454                                   22010319.3634
                                                                        48.7504
        34.5004
   -254004.78556   -151794.62554
                  24184076.5864                                   24184072.3364
                                                                        41.7504
        26.7504
   -103365.59047    -69299.82844
                  23080132.9614                                   23080129.5234
                                                                        45.5004
        28.7504
   -123179.71946    -81856.94944
                  24140402.5944                                   24140398.0004
                                                                        40.0004
        26.2504
 09 10 17 23 11 30.0000000  0  9G02G04G10G12G13G23G29G30G31
   -481608.41048   -353531.10247
                  20786669.7584                                   20786662.8244
                                                                        50.5004
        42.0004
   -177180.73448   -129403.98046
                  21019381.7274                                   21019377.7854
                                                                        51.5004
        41.2504
   -495912.30147   -365100.98044
                  23953665.3674                                   23953661.4414
                                                                        42.0004
        25.5004
    -15014.56247    -11494.31244
                  24390037.5944                                   24390032.6524
                                                                        43.5004
        27.0004
   -554174.61748   -401933.35545
                  21825243.5164                                   21825238.3674
                                                                        49.2504
        34.7504
   -259421.57448   -188494.84845
                  21996284.2974                                   21996277.2624
                                                                        48.7504
        35.0004
   -451139.89547   -305406.42244
                  24146562.6334                                   24146558.4184
                                                                        42.2504
        25.7504
   -145957.73447   -102488.46544
                  23072028.0704                                   23072025.1134
                                                                        43.7504
        28.5004
   -172858.04746   -120567.36344
                  24130949.3834                                   24130943.9844
                                                                        40.5004
        25.7504
 09 10 17 23 12  0.0000000  0  9G02G04G10G12G13G23G29G30G31
   -617826.86348   -459675.35547
                  20760747.7734                                   20760741.5824
                                                                        50.7504
        42.2504
   -227074.02748   -168281.90646
                  21009887.3914                                   21009883.4224
                                                                        51.5004
        40.7504
   -711617.96147   -533183.35244
                  23912617.4454                                   23912613.6024
                                                                        43.0004
        27.0004
    -19265.74247    -14806.96544
                  24389228.6484                                   24389224.2194
                                                                        44.2504
        29.5004
   -710884.59848   -524045.03945
                  21795423.0004                                   21795417.5084
                                                                        49.5004
        33.7504
   -332337.30148   -245312.30145
                  21982408.6094                                   21982401.9734
                                                                        49.2504
        34.7504
   -647739.34046   -458600.84844
                  24109150.4614                                   24109146.1054
                                                                        41.5004
        24.5004
   -187718.30147   -135029.12544
                  23064080.9064                                   23064077.7424
                                                                        45.2504
        28.7504
   -221757.37547   -158670.74644
                  24121643.1094                                   24121639.0474
                                                                        42.0004
        26.7504
 09 10 17 23 12 30.0000000  0  9G02G04G10G12G13G23G29G30G31
   -753174.15648   -565140.79747
                  20734992.0784                                   20734985.8444
                                                                        50.5004
        42.5004
   -276119.48848   -206499.12546
                  21000554.2194                                   21000549.9774
                                                                        50.7504
        41.0004
   -926811.50047   -700866.63344
                  23871667.3594                                   23871664.4734
                                                                        43.2504
        27.5004
    -22891.52747    -17632.31244
                  24388538.6174                                   24388534.3714
                                                                        44.0004
        29.0004
   -866669.33248   -645435.74245
                  21765777.6414                                   21765772.9964
                                                                        49.0004
        34.5004
   -404295.52748   -301383.65245
                  21968715.5704                                   21968709.0474
                                                                        49.2504
        35.0004
   -843716.85946   -611310.62944
                  24071857.5314                                   24071853.9144
                                                                        40.0004
        26.2504
   -228565.76647   -166858.27044
                  23056308.1484                                   23056304.6804
                                                                        45.5004
        29.7504
   -269795.99247   -196103.43744
                  24112501.9304                                   24112497.8834
                                                                        43.0004
        27.7504
 09 10 17 23 13  0.0000000  0  9G02G04G10G12G13G23G29G30G31
   -887611.82048   -669897.43747
                  20709409.5314                                   20709403.0474
                                                                        51.0004
        42.2504
   -324281.64548   -244028.08246
                  20991389.0864                                   20991385.7584
                                                                        51.2504
        40.7504
  -1141454.09847   -868120.65244
                  23830822.7584                                   23830819.1524
                                                                        44.7504
        29.0004
    -25858.65247    -19944.37544
                  24387973.7664                                   24387969.8284
                                                                        43.2504
        27.7504
  -1021490.03148   -766075.21945
                  21736316.3674                                   21736311.6844
                                                                        50.0004
        34.7504
   -475260.24248   -356680.82845
                  21955211.4304                                   21955204.6524
                                                                        49.7504
        34.7504
  -1039033.98046   -763505.73844
                  24034689.6484                                   24034686.8014
                                                                        39.7504
        26.5004
   -268466.00847   -197949.35944
                  23048715.0864                                   23048712.2854
                                                                        45.2504
        29.2504
   -316938.94147   -232838.19544
                  24103531.9224                                   24103527.0394
                                                                        42.7504
        27.5004
 09 10 17 23 13 30.0000000  0  9G02G04G10G12G13G23G29G30G31
  -1021123.09848   -773932.17647
                  20684003.0474                                   20683996.4534
                                                                        50.5004
        42.2504
   -371546.81248   -280858.07446
                  20982394.9304                                   20982390.9264
                                                                        51.5004
        40.7504
  -1355527.76647  -1034931.30144
                  23790085.3134                                   23790082.4064
                                                                        43.7504
        27.7504
    -28154.35247    -21733.26644
                  24387536.8674                                   24387533.1954
                                                                        42.5004
        28.0004
  -1175329.58248   -885950.19945
                  21707041.5474                                   21707037.0744
                                                                        49.5004
        35.5004
   -545217.86348   -411193.26645
                  21941898.7894                                   21941891.6454
                                                                        49.5004
        34.7504
  -1233672.08246   -915171.75844
                  23997651.7194                                   23997647.9344
                                                                        40.7504
        26.5004
   -307405.60247   -228291.84044
                  23041305.1804                                   23041302.0044
                                                                        47.0004
        29.2504
   -363172.96947   -268864.71144
                  24094733.5864                                   24094728.6684
                                                                        42.5004
        27.5004
 09 10 17 23 14  0.0000000  0  9G02G04G10G12G13G23G29G30G31
  -1153708.46548   -877245.51647
                  20658772.8134                                   20658766.4844
                                                                        50.7504
        42.5004
   -417917.38348   -316991.03146
                  20973570.8834                                   20973566.6484
                                                                        51.5004
        41.0004
  -1569031.62547  -1201297.91044
                  23749456.9144                                   23749453.6294
                                                                        43.0004
        26.5004
    -29782.66846    -23002.15644
                  24387226.6804                                   24387223.3984
                                                                        41.5004
        26.2504
  -1328186.88748  -1005059.77346
                  21677953.9224                                   21677949.1804
                                                                        49.5004
        36.0004
   -614169.82048   -464922.05945
                  21928777.8204                                   21928770.5634
                                                                        49.7504
        34.2504
  -1427629.73847  -1066307.58644
                  23960742.6804                                   23960738.6644
                                                                        42.0004
        28.7504
   -345388.17647   -257888.66444
                  23034077.2504                                   23034074.3204
                                                                        45.0004
        29.5004
   -408500.33646   -304184.75044
                  24086108.2814                                   24086102.9654
                                                                        40.5004
        27.7504
 09 10 17 23 14 30.0000000  0  9G02G04G10G12G13G23G29G30G31
  -1285379.37948   -979846.25047
                  20633716.8444                                   20633710.8834
                                                                        50.5004
        42.2504
   -463407.36348   -352437.79346
                  20964914.5784                                   20964910.6524
                                                                        50.7504
        40.5004
  -1781976.56247  -1367229.07444
                  23708934.6094                                   23708931.6174
                                                                        43.2504
        27.5004
    -30759.74647    -23763.59444
                  24387040.8754                                   24387037.5474
                                                                        43.0004
        27.0004
  -1480072.87548  -1123412.50845
                  21649051.2424                                   21649046.0124
                                                                        50.5004
        35.5004
   -682130.13748   -517878.15645
                  21915845.2114                                   21915838.0664
                                                                        49.0004
        34.0004
  -1620917.38746  -1216921.32844
                  23923962.0554                                   23923957.3364
                                                                        41.2504
        29.7504
   -382429.00847   -286751.66044
                  23027028.9224                                   23027025.2704
                                                                        45.0004
        29.0004
   -452936.10947   -338810.04744
                  24077651.4694                                   24077647.0594
                                                                        42.2504
        27.0004
 09 10 17 23 15  0.0000000  0  9G02G04G10G12G13G23G29G30G31
  -1416144.52048  -1081741.16047
                  20608833.2114                                   20608826.8444
                                                                        51.5004
        42.5004
   -508028.69148   -387207.66046
                  20956423.2814                                   20956419.5824
                                                                        51.0004
        41.0004
  -1994370.56246  -1532730.89844
                  23668517.6484                                   23668514.2544
                                                                        41.2504
        24.5004
    -31098.69147    -24027.70744
                  24386976.4534                                   24386972.4414
                                                                        44.5004
        26.0004
  -1630996.20748  -1241015.14545
                  21620330.9304                                   21620326.4264
                                                                        50.2504
        35.0004
   -749110.47748   -570070.62145
                  21903099.1254                                   21903092.6414
                                                                        49.0004
        34.7504
  -1813542.96947  -1367019.16844
                  23887305.3594                                   23887301.9414
                                                                        42.5004
        29.2504
   -418541.20747   -314891.09044
                  23020156.4614                                   23020153.5984
                                                                        45.0004
        28.5004
   -496492.63347   -372750.21544
                  24069363.5944                                   24069359.0944
                                                                        42.2504
        27.0004
 09 10 17 23 15 30.0000000  0  9G02G04G10G12G13G23G29G30G31
  -1546013.80548  -1182937.97347
                  20584119.7114                                   20584113.8164
                                                                        51.2504
        42.0004
   -551793.85248   -421310.41046
                  20948094.8914                                   20948091.3594
                                                                        51.5004
        41.0004
  -2206222.76647  -1697810.52044
                  23628203.7274                                   23628199.9144
                                                                        42.5004
        26.7504
    -30813.58247    -23805.49644
                  24387031.4774                                   24387026.6484
                                                                        45.7504
        28.2504
  -1780965.84448  -1357874.57845
                  21591793.1094                                   21591787.9844
                                                                        50.5004
        35.0004
   -815123.16048   -621509.07445
                  21890537.5554                                   21890530.6454
                                                                        49.2504
        33.7504
  -2005514.97346  -1516607.71544
                  23850774.6254                                   23850771.1484
                                                                        40.5004
        27.0004
   -453738.16047   -342317.29744
                  23013458.9144                                   23013455.8444
                                                                        45.2504
        28.5004
   -539182.94146   -406015.40244
                  24061239.7274                                   24061235.1094
                                                                        41.7504
        26.5004
 09 10 17 23 16  0.0000000  0  9G02G04G10G12G13G23G29G30G31
  -1674996.97748  -1283444.34447
                  20559575.2194                                   20559568.9924
                                                                        51.2504
        42.7504
   -594715.37548   -454755.78146
                  20939927.6884                                   20939923.7194
                                                                        51.0004
        41.0004
  -2417541.35946  -1862474.31244
                  23587990.7584                                   23587987.4924
                                                                        41.7504
        27.7504
    -29917.37147    -23107.14544
                  24387201.8674                                   24387197.3794
                                                                        44.2504
        26.2504
  -1929991.00848  -1473998.03145
                  21563434.3204                                   21563429.8164
                                                                        50.5004
        35.2504
   -880179.99648   -672202.71545
                  21878157.6174                                   21878150.9964
                                                                        48.7504
        34.0004
  -2196841.38746  -1665693.20344
                  23814366.2894                                   23814362.6174
                                                                        40.7504
        26.7504
   -488032.58247   -369040.22744
                  23006932.4844                                   23006929.4844
                                                                        44.2504
        27.7504
   -581019.26647   -438615.17244
                  24053278.7194                                   24053273.7154
                                                                        42.0004
        26.0004
 09 10 17 23 16 30.0000000  0  9G02G04G10G12G13G23G29G30G31
  -1803103.40248  -1383267.57047
                  20535197.2584                                   20535191.0984
                                                                        51.2504
        43.0004
   -636804.49648   -487552.50046
                  20931918.0234                                   20931914.5824
                                                                        51.5004
        41.0004
  -2628334.45747  -2026728.63744
                  23547878.6564                                   23547875.2664
                                                                        43.7504
        28.5004
    -28424.85947    -21944.17644
                  24387484.9224                                   24387480.7304
                                                                        42.7504
        25.2504
  -2078079.80948  -1589391.84445
                  21535254.0394                                   21535249.0554
                                                                        49.5004
        35.0004
   -944292.28148   -722160.34845
                  21865957.6644                                   21865950.9264
                                                                        48.0004
        34.2504
  -2387530.63746  -1814282.20344
                  23778079.4694                                   23778075.0004
                                                                        40.7504
        26.2504
   -521437.94547   -395070.45344
                  23000576.1954                                   23000572.8874
                                                                        43.2504
        28.2504
   -622014.69546   -470559.68044
                  24045477.4924                                   24045472.7034
                                                                        41.5004
        24.2504
 09 10 17 23 17  0.0000000  0  9G02G04G10G12G13G23G29G30G31
  -1930342.89848  -1482415.28547
                  20510984.4774                                   20510978.3204
                                                                        50.7504
        42.7504
   -678074.35248   -519710.82046
                  20924064.6564                                   20924060.8754
                                                                        51.0004
        41.0004
  -2838611.16447  -2190580.57044
                  23507863.9534                                   23507860.2664
                                                                        43.0004
        28.5004
    -26349.60947    -20327.19544
                  24387880.1564                                   24387876.1094
                                                                        42.2504
        26.5004
  -2225241.98848  -1704063.61746
                  21507249.6564                                   21507245.1884
                                                                        50.0004
        36.0004
  -1007472.48448   -771391.68045
                  21853934.8524                                   21853927.9184
                                                                        48.0004
        34.0004
  -2577591.12947  -1962381.28144
                  23741912.4384                                   23741907.9694
                                                                        42.0004
        27.2504
   -553967.69147   -420418.36744
                  22994385.7894                                   22994382.0434
                                                                        43.7504
        27.0004
   -662182.31646   -501859.13344
                  24037833.6254                                   24037828.2624
                                                                        41.0004
        24.5004
 09 10 17 23 17 30.0000000  0  9G02G04G10G12G13G23G29G30G31
  -2056720.68448  -1580891.50447
                  20486935.3984                                   20486929.3714
                                                                        51.5004
        42.5004
   -718532.50848   -551236.67646
                  20916365.5314                                   20916362.3914
                                                                        51.7504
        40.7504
  -3048376.02347  -2354033.68044
                  23467947.1564                                   23467943.9144
                                                                        43.0004
        29.2504
    -23700.57846    -18263.06644
                  24388384.5474                                   24388380.7974
                                                                        40.7504
        25.5004
  -2371481.84848  -1818016.69945
                  21479421.4844                                   21479416.5044
                                                                        50.5004
        35.5004
  -1069728.54348   -819902.89845
                  21842087.8054                                   21842080.8244
                                                                        48.5004
        33.5004
  -2767026.76247  -2109993.44544
                  23705864.1094                                   23705860.3984
                                                                        44.0004
        29.2504
   -585631.07847   -445091.18444
                  22988360.7034                                   22988356.8364
                                                                        44.2504
        28.0004
   -701529.89847   -532519.57444
                  24030346.2424                                   24030340.4534
                                                                        42.0004
        24.5004
 09 10 17 23 18  0.0000000  0  9G02G04G10G12G13G23G29G30G31
  -2182253.70748  -1678709.49647
                  20463047.3754                                   20463041.3094
                                                                        51.5004
        42.0004
   -758198.75048   -582145.43446
                  20908817.2584                                   20908813.7624
                                                                        51.0004
        41.2504
  -3257644.41447  -2517099.85244
                  23428124.1414                                   23428121.4694
                                                                        43.0004
        27.7504
    -20498.64146    -15768.14544
                  24388993.2504                                   24388990.4614
                                                                        40.2504
        26.2504
  -2516815.80548  -1931263.91845
                  21451764.8984                                   21451760.3984
                                                                        50.5004
        35.5004
  -1131079.75048   -867709.02745
                  21830413.1094                                   21830406.3754
                                                                        49.0004
        34.0004
  -2955852.66847  -2257130.48045
                  23669931.6804                                   23669927.9024
                                                                        43.2504
        30.2504
   -616447.95347   -469104.37944
                  22982496.5864                                   22982492.9654
                                                                        44.7504
        27.2504
   -740077.77046   -562556.87144
                  24023010.7974                                   24023005.4494
                                                                        41.5004
        24.0004
 09 10 17 23 18 30.0000000  0  8G02G04G10G13G23G29G30G31
   -731530.31648   -548275.71147
                  20739110.8524                                   20739104.5474
                                                                        51.5004
        42.7504
    778332.96148    615151.99246
                  21201209.8754                                   21201205.9774
                                                                        52.0004
        40.5004
  -1891001.13747  -1452182.98844
                  23688188.2974                                   23688185.0744
                                                                        43.2504
        27.7504
  -1085831.05948   -816210.84845
                  21724071.8984                                   21724067.4064
                                                                        50.2504
        35.0004
    383881.34848    312780.12145
                  22118700.5394                                   22118693.5744
                                                                        48.5004
        34.0004
  -1568654.25847  -1176196.62544
                  23933906.3444                                   23933903.1724
                                                                        42.2504
        29.5004
    928986.00447    735129.79744
                  23276583.3284                                   23276579.6334
                                                                        44.0004
        29.0004
    797579.25846    635617.41444
                  24315616.6024                                   24315611.8954
                                                                        40.7504
        24.5004
 09 10 17 23 19  0.0000000  0  8G02G04G10G13G23G29G30G31
   -855406.35548   -644802.50847
                  20715538.2274                                   20715531.7734
                                                                        51.7504
        42.5004
    740210.04748    585445.78546
                  21193955.2274                                   21193951.2974
                                                                        51.7504
        40.5004
  -2099306.83247  -1614499.06244
                  23648549.3984                                   23648545.2344
                                                                        43.7504
        28.2504
  -1229384.15248   -928070.38345
                  21696754.9694                                   21696750.3164
                                                                        50.5004
        35.5004
    324300.34048    266353.35945
                  22107362.3914                                   22107355.5704
                                                                        49.0004
        34.2504
  -1756290.29747  -1322406.47744
                  23898200.0164                                   23898197.3674
                                                                        42.2504
        27.7504
    899817.31647    712400.93044
                  23271032.6484                                   23271029.6174
                                                                        46.2504
        28.2504
    760588.21546    606793.19944
                  24308577.6884                                   24308572.5664
                                                                        41.7504
        25.5004
 09 10 17 23 19 30.0000000  0  8G02G04G10G13G23G29G30G31
   -978462.02048   -740690.06647
                  20692121.2974                                   20692115.2424
                                                                        51.7504
        42.7504
    702846.56348    556331.35546
                  21186845.1024                                   21186841.4614
                                                                        52.2504
        40.2504
  -2307137.38747  -1776444.93044
                  23609000.3284                                   23608996.2424
                                                                        44.5004
        27.5004
  -1372054.48848  -1039242.05545
                  21669605.8674                                   21669601.0634
                                                                        49.7504
        35.2504
    265592.33248    220606.86345
                  22096190.9694                                   22096184.1564
                                                                        49.2504
        34.5004
  -1943337.18447  -1468157.24644
                  23862606.2734                                   23862603.1134
                                                                        43.0004
        27.5004
    871459.57047    690303.96944
                  23265636.2894                                   23265633.1414
                                                                        46.0004
        28.0004
    724362.86746    578565.64844
                  24301684.5084                                   24301679.5944
                                                                        41.2504
        24.0004
 09 10 17 23 20  0.0000000  0  8G02G04G10G13G23G29G30G31
  -1100704.32048   -835943.82447
                  20668859.6484                                   20668853.1454
                                                                        51.7504
        43.0004
    666233.60948    527801.79346
                  21179877.8984                                   21179874.5124
                                                                        51.7504
        40.5004
  -2514498.54347  -1938025.05544
                  23569540.6484                                   23569537.1684
                                                                        45.2504
        28.2504
  -1513847.23448  -1149729.88745
                  21642623.2974                                   21642618.8094
                                                                        50.5004
        35.7504
    207748.77048    175533.94545
                  22085183.5474                                   22085176.9344
                                                                        48.7504
        34.2504
  -2129800.20747  -1613453.09044
                  23827123.4614                                   23827119.8134
                                                                        44.7504
        28.7504
    843901.91847    668830.45345
                  23260392.3524                                   23260388.6214
                                                                        46.2504
        30.0004
    688893.25447    550926.95744
                  24294935.0314                                   24294930.4844
                                                                        42.7504
        27.2504
 09 10 17 23 20 30.0000000  0  8G02G04G10G13G23G29G30G31
  -1222147.90248   -930575.17647
                  20645749.4304                                   20645743.3134
                                                                        52.0004
        43.0004
    630353.07048    499842.94146
                  21173050.0394                                   21173046.7974
                                                                        51.7504
        40.5004
  -2721404.48847  -2099250.44144
                  23530167.2664                                   23530164.1334
                                                                        44.0004
        29.7504
  -1654777.14148  -1259545.39545
                  21615804.9614                                   21615800.7664
                                                                        50.0004
        34.7504
    150751.91848    131120.82045
                  22074337.5784                                   22074330.8204
                                                                        49.2504
        34.0004
  -2315693.55547  -1758305.04744
                  23791749.4454                                   23791744.9694
                                                                        45.2504
        28.5004
    817125.31647    647965.59444
                  23255296.4924                                   23255293.2974
                                                                        45.0004
        27.7504
    654160.88747    523862.77344
                  24288325.7894                                   24288320.9574
                                                                        42.5004
        26.7504
 09 10 17 23 21  0.0000000  0  9G02G04G10G05G13G23G29G30G31
  -1342804.19148  -1024593.06247
                  20622789.7584                                   20622783.1684
                                                                        52.0004
        42.5004
    595191.14548    472444.05146
                  21166359.0554                                   21166354.8244
                                                                        52.2504
        40.7504
  -2927864.98047  -2260128.72744
                  23490879.2664                                   23490876.3554
                                                                        42.7504
        29.0004
   1305999.39856   1030655.87554
                  24394582.1484                                   24394579.9224
                                                                        39.5004
        28.2504
  -1794855.32448  -1368697.21145
                  21589149.3834                                   21589144.9344
                                                                        50.7504
        35.0004
     94587.83248     87356.59445
                  22063649.8444                                   22063643.3324
                                                                        48.7504
        35.2504
  -2501026.22347  -1902720.15244
                  23756482.1174                                   23756477.0664
                                                                        45.5004
        28.0004
    791115.73847    627698.41044
                  23250347.7664                                   23250344.3484
                                                                        45.2504
        28.7504
    620151.69147    497362.09844
                  24281854.0084                                   24281849.0474
                                                                        43.5004
        26.5004
 09 10 17 23 21 30.0000000  0  9G02G04G10G05G13G23G29G30G31
  -1462686.09048  -1118007.52747
                  20599976.4844                                   20599970.7464
                                                                        51.5004
        43.0004
    560732.23848    445592.93046
                  21159801.6254                                   21159798.2584
                                                                        51.7504
        40.5004
  -3133891.84847  -2420669.06244
                  23451673.7344                                   23451669.9844
                                                                        44.5004
        28.7504
   1098058.81346    868624.27744
                  24355012.7114                                   24355010.0274
                                                                        40.0004
        28.7504
  -1934093.74648  -1477194.65645
                  21562653.4144                                   21562648.9494
                                                                        50.7504
        35.7504
     39241.56348     44229.62945
                  22053117.9384                                   22053111.1054
                                                                        49.7504
        34.7504
  -2685810.02347  -2046707.53144
                  23721318.2894                                   23721314.4734
                                                                        44.2504
        27.7504
    765856.03947    608015.55944
                  23245540.5084                                   23245537.8164
                                                                        44.0004
        28.2504
    586849.85247    471412.60944
                  24275517.1724                                   24275512.4264
                                                                        43.0004
        28.7504
 09 10 17 23 22  0.0000000  0  9G02G04G10G05G13G23G29G30G31
  -1581809.93048  -1210831.28147
                  20577308.1804                                   20577302.2934
                                                                        51.7504
        43.0004
    526957.82848    419275.16846
                  21153374.3444                                   21153370.7504
                                                                        52.7504
        40.0004
  -3339500.41847  -2580883.48844
                  23412547.7894                                   23412543.7544
                                                                        44.2504
        29.2504
    890448.28946    706849.87944
                  24315506.5554                                   24315502.5704
                                                                        40.7504
        27.7504
  -2072507.91848  -1585049.82846
                  21536314.1644                                   21536309.3594
                                                                        51.0004
        36.0004
    -15305.63748      1725.30945
                  22042737.6334                                   22042731.6604
                                                                        48.7504
        34.0004
  -2870059.93047  -2190278.88344
                  23686256.8754                                   23686253.3594
                                                                        44.0004
        28.7504
    741326.19147    588901.40644
                  23240871.2344                                   23240869.4384
                                                                        44.0004
        27.2504
    554235.66847    445998.96544
                  24269310.5314                                   24269305.7854
                                                                        42.7504
        27.5004
 09 10 17 23 22 30.0000000  0  9G02G04G10G05G13G23G29G30G31
  -1700184.78548  -1303071.41447
                  20554782.1334                                   20554776.0944
                                                                        52.2504
        42.5004
    493856.19548    393481.71146
                  21147075.6484                                   21147071.9694
                                                                        52.0004
        40.0004
  -3544698.29347  -2740777.91844
                  23373500.3054                                   23373496.2034
                                                                        44.0004
        29.5004
    683159.65647    545326.26244
                  24276060.9144                                   24276056.9804
                                                                        43.0004
        28.0004
  -2210106.83648  -1692269.76245
                  21510129.8674                                   21510125.2544
                                                                        51.0004
        35.5004
    -69065.14148    -40165.22745
                  22032507.6564                                   22032500.9224
                                                                        48.7504
        33.5004
  -3053783.47347  -2333440.07044
                  23651295.2194                                   23651292.1094
                                                                        44.5004
        29.7504
    717513.39547    570345.94944
                  23236340.5084                                   23236337.6374
                                                                        43.5004
        27.5004
    522296.59446    421111.36344
                  24263232.9064                                   24263227.9104
                                                                        40.2504
        26.0004
 09 10 17 23 23  0.0000000  0  9G02G04G10G05G13G23G29G30G31
  -1817814.92248  -1394731.25047
                  20532397.6724                                   20532391.8324
                                                                        51.7504
        42.7504
    461419.89148    368206.68446
                  21140903.1564                                   21140899.2194
                                                                        52.0004
        40.7504
  -3749489.05947  -2900355.12545
                  23334529.9144                                   23334525.6644
                                                                        42.7504
        30.0004
    476189.43847    384050.75844
                  24236675.4774                                   24236671.5514
                                                                        45.2504
        28.0004
  -2346894.37148  -1798857.43045
                  21484099.6254                                   21484095.2464
                                                                        51.2504
        35.7504
   -122044.64848    -81447.96545
                  22022425.8134                                   22022419.4884
                                                                        48.5004
        33.2504
  -3236983.19547  -2476193.06645
                  23616433.4614                                   23616430.4064
                                                                        45.0004
        30.2504
    694409.96547    552343.24644
                  23231944.2504                                   23231940.9774
                                                                        44.2504
        26.0004
    491025.40646    396744.18044
                  24257281.4694                                   24257277.4144
                                                                        37.7504
        25.5004
 09 10 17 23 23 30.0000000  0  9G02G04G10G05G13G23G29G30G31
  -1934698.90248  -1485809.66847
                  20510155.3284                                   20510149.2304
                                                                        52.0004
        43.2504
    429648.01248    343449.37146
                  21134857.3054                                   21134853.1884
                                                                        52.5004
        40.2504
  -3953869.90646  -3059612.97744
                  23295636.6254                                   23295633.3714
                                                                        41.2504
        28.0004
    269539.99547    223025.17744
                  24197351.2274                                   24197347.3634
                                                                        43.0004
        27.2504
  -2482868.64148  -1904811.40246
                  21458224.5944                                   21458220.1374
                                                                        50.5004
        36.0004
   -174244.35548   -122123.05945
                  22012492.3834                                   22012485.7774
                                                                        48.5004
        33.5004
  -3419656.42247  -2618535.86745
                  23581672.0084                                   23581668.6644
                                                                        44.0004
        31.0004
    672013.23047    534891.35244
                  23227682.7424                                   23227679.0634
                                                                        44.7504
        26.2504
    460420.40646    372896.06344
                  24251456.6334                                   24251453.5234
                                                                        39.5004
        24.0004
 09 10 17 23 24  0.0000000  0  9G02G04G10G05G13G23G29G30G31
  -2050839.22348  -1576308.59447
                  20488054.4304                                   20488048.4924
                                                                        52.5004
        43.0004
    398535.37948    319205.74246
                  21128936.7344                                   21128933.3554
                                                                        52.0004
        40.0004
  -4157841.80546  -3218552.05944
                  23256821.9694                                   23256819.3634
                                                                        41.0004
        29.5004
     63209.68047     62248.27044
                  24158088.3054                                   24158084.6174
                                                                        42.5004
        28.0004
  -2618031.01248  -2010132.71546
                  21432504.5634                                   21432499.6254
                                                                        51.0004
        36.0004
   -225669.49648   -162194.59045
                  22002706.5864                                   22002699.8594
                                                                        49.5004
        33.0004
  -3601804.18047  -2760469.18745
                  23547010.7734                                   23547006.6484
                                                                        44.5004
        30.5004
    650316.85247    517985.10544
                  23223554.1644                                   23223550.1994
                                                                        45.0004
        26.5004
    430475.73046    349562.52343
                  24245759.6884                                   24245754.8634
                                                                        40.2504
        22.7504
 09 10 17 23 24 30.0000000  0  9G02G04G10G05G13G23G29G30G31
  -2166243.97748  -1666234.35547
                  20466094.0314                                   20466087.5204
                                                                        52.2504
        42.7504
    368071.34848    295467.53546
                  21123139.5864                                   21123135.6024
                                                                        52.0004
        40.5004
  -4361411.69947  -3377177.88745
                  23218084.1024                                   23218080.6294
                                                                        43.0004
        30.7504
   -142808.37147    -98285.24644
                  24118883.7344                                   24118880.5084
                                                                        42.0004
        27.7504
  -2752389.04748  -2114827.26646
                  21406936.6724                                   21406932.2814
                                                                        51.0004
        36.2504
   -276330.57448   -201670.76645
                  21993066.0784                                   21993059.6294
                                                                        48.5004
        33.5004
  -3783432.89147  -2901998.08644
                  23512448.0944                                   23512443.4304
                                                                        44.5004
        29.2504
    629309.31347    501615.58644
                  23219556.1644                                   23219552.8364
                                                                        44.2504
        26.7504
    401180.53146    326735.09443
                  24240184.9304                                   24240180.0474
                                                                        41.2504
        23.7504
 09 10 17 23 25  0.0000000  0  9G02G04G10G05G13G23G29G30G31
  -2280918.07448  -1755590.76647
                  20444272.2974                                   20444265.9224
                                                                        52.5004
        42.5004
    338248.89148    272229.25446
                  21117464.6564                                   21117460.6454
                                                                        51.7504
        40.0004
  -4564582.94947  -3535493.11745
                  23179422.0314                                   23179418.8404
                                                                        44.2504
        31.5004
   -348518.06246   -258578.44144
                  24079739.1024                                   24079735.5554
                                                                        41.2504
        28.7504
  -2885946.98048  -2218898.37945
                  21381521.6094                                   21381516.9224
                                                                        50.7504
        35.7504
   -326234.59848   -240557.04745
                  21983569.4534                                   21983563.2194
                                                                        49.2504
        33.0004
  -3964546.22747  -3043125.37944
                  23477982.8444                                   23477979.1684
                                                                        44.2504
        29.2504
    608981.50847    485775.77344
                  23215687.8834                                   23215684.8364
                                                                        44.2504
        26.2504
    372526.08647    304406.96143
                  24234732.5474                                   24234727.3794
                                                                        42.5004
        22.5004
 09 10 17 23 25 30.0000000  0  9G02G04G10G05G13G23G29G30G31
  -2394869.11348  -1844383.76647
                  20422587.9304                                   20422582.0394
                                                                        52.0004
        42.7504
    309057.37548    249482.64146
                  21111909.5084                                   21111905.6484
                                                                        51.7504
        40.2504
  -4767362.57447  -3693503.23844
                  23140834.2974                                   23140830.7814
                                                                        44.0004
        29.7504
   -553926.00046   -418636.53545
                  24040650.6884                                   24040647.7194
                                                                        41.0004
        30.5004
  -3018712.55948  -2322352.07046
                  21356257.0394                                   21356252.3484
                                                                        51.0004
        36.0004
   -375392.14148   -278861.62545
                  21974215.1484                                   21974208.7194
                                                                        49.2504
        33.5004
  -4145149.17247  -3183854.94944
                  23443615.4064                                   23443611.6994
                                                                        43.5004
        28.5004
    589323.19947    470457.71144
                  23211947.0314                                   23211943.6054
                                                                        44.0004
        26.2504
    344502.80947    282570.64844
                  24229399.7344                                   24229394.3484
                                                                        42.0004
        24.7504
 09 10 17 23 26  0.0000000  0  9G02G04G10G05G13G23G29G30G31
  -2508102.60548  -1932617.64847
                  20401040.3594                                   20401034.2814
                                                                        52.0004
        43.0004
    280489.16448    227221.68846
                  21106473.4064                                   21106469.7034
                                                                        51.7504
        40.0004
  -4969754.47347  -3851211.21944
                  23102320.5474                                   23102316.5594
                                                                        45.7504
        29.0004
   -759036.71947   -578463.03145
                  24001620.0394                                   24001616.4574
                                                                        43.5004
        31.2504
  -3150690.10248  -2425191.71945
                  21331142.5554                                   21331137.7854
                                                                        51.5004
        35.7504
   -423810.97748   -316590.60945
                  21965001.9144                                   21964995.4344
                                                                        49.2504
        33.2504
  -4325246.90247  -3324190.84445
                  23409344.0554                                   23409340.3524
                                                                        44.2504
        30.2504
    570324.02347    455653.19144
                  23208331.5164                                   23208328.3554
                                                                        44.5004
        27.2504
    317100.84847    261218.47744
                  24224185.3834                                   24224180.0514
                                                                        42.0004
        24.5004
 09 10 17 23 26 30.0000000  0  9G02G04G10G05G13G23G29G30G31
  -2620620.57448  -2020293.98847
                  20379628.7344                                   20379622.7194
                                                                        52.2504
        43.0004
    252539.16048    205442.45746
                  21101154.6724                                   21101150.8484
                                                                        51.5004
        40.5004
  -5171759.16047  -4008617.41844
                  23063880.2274                                   23063876.4774
                                                                        44.7504
        28.2504
   -963850.95747   -738058.50844
                  23962644.6334                                   23962641.0744
                                                                        42.7504
        29.5004
  -3281881.56248  -2527418.82446
                  21306177.5474                                   21306173.2704
                                                                        51.0004
        36.5004
   -471495.68048   -353747.52745
                  21955927.2504                                   21955920.8204
                                                                        49.5004
        33.5004
  -4504839.22347  -3464132.88744
                  23375168.4454                                   23375165.2154
                                                                        43.7504
        29.5004
    551979.47747    441358.78544
                  23204840.5164                                   23204837.2154
                                                                        45.0004
        28.5004
    290315.94547    240347.12944
                  24219088.6564                                   24219082.8834
                                                                        42.0004
        24.7504
 09 10 17 23 27  0.0000000  0  9G02G04G10G05G13G23G29G30G31
  -1157007.89548   -879816.55947
                  20658144.9144                                   20658138.9224
                                                                        52.5004
        43.0004
   1800617.16448   1411737.00446
                  21395744.0314                                   21395740.0704
                                                                        51.7504
        40.2504
  -3797957.60247  -2938122.66445
                  23325305.9384                                   23325302.1024
                                                                        46.0004
        30.0004
    407050.17646    330176.14544
                  24223518.2424                                   24223514.4024
                                                                        40.7504
        26.2504
  -1836870.90248  -1401436.49646
                  21581154.2274                                   21581149.2814
                                                                        51.2504
        36.5004
   1056964.17648    837260.14845
                  22246783.7194                                   22246777.3244
                                                                        48.7504
        33.5004
  -3108507.19947  -2376081.94544
                  23640881.8914                                   23640878.4454
                                                                        43.7504
        29.5004
   2109697.16447   1655164.71144
                  23501264.7504                                   23501261.6844
                                                                        44.0004
        28.5004
   1839556.74647   1447547.75844
                  24513899.1174                                   24513893.5594
                                                                        42.2504
        24.0004
 09 10 17 23 27 30.0000000  0  9G02G04G10G05G13G23G29G30G31
  -1268111.52348   -966390.82047
                  20637002.9844                                   20636996.6294
                                                                        52.0004
        43.0004
   1773879.83248   1390902.70746
                  21390656.0314                                   21390652.2624
                                                                        51.5004
        39.5004
  -3999201.07047  -3094935.78145
                  23287010.5314                                   23287007.4144
                                                                        46.2504
        31.0004
    202814.91046    171031.77744
                  24184653.5084                                   24184649.7074
                                                                        40.2504
        26.0004
  -1966505.00448  -1502450.07445
                  21556485.2974                                   21556480.7734
                                                                        50.7504
        35.7504
   1010723.93448    801228.79745
                  22237984.7194                                   22237978.1564
                                                                        49.2504
        34.0004
  -3287100.64547  -2515245.66445
                  23606896.7894                                   23606892.9774
                                                                        44.0004
        30.2504
   2092632.70347   1641867.66844
                  23498017.2034                                   23498014.0394
                                                                        43.0004
        27.2504
   1813978.78947   1427616.89544
                  24509031.8674                                   24509026.7344
                                                                        42.5004
        24.5004
 09 10 17 23 28  0.0000000  0  9G02G04G10G05G13G23G29G30G31
  -1378512.20348  -1052417.34447
                  20615994.3444                                   20615987.9574
                                                                        52.5004
        43.2504
   1747740.38348   1370534.28946
                  21385682.0784                                   21385677.9844
                                                                        51.2504
        39.5004
  -4200066.16447  -3251454.00445
                  23248787.2814                                   23248784.0124
                                                                        45.0004
        31.2504
     -1133.24646     12111.18444
                  24145844.1884                                   24145840.1564
                                                                        41.5004
        29.2504
  -2095364.42648  -1602860.01245
                  21531964.4844                                   21531959.6604
                                                                        51.0004
        35.5004
    965197.85248    765753.91445
                  22229321.5314                                   22229314.3674
                                                                        49.5004
        33.2504
  -3465196.47347  -2654021.62945
                  23573006.1724                                   23573002.5904
                                                                        43.5004
        30.2504
   2076198.99247   1629062.10944
                  23494890.2664                                   23494887.1604
                                                                        43.0004
        26.5004
   1788995.59847   1408149.48844
                  24504277.5864                                   24504272.7234
                                                                        42.0004
        25.5004
 09 10 17 23 28 30.0000000  0  9G02G04G10G05G13G23G29G30G31
  -1488212.24648  -1137897.90247
                  20595119.2344                                   20595112.8954
                                                                        52.2504
        43.0004
   1722194.10248   1350628.07446
                  21380820.6414                                   21380817.0044
                                                                        51.5004
        39.7504
  -4400553.66847  -3407678.03945
                  23210635.7894                                   23210632.4574
                                                                        45.5004
        30.5004
   -204795.87547   -146586.95345
                  24107088.0784                                   24107085.1174
                                                                        42.2504
        30.2504
  -2223451.06648  -1702667.77746
                  21507590.5004                                   21507585.4454
                                                                        51.0004
        36.7504
    920380.83248    730831.55545
                  22220792.6094                                   22220786.0204
                                                                        49.5004
        32.7504
  -3642795.47747  -2792410.46145
                  23539210.4614                                   23539206.9614
                                                                        43.5004
        30.5004
   2060389.48047   1616743.02744
                  23491881.5234                                   23491879.1414
                                                                        43.0004
        26.5004
   1764601.45746   1389141.06344
                  24499635.3054                                   24499630.7114
                                                                        39.0004
        26.5004
 09 10 17 23 29  0.0000000  0  9G02G04G10G05G13G23G29G30G31
  -1597216.56648  -1222836.34047
                  20574376.2034                                   20574370.1564
                                                                        52.5004
        42.5004
   1697233.72748   1331178.45346
                  21376070.7974                                   21376067.0204
                                                                        51.0004
        40.5004
  -4600667.17247  -3563610.62945
                  23172554.9694                                   23172552.0944
                                                                        44.7504
        31.5004
   -408176.74247   -305065.43745
                  24068385.7584                                   24068382.6604
                                                                        43.2504
        30.0004
  -2350768.44148  -1801876.11346
                  21483362.4614                                   21483357.6564
                                                                        51.2504
        36.2504
    876265.97348    696456.34445
                  22212398.1024                                   22212391.4264
                                                                        49.0004
        33.2504
  -3819901.10247  -2930414.83645
                  23505508.1564                                   23505504.5744
                                                                        43.2504
        30.7504
   2045195.60947   1604903.58644
                  23488990.2194                                   23488987.2664
                                                                        42.5004
        27.0004
   1740788.61346   1370585.57443
                  24495103.6254                                   24495099.9694
                                                                        38.2504
        23.5004
 09 10 17 23 29 30.0000000  0  9G02G04G10G05G13G23G29G30G31
  -1705530.93048  -1307237.16047
                  20553764.6414                                   20553758.6254
                                                                        52.0004
        42.5004
   1672851.09448   1312179.00446
                  21371430.8754                                   21371427.1724
                                                                        50.7504
        40.2504
  -4800411.44547  -3719255.57445
                  23134545.5084                                   23134542.0234
                                                                        45.0004
        31.2504
   -611280.45747   -463328.05145
                  24029736.8754                                   24029733.2154
                                                                        44.5004
        31.0004
  -2477322.44548  -1900489.62146
                  21459280.1954                                   21459275.6054
                                                                        50.7504
        36.2504
    832844.47348    662621.39845
                  22204135.4774                                   22204129.4224
                                                                        49.0004
        32.0004
  -3996517.55947  -3068038.04345
                  23471899.1564                                   23471895.8874
                                                                        43.5004
        30.7504
   2030608.02747   1593536.62944
                  23486214.3984                                   23486211.0124
                                                                        43.5004
        25.5004
   1717547.76246   1352475.80544
                  24490681.2734                                   24490677.3204
                                                                        37.5004
        25.0004
 09 10 17 23 30  0.0000000  0  9G02G04G10G05G13G23G29G30G31
  -1813157.60548  -1391102.10947
                  20533284.0704                                   20533277.9494
                                                                        52.0004
        42.5004
   1649041.18848   1293625.81646
                  21366899.9614                                   21366896.3674
                                                                        51.2504
        39.5004
  -4999786.48847  -3874612.68745
                  23096605.6174                                   23096602.2074
                                                                        44.2504
        31.0004
   -814107.77047   -621375.23844
                  23991139.9844                                   23991136.3404
                                                                        45.0004
        29.5004
  -2603114.82848  -1998509.65246
                  21435342.6414                                   21435338.1024
                                                                        50.7504
        36.0004
    790112.01248    629323.37945
                  22196003.7424                                   22195997.1214
                                                                        48.7504
        33.0004
  -4172644.70747  -3205279.94145
                  23438383.1724                                   23438379.6724
                                                                        43.2504
        31.0004
   2016621.05947   1582637.75444
                  23483552.9304                                   23483549.4024
                                                                        43.7504
        25.2504
   1694874.02746   1334807.92244
                  24486366.6414                                   24486362.6414
                                                                        40.7504
        26.7504
 09 10 17 23 30 30.0000000  0  9G02G04G10G05G13G23G29G30G31
  -1920096.00048  -1474430.71147
                  20512934.3524                                   20512928.1134
                                                                        52.0004
        43.0004
   1625802.06348   1275517.43446
                  21362477.8674                                   21362474.2114
                                                                        51.5004
        40.0004
  -5198790.89847  -4029681.06244
                  23058735.8204                                   23058732.4804
                                                                        43.7504
        29.2504
  -1016657.09047   -779205.87544
                  23952595.6884                                   23952591.7584
                                                                        44.2504
        29.0004
  -2728145.00848  -2095935.74246
                  21411550.3914                                   21411545.5044
                                                                        51.0004
        36.5004
    748066.37548    596560.53145
                  22188002.4144                                   22187996.3554
                                                                        49.2504
        32.7504
  -4348280.31247  -3342138.86744
                  23404960.8284                                   23404956.8754
                                                                        44.0004
        29.7504
   2003231.57047   1572204.41444
                  23481005.3594                                   23481002.0164
                                                                        42.7504
        26.5004
   1672764.55947   1317579.75444
                  24482159.3754                                   24482155.0514
                                                                        42.0004
        26.5004
 09 10 17 23 31  0.0000000  0  9G02G04G10G05G13G23G29G30G31
  -2026355.46948  -1557230.30547
                  20492713.8914                                   20492707.9414
                                                                        52.0004
        42.7504
   1603122.13748   1257844.78946
                  21358161.7974                                   21358157.9264
                                                                        50.5004
        39.2504
  -5397432.30947  -4184466.55945
                  23020935.9924                                   23020931.7234
                                                                        43.7504
        31.0004
  -1218936.71147   -936826.33644
                  23914102.3984                                   23914098.8364
                                                                        43.5004
        27.0004
  -2852420.99248  -2192774.18046
                  21387901.2194                                   21387896.8204
                                                                        50.7504
        36.7504
    706696.48448    564324.25845
                  22180130.1414                                   22180123.4104
                                                                        49.2504
        32.2504
  -4523432.78547  -3478621.32844
                  23371630.3204                                   23371626.2344
                                                                        43.5004
        29.2504
   1990426.07047   1562226.17244
                  23478568.4694                                   23478564.7074
                                                                        43.2504
        26.7504
   1651207.03546   1300781.68844
                  24478057.5864                                   24478052.5944
                                                                        40.0004
        27.2504
 09 10 17 23 31 30.0000000  0  9G02G04G10G05G13G23G29G30G31
  -2131941.23848  -1639504.89547
                  20472621.2344                                   20472615.1844
                                                                        52.2504
        42.5004
   1580993.14848   1240601.42646
                  21353950.7114                                   21353946.9344
                                                                        51.5004
        39.7504
  -5595714.89147  -4338972.44545
                  22983204.0554                                   22983200.8364
                                                                        44.7504
        31.0004
  -1420950.66447  -1094239.77344
                  23875660.7814                                   23875657.8674
                                                                        44.5004
        29.2504
  -2975948.20348  -2289029.15246
                  21364395.0164                                   21364390.4304
                                                                        51.2504
        37.0004
    665993.46148    532607.61745
                  22172384.7034                                   22172378.0474
                                                                        48.5004
        33.5004
  -4698105.47347  -3614729.91044
                  23338391.0234                                   23338387.2074
                                                                        43.5004
        29.7504
   1978195.81347   1552696.10244
                  23476241.1414                                   23476237.7384
                                                                        42.5004
        26.0004
   1630192.77347   1284406.94544
                  24474058.4774                                   24474053.9884
                                                                        42.0004
        25.0004
 09 10 17 23 32  0.0000000  0  9G02G04G10G05G13G23G29G30G31
  -2236851.14848  -1721252.85947
                  20452657.7584                                   20452651.5274
                                                                        51.7504
        43.0004
   1559415.41048   1223787.61746
                  21349844.6254                                   21349841.1174
                                                                        51.5004
        39.5004
  -5793634.83247  -4493195.73845
                  22945541.7504                                   22945537.5594
                                                                        44.5004
        32.0004
  -1622695.35947  -1251443.38745
                  23837270.7814                                   23837267.0664
                                                                        44.5004
        30.0004
  -3098723.85548  -2384698.50046
                  21341031.1094                                   21341026.7074
                                                                        50.5004
        36.5004
    625957.55148    501410.80145
                  22164766.1954                                   22164759.4574
                                                                        48.5004
        33.2504
  -4872294.09047  -3750461.31645
                  23305243.7194                                   23305241.0354
                                                                        43.0004
        31.5004
   1966540.01647   1543613.68844
                  23474022.4304                                   23474019.4654
                                                                        43.0004
        26.2504
   1609721.42247   1268455.23844
                  24470162.6024                                   24470158.1414
                                                                        42.2504
        24.5004
 09 10 17 23 32 30.0000000  0  9G02G04G10G05G13G23G29G30G31
  -2341087.77348  -1802476.20747
                  20432822.3364                                   20432815.8484
                                                                        51.7504
        42.7504
   1538383.50048   1207399.10946
                  21345842.4304                                   21345838.5634
                                                                        51.7504
        39.7504
  -5991193.09847  -4647137.21545
                  22907946.8674                                   22907943.4184
                                                                        44.5004
        31.7504
  -1824172.23847  -1408438.33645
                  23798930.8834                                   23798927.4694
                                                                        45.7504
        31.5004
  -3220750.16848  -2479783.94546
                  21317810.2814                                   21317805.7274
                                                                        51.0004
        36.0004
    586583.84448    470729.99245
                  22157273.4924                                   22157266.7814
                                                                        48.5004
        31.7504
  -5045999.81247  -3885816.41445
                  23272189.1254                                   23272186.1954
                                                                        44.0004
        32.5004
   1955451.79346   1534973.55544
                  23471913.0164                                   23471909.0904
                                                                        41.0004
        24.0004
   1589787.01247   1252921.93843
                  24466369.5234                                   24466364.4384
                                                                        42.2504
        22.5004
 09 10 17 23 33  0.0000000  0  9G02G04G10G05G13G23G29G30G31
  -2444654.00048  -1883177.20747
                  20413114.2664                                   20413108.0314
                                                                        52.5004
        43.0004
   1517891.99248   1191431.68846
                  21341943.1804                                   21341939.6134
                                                                        50.5004
        39.5004
  -6188391.05947  -4800797.98045
                  22870421.2584                                   22870417.9884
                                                                        44.2504
        32.0004
  -2025382.76647  -1565225.75445
                  23760641.9924                                   23760638.0744
                                                                        45.0004
        31.5004
  -3342030.12948  -2574287.80946
                  21294731.6724                                   21294727.0864
                                                                        51.0004
        36.0004
    547866.63348    440560.74645
                  22149906.0084                                   22149899.0594
                                                                        49.0004
        33.0004
  -5219223.28547  -4020795.72745
                  23239225.8984                                   23239222.5354
                                                                        43.5004
        31.7504
   1944924.81646   1526770.66044
                  23469909.1414                                   23469906.1644
                                                                        41.7504
        26.2504
   1570383.55946   1237802.39143
                  24462677.2114                                   24462671.4384
                                                                        41.7504
        22.0004
 09 10 17 23 33 30.0000000  0  9G02G04G10G05G13G23G29G30G31
  -2547554.68748  -1963359.56647
                  20393533.1334                                   20393526.7154
                                                                        52.5004
        43.0004
   1497934.11748   1175880.09846
                  21338145.3674                                   21338141.8134
                                                                        51.2504
        39.5004
  -6385231.76247  -4954180.28945
                  22832963.7504                                   22832960.2704
                                                                        44.5004
        31.5004
  -2226330.67647  -1721808.57445
                  23722402.5314                                   23722399.1214
                                                                        44.0004
        30.5004
  -3462567.46948  -2668213.00046
                  21271793.8524                                   21271789.2544
                                                                        50.5004
        36.0004
    509799.04748    410897.70745
                  22142661.9384                                   22142654.8674
                                                                        49.7504
        32.0004
  -5391967.99247  -4155401.98845
                  23206353.6094                                   23206350.0984
                                                                        44.0004
        31.2504
   1934950.69546   1518998.56344
                  23468012.0234                                   23468007.9734
                                                                        41.7504
        25.2504
   1551503.46946   1223090.66443
                  24459083.9384                                   24459078.1764
                                                                        41.0004
        21.2504
 09 10 17 23 34  0.0000000  0  9G02G04G10G05G13G23G29G30G31
  -2649787.82048  -2043021.75847
                  20374078.5164                                   20374072.4104
                                                                        52.2504
        43.5004
   1478509.12548   1160743.72746
                  21334449.1094                                   21334445.1764
                                                                        50.7504
        39.5004
  -6581711.71947  -5107281.50045
                  22795574.9224                                   22795571.3714
                                                                        46.0004
        32.0004
  -2427012.19947  -1878183.75445
                  23684213.8834                                   23684210.6644
                                                                        43.5004
        30.0004
  -3582359.78548  -2761557.64846
                  21248998.5084                                   21248993.8794
                                                                        50.5004
        36.2504
    472379.98048    381740.00445
                  22135541.4614                                   22135534.4344
                                                                        48.7504
        32.0004
  -5564229.89847  -4289632.08645
                  23173573.7114                                   23173569.3444
                                                                        43.2504
        31.0004
   1925527.84447   1511656.07444
                  23466218.3134                                   23466215.7274
                                                                        42.0004
        26.0004
   1533145.19946   1208785.54343
                  24455590.5864                                   24455585.8164
                                                                        39.7504
        21.5004
 09 10 17 23 34 30.0000000  0  9G02G04G10G05G13G23G29G30G31
  -2751360.01648  -2122168.92247
                  20354750.2504                                   20354744.1564
                                                                        52.7504
        43.0004
   1459607.72748   1146015.37146
                  21330852.1804                                   21330848.4844
                                                                        50.5004
        39.0004
  -6777836.39547  -5260105.82445
                  22758253.8594                                   22758249.9304
                                                                        45.5004
        31.0004
  -2627433.34047  -2034356.06245
                  23646075.2114                                   23646071.9024
                                                                        42.5004
        30.5004
  -3701413.70348  -2854326.91846
                  21226343.2424                                   21226338.5354
                                                                        50.5004
        36.5004
    435600.67648    353080.80145
                  22128542.6804                                   22128535.3244
                                                                        48.5004
        32.5004
  -5736014.32047  -4423490.07845
                  23140883.7504                                   23140879.8134
                                                                        44.2504
        30.7504
   1916645.50047   1504734.72344
                  23464528.5164                                   23464525.1764
                                                                        43.0004
        26.5004
   1515299.19146   1194879.52043
                  24452194.8134                                   24452190.4024
                                                                        39.7504
        22.2504
 09 10 17 23 35  0.0000000  0  9G02G04G10G05G13G23G29G30G31
  -2852270.70748  -2200800.60547
                  20335547.3914                                   20335541.5744
                                                                        52.2504
        43.2504
   1441228.33648   1131693.76246
                  21327354.6884                                   21327350.9694
                                                                        50.7504
        39.2504
  -6973603.92247  -5412651.87545
                  22721000.2814                                   22720996.2384
                                                                        45.2504
        31.5004
  -2827591.78547  -2190323.63745
                  23607985.8834                                   23607982.3284
                                                                        44.5004
        31.2504
  -3819728.29748  -2946520.11746
                  21203828.6024                                   21203824.2154
                                                                        50.5004
        36.5004
    399459.05148    324918.50445
                  22121664.9384                                   22121658.2584
                                                                        48.7504
        33.0004
  -5907318.51247  -4556973.85245
                  23108285.5314                                   23108281.3834
                                                                        44.5004
        30.2504
   1908300.72347   1498232.26644
                  23462939.6644                                   23462937.6684
                                                                        42.5004
        28.0004
   1497962.77346   1181370.61343
                  24448895.6954                                   24448891.2704
                                                                        40.7504
        23.0004
 09 10 17 23 35 30.0000000  0  9G02G04G10G05G13G23G29G30G31
  -2952523.26648  -2278919.45747
                  20316470.0164                                   20316463.8404
                                                                        52.0004
        42.7504
   1423365.08248   1117774.34046
                  21323955.3524                                   21323951.9414
                                                                        50.5004
        39.7504
  -7169015.71147  -5564920.78145
                  22683814.6174                                   22683810.5004
                                                                        45.5004
        31.5004
  -3027489.47747  -2346088.05945
                  23569946.7974                                   23569942.9924
                                                                        44.5004
        30.2504
  -3937306.12148  -3038139.21546
                  21181454.4304                                   21181449.8284
                                                                        50.5004
        36.2504
    363949.36348    297248.60545
                  22114907.7504                                   22114901.3134
                                                                        48.5004
        33.0004
  -6078143.91447  -4690084.55145
                  23075778.5234                                   23075775.1914
                                                                        44.5004
        31.0004
   1900486.98446   1492143.62544
                  23461453.1724                                   23461450.4414
                                                                        41.2504
        27.0004
   1481129.92246   1168254.09844
                  24445692.8134                                   24445688.4144
                                                                        41.5004
        25.2504
 09 10 17 23 36  0.0000000  0  9G02G04G10G05G13G23G29G30G31
  -1476694.30948  -1128922.85947
                  20597310.7664                                   20597304.6604
                                                                        52.0004
        42.2504
   2981436.07848   2331855.64146
                  21620446.2274                                   21620442.9184
                                                                        50.5004
        39.5004
  -5788643.84847  -4489306.47745
                  22946491.0084                                   22946486.9304
                                                                        45.2504
        31.7504
  -1651698.69947  -1274043.32045
                  23831751.5704                                   23831747.5634
                                                                        44.2504
        31.2504
  -2478723.54748  -1901581.36346
                  21459013.5554                                   21459008.6804
                                                                        50.7504
        36.0004
   1904490.12548   1497669.98845
                  22408062.5784                                   22408055.9534
                                                                        48.5004
        32.0004
  -4673063.19147  -3595216.44545
                  23343156.4694                                   23343152.7974
                                                                        45.5004
        32.0004
   3468620.97747   2714066.19544
                  23759858.7584                                   23759856.0664
                                                                        42.0004
        26.7504
   3040218.06647   2383127.95344
                  24742377.0554                                   24742372.7704
                                                                        42.0004
        26.7504
 09 10 17 23 36 30.0000000  0 10G02G04G10G05G13G23G29G30G31G25
  -1575634.82448  -1206019.33647
                  20578483.2344                                   20578477.0744
                                                                        52.5004
        42.5004
   2964593.35548   2318731.43446
                  21617241.2114                                   21617237.5354
                                                                        50.0004
        39.5004
  -5983344.10947  -4641021.08245
                  22909440.7814                                   22909437.1684
                                                                        45.5004
        33.0004
  -1851075.69147  -1429402.00445
                  23793810.1414                                   23793807.6764
                                                                        43.0004
        30.0004
  -2594832.02748  -1992055.52046
                  21436918.8594                                   21436914.3524
                                                                        51.0004
        36.0004
   1870232.33647   1470975.59845
                  22401543.6804                                   22401536.8754
                                                                        47.7504
        32.2504
  -4842930.57847  -3727580.65245
                  23310832.0474                                   23310828.1684
                                                                        46.0004
        32.0004
   3461853.76647   2708793.00844
                  23758571.8674                                   23758568.3014
                                                                        43.0004
        27.0004
   3024378.55547   2370785.46144
                  24739363.2734                                   24739359.0704
                                                                        42.0004
        25.7504
   4495793.17256   3545126.02353
                  24332128.0314                                   24332125.1524
                                                                        38.5004
        20.7504
 09 10 17 23 37  0.0000000  0  9G02G04G10G05G13G23G29G30G25
  -1673926.43748  -1282610.15247
                  20559778.7584                                   20559772.6454
                                                                        52.2504
        43.2504
   2948250.26648   2305996.53946
                  21614131.6024                                   21614127.6054
                                                                        50.5004
        39.0004
  -6177692.10547  -4792461.05545
                  22872457.2894                                   22872454.1644
                                                                        45.7504
        32.7504
  -2050196.80147  -1584561.23845
                  23755919.2504                                   23755916.2734
                                                                        44.5004
        32.0004
  -2710212.54748  -2081962.48846
                  21414962.7344                                   21414958.5204
                                                                        50.7504
        36.0004
   1836589.69148   1444760.55545
                  22395141.7344                                   22395135.0864
                                                                        48.7504
        32.5004
  -5012322.76647  -3859574.55945
                  23278598.0474                                   23278594.4344
                                                                        46.2504
        32.0004
   3455597.57047   2703918.07044
                  23757381.4064                                   23757377.6294
                                                                        43.5004
        27.5004
   4317078.43846   3405867.91443
                  24298120.1644                                   24298116.8914
                                                                        39.0004
        20.0004
 09 10 17 23 37 30.0000000  0  9G02G04G10G05G13G23G29G30G25
  -1771573.24648  -1358698.52747
                  20541197.2504                                   20541190.8914
                                                                        52.7504
        43.0004
   2932400.43048   2293646.00846
                  21611115.3054                                   21611111.5164
                                                                        50.0004
        39.0004
  -6371691.22347  -4943629.11345
                  22835540.4694                                   22835536.9884
                                                                        46.2504
        32.5004
  -2249065.00447  -1739523.42645
                  23718075.7814                                   23718072.5124
                                                                        44.2504
        31.7504
  -2824868.36348  -2171304.68746
                  21393144.1334                                   21393139.5944
                                                                        50.5004
        36.2504
   1803555.70348   1419019.78145
                  22388855.3524                                   22388848.8204
                                                                        48.5004
        32.5004
  -5181242.30547  -3991200.17245
                  23246453.2194                                   23246449.6644
                                                                        44.5004
        32.0004
   3449844.65647   2699435.25044
                  23756286.9224                                   23756282.6334
                                                                        43.0004
        26.0004
   4138718.30146   3266886.00443
                  24264179.3914                                   24264175.7304
                                                                        41.0004
        20.7504
 09 10 17 23 38  0.0000000  0  9G02G04G10G05G13G23G29G30G25
  -1868571.60948  -1434281.64847
                  20522738.8754                                   20522732.7234
                                                                        52.0004
        43.0004
   2917045.03548   2281680.76246
                  21608193.3524                                   21608189.5944
                                                                        50.2504
        39.0004
  -6565336.10247  -5094521.13345
                  22798691.1804                                   22798687.5664
                                                                        46.2504
        32.5004
  -2447675.20347  -1894284.55145
                  23680281.3364                                   23680278.5394
                                                                        45.2504
        31.5004
  -2938795.87948  -2260079.37546
                  21371464.5944                                   21371460.3914
                                                                        50.7504
        36.5004
   1771131.40247   1393754.09045
                  22382685.5004                                   22382678.5984
                                                                        47.7504
        32.0004
  -5349683.71147  -4122453.18445
                  23214400.0314                                   23214396.4734
                                                                        44.0004
        31.0004
   3444594.91846   2695344.48043
                  23755287.1254                                   23755283.7114
                                                                        41.2504
        23.2504
   3960718.23447   3128184.66843
                  24230307.0474                                   24230303.2974
                                                                        42.5004
        22.5004
 09 10 17 23 38 30.0000000  0  9G02G04G10G05G13G23G29G30G25
  -1964915.89148  -1509355.08247
                  20504405.2504                                   20504399.1954
                                                                        52.5004
        43.2504
   2902187.46948   2270103.43446
                  21605365.8594                                   21605362.0984
                                                                        50.2504
        39.0004
  -6758619.34047  -5245131.43445
                  22761910.6094                                   22761906.7774
                                                                        46.0004
        31.7504
  -2646020.18747  -2048839.07045
                  23642538.0394                                   23642534.1134
                                                                        45.2504
        31.2504
  -3051989.11348  -2348281.94546
                  21349924.7734                                   21349919.8954
                                                                        50.7504
        36.7504
   1739320.01248   1368966.01245
                  22376631.7894                                   22376624.9884
                                                                        48.0004
        32.5004
  -5517639.39547  -4253327.71945
                  23182439.1414                                   23182435.7424
                                                                        45.0004
        32.2504
   3439850.40246   2691647.41443
                  23754384.3364                                   23754380.9884
                                                                        40.2504
        22.7504
   3783086.53547   2989770.39144
                  24196505.0004                                   24196501.8284
                                                                        42.2504
        24.0004
 09 10 17 23 39  0.0000000  0  9G02G04G10G05G13G23G29G30G25
  -2060608.34048  -1583920.62547
                  20486195.5234                                   20486189.3874
                                                                        52.5004
        43.0004
   2887823.02748   2258910.33646
                  21602632.2584                                   21602628.6054
                                                                        50.5004
        38.7504
  -6951541.45347  -5395460.32845
                  22725198.5474                                   22725194.9384
                                                                        46.0004
        33.0004
  -2844101.10247  -2203187.87545
                  23604844.6024                                   23604840.1294
                                                                        46.0004
        31.0004
  -3164449.49248  -2435913.39546
                  21328524.0944                                   21328519.4414
                                                                        50.7504
        36.0004
   1708117.05548   1344652.03145
                  22370694.2344                                   22370687.7034
                                                                        48.2504
        32.5004
  -5685109.90247  -4383824.19145
                  23150570.6174                                   23150567.1054
                                                                        45.2504
        31.7504
   3435605.43046   2688339.59744
                  23753576.9534                                   23753573.5554
                                                                        41.2504
        24.5004
   3605823.22746   2851643.19544
                  24162772.4144                                   24162769.5984
                                                                        41.5004
        24.5004
 09 10 17 23 39 30.0000000  0  9G02G04G10G05G13G23G29G30G25
  -2155649.49248  -1657978.65247
                  20468109.3054                                   20468103.7504
                                                                        52.7504
        43.2504
   2873949.07448   2248099.43846
                  21599992.3364                                   21599988.6134
                                                                        50.5004
        38.5004
  -7144101.53147  -5545507.15245
                  22688555.4454                                   22688551.9494
                                                                        47.0004
        32.7504
  -3041916.81647  -2357330.03945
                  23567200.8524                                   23567197.3164
                                                                        45.2504
        30.2504
  -3276177.87948  -2522974.47346
                  21307262.7584                                   21307257.9964
                                                                        50.5004
        37.0004
   1677519.23448   1320809.58645
                  22364871.5474                                   22364864.5664
                                                                        48.5004
        32.5004
  -5852093.84447  -4513941.53145
                  23118794.6484                                   23118790.6884
                                                                        46.0004
        31.2504
   3431855.75047   2685417.67644
                  23752863.1334                                   23752860.4384
                                                                        42.5004
        25.5004
   3428929.94946   2713804.38343
                  24129111.2584                                   24129107.5274
                                                                        41.7504
        22.7504
 09 10 17 23 40  0.0000000  0  9G02G04G10G05G13G23G29G30G25
  -2250042.38748  -1731531.55547
                  20450147.4384                                   20450141.3164
                                                                        52.5004
        43.0004
   2860559.91048   2237666.31346
                  21597444.3444                                   21597440.0984
                                                                        50.0004
        38.5004
  -7336300.70747  -5695272.69945
                  22651980.8754                                   22651977.3094
                                                                        46.0004
        32.7504
  -3239468.45347  -2511266.31245
                  23529608.7894                                   23529605.0084
                                                                        45.0004
        31.5004
  -3387176.77748  -2609467.05146
                  21286140.9304                                   21286135.9574
                                                                        51.0004
        37.0004
   1647520.73048   1297434.12945
                  22359163.1094                                   22359156.5664
                                                                        48.0004
        32.2504
  -6018592.26647  -4643680.54745
                  23087111.1094                                   23087106.5514
                                                                        45.0004
        32.0004
   3428594.63347   2682876.39144
                  23752242.7274                                   23752239.7464
                                                                        42.5004
        26.2504
   3252405.68846   2576253.03943
                  24095519.1334                                   24095516.1054
                                                                        41.2504
        23.0004
 09 10 17 23 40 30.0000000  0  9G02G04G10G05G13G23G29G30G25
  -2343790.64148  -1804582.12947
                  20432307.6954                                   20432301.5704
                                                                        52.2504
        42.7504
   2847649.71948   2227606.35946
                  21594987.8754                                   21594984.1414
                                                                        50.5004
        37.7504
  -7528140.86747  -5844758.49645
                  22615475.2734                                   22615471.4804
                                                                        47.5004
        32.7504
  -3436758.30547  -2664998.59845
                  23492065.1254                                   23492061.8984
                                                                        44.2504
        32.2504
  -3497449.90248  -2695394.09046
                  21265156.3054                                   21265151.5984
                                                                        50.2504
        37.0004
   1618115.92647   1274521.30545
                  22353567.6644                                   22353560.9774
                                                                        47.7504
        31.0004
  -6184606.89147  -4773042.58645
                  23055518.8754                                   23055515.2504
                                                                        44.5004
        31.5004
   3425815.65247   2680711.02744
                  23751714.5314                                   23751710.4224
                                                                        43.7504
        26.5004
   3076249.34446   2438988.39843
                  24061997.6484                                   24061994.5824
                                                                        41.0004
        22.0004
 09 10 17 23 41  0.0000000  0  9G02G04G10G05G13G23G29G30G25
  -2436893.35548  -1877129.69147
                  20414590.8364                                   20414584.5704
                                                                        51.7504
        42.5004
   2835217.09448   2217918.61746
                  21592622.0234                                   21592618.2734
                                                                        51.0004
        38.0004
  -7719619.55947  -5993962.71145
                  22579038.2664                                   22579034.6134
                                                                        47.0004
        33.5004
  -3633784.12947  -2818525.19545
                  23454572.7194                                   23454569.2234
                                                                        44.2504
        33.2504
  -3606995.85948  -2780754.55546
                  21244310.1254                                   21244305.6644
                                                                        50.7504
        36.5004
   1589302.99248   1252069.66045
                  22348084.5554                                   22348077.8984
                                                                        48.0004
        31.5004
  -6350134.96947  -4902025.48445
                  23024020.3914                                   23024016.8484
                                                                        44.2504
        32.0004
   3423515.53947   2678918.69144
                  23751276.2424                                   23751273.6414
                                                                        44.7504
        27.2504
   2900463.98446   2302012.75043
                  24028547.0394                                   24028543.3874
                                                                        40.0004
        19.5004
 09 10 17 23 41 30.0000000  0  9G02G04G10G05G13G23G29G30G25
  -2529352.33248  -1949175.64547
                  20396996.4534                                   20396990.3364
                                                                        51.5004
        42.7504
   2823257.82448   2208599.69946
                  21590346.0554                                   21590342.3404
                                                                        51.5004
        38.5004
  -7910736.44547  -6142884.97745
                  22542669.9844                                   22542666.1334
                                                                        47.0004
        33.5004
  -3830546.15247  -2971846.21945
                  23417130.1724                                   23417126.3914
                                                                        45.2504
        32.0004
  -3715816.05948  -2865549.50446
                  21223602.5634                                   21223597.8984
                                                                        50.7504
        37.0004
   1561077.52347   1230075.77745
                  22342713.7424                                   22342706.3094
                                                                        47.0004
        30.7504
  -6515175.70747  -5030628.62145
                  22992613.6414                                   22992610.5784
                                                                        44.2504
        32.2504
   3421689.48047   2677495.75444
                  23750929.1334                                   23750925.3634
                                                                        44.5004
        26.5004
   2725050.36746   2165326.85243
                  23995166.8754                                   23995163.0044
                                                                        40.7504
        20.7504
 09 10 17 23 42  0.0000000  0  9G02G04G10G05G13G23G29G30G25
  -2621173.78948  -2020724.84447
                  20379523.1884                                   20379517.2854
                                                                        51.5004
        43.0004
   2811763.85248   2199643.39546
                  21588158.8754                                   21588155.6094
                                                                        51.0004
        38.0004
  -8101495.93447  -6291528.73045
                  22506369.1174                                   22506366.0234
                                                                        46.0004
        33.2504
  -4027048.61747  -3124964.98045
                  23379736.5084                                   23379733.0044
                                                                        44.7504
        31.7504
  -3823916.77048  -2949783.82846
                  21203031.5084                                   21203026.9844
                                                                        50.7504
        37.0004
   1533431.25047   1208533.23445
                  22337452.5634                                   22337445.4024
                                                                        47.0004
        31.5004
  -6679733.90647  -5158855.76245
                  22961299.4064                                   22961296.2194
                                                                        43.5004
        32.2504
   3420327.71947   2676434.63744
                  23750670.4534                                   23750667.1374
                                                                        44.2504
        27.0004
   2550004.82846   2028927.77343
                  23961857.1254                                   23961852.6884
                                                                        41.7504
        22.0004
 09 10 17 23 42 30.0000000  0  9G02G04G10G05G13G23G29G30G25
  -2712355.27748  -2091775.34447
                  20362172.0474                                   20362166.0204
                                                                        52.0004
        43.2504
   2800734.91448   2191049.46546
                  21586060.0554                                   21586056.3324
                                                                        51.0004
        37.5004
  -8291894.05947  -6439890.87945
                  22470137.8914                                   22470133.9694
                                                                        47.0004
        33.5004
  -4223287.92247  -3277878.67245
                  23342393.4144                                   23342389.8284
                                                                        45.0004
        31.5004
  -3931294.98448  -3033455.15646
                  21182598.0634                                   21182593.2774
                                                                        50.0004
        36.5004
   1506364.00447   1187441.87145
                  22332301.6094                                   22332295.0864
                                                                        47.2504
        31.0004
  -6843805.55147  -5286703.77345
                  22930077.8914                                   22930074.3484
                                                                        44.5004
        32.7504
   3419428.91447   2675734.20344
                  23750498.6724                                   23750495.8834
                                                                        43.2504
        25.0004
   2375331.96947   1892819.10243
                  23928617.7734                                   23928614.1644
                                                                        43.2504
        23.7504
 09 10 17 23 43  0.0000000  0  9G02G04G10G05G13G23G29G30G25
  -2802902.19948  -2162331.37547
                  20344941.6024                                   20344935.2544
                                                                        52.2504
        43.0004
   2790163.76248   2182812.18046
                  21584048.5314                                   21584044.7034
                                                                        51.0004
        38.5004
  -8481933.94547  -6587973.85945
                  22433974.5004                                   22433971.0354
                                                                        47.7504
        33.2504
  -4419267.23847  -3430589.79345
                  23305099.7664                                   23305095.8714
                                                                        45.0004
        31.2504
  -4037955.58248  -3116567.33646
                  21162301.7974                                   21162296.6094
                                                                        50.2504
        36.7504
   1479868.40647   1166795.95345
                  22327259.8524                                   22327253.5004
                                                                        47.2504
        31.5004
  -7007392.99647  -5414174.50445
                  22898948.3054                                   22898944.5474
                                                                        44.5004
        32.0004
   3418984.98847   2675388.32043
                  23750414.4304                                   23750411.2894
                                                                        42.5004
        22.0004
   2201029.10547   1756998.71943
                  23895448.5554                                   23895445.5234
                                                                        43.0004
        23.5004
 09 10 17 23 43 30.0000000  0  9G02G04G10G05G13G23G29G30G25
  -2892811.43748  -2232390.53147
                  20327832.3984                                   20327826.5554
                                                                        52.7504
        43.5004
   2780050.76648   2174931.90246
                  21582124.0784                                   21582120.2344
                                                                        50.7504
        37.7504
  -8671611.49247  -6735774.54345
                  22397879.4304                                   22397876.0664
                                                                        47.5004
        33.7504
  -4614982.58247  -3583095.25045
                  23267856.9224                                   23267853.0234
                                                                        46.2504
        32.5004
  -4143895.83648  -3199118.17246
                  21142141.6254                                   21142137.0474
                                                                        50.0004
        37.0004
   1453944.12548   1146595.22745
                  22322326.9304                                   22322320.0044
                                                                        48.0004
        32.0004
  -7170491.83247  -5541264.48845
                  22867911.6174                                   22867907.5044
                                                                        44.5004
        31.7504
   3418994.23447   2675395.50443
                  23750415.5634                                   23750412.7584
                                                                        42.0004
        22.0004
   2027100.91847   1621470.27043
                  23862351.9064                                   23862348.0514
                                                                        42.5004
        23.5004
 09 10 17 23 44  0.0000000  0  9G02G04G10G05G13G23G29G30G25
  -2982084.17248  -2301953.71947
                  20310844.1644                                   20310838.1334
                                                                        52.2504
        43.0004
   2770392.61748   2167406.04346
                  21580286.3594                                   21580282.8014
                                                                        50.7504
        38.0004
  -8860925.18047  -6883291.66445
                  22361854.5164                                   22361851.1954
                                                                        47.5004
        34.2504
  -4810433.26247  -3735394.45345
                  23230663.4384                                   23230659.7344
                                                                        46.0004
        33.0004
  -4249116.68448  -3281108.49646
                  21122118.6804                                   21122114.0664
                                                                        49.7504
        37.0004
   1428588.21147   1126837.35945
                  22317501.7664                                   22317494.9844
                                                                        47.5004
        32.0004
  -7333101.44947  -5667973.28545
                  22836968.4694                                   22836964.4534
                                                                        44.5004
        32.5004
   3419452.81347   2675752.87943
                  23750503.3444                                   23750499.9694
                                                                        43.0004
        23.0004
   1853549.05546   1486235.01643
                  23829325.1644                                   23829322.2704
                                                                        41.5004
        22.7504
 09 10 17 23 44 30.0000000  0  9G02G04G10G05G13G23G29G30G25
  -3070720.53948  -2371021.03547
                  20293977.2734                                   20293971.0234
                                                                        52.5004
        43.2504
   2761187.08248   2160232.85546
                  21578534.1564                                   21578530.3834
                                                                        51.0004
        37.7504
  -9049873.42247  -7030523.99245
                  22325898.9144                                   22325896.1564
                                                                        47.5004
        34.2504
  -5005617.27047  -3887485.85945
                  23193521.2734                                   23193517.6954
                                                                        44.7504
        32.0004
  -4353617.70748  -3362537.87946
                  21102232.9614                                   21102228.4064
                                                                        49.7504
        37.0004
   1403798.02748   1107520.32445
                  22312784.5084                                   22312777.7934
                                                                        48.0004
        32.5004
  -7495219.64847  -5794299.15645
                  22806118.5314                                   22806114.0234
                                                                        44.7504
        33.0004
   3420356.84847   2676457.28543
                  23750676.0634                                   23750671.8954
                                                                        44.7504
        23.2504
   1680375.66846   1351294.63343
                  23796371.1414                                   23796368.9414
                                                                        40.2504
        22.5004
 09 10 17 23 45  0.0000000  0  9G02G04G10G05G13G23G29G30G25
  -1583299.24248  -1211991.44947
                  20577024.4304                                   20577018.4844
                                                                        52.0004
        43.2504
   4327850.70748   3381009.71546
                  21876660.5394                                   21876656.9144
                                                                        50.7504
        37.7504
  -7663030.06647  -5949866.77045
                  22589806.5084                                   22589802.8754
                                                                        46.7504
        34.5004
  -3625108.54347  -2811764.72345
                  23456223.3204                                   23456219.5274
                                                                        45.7504
        33.0004
  -2881977.05148  -2215804.89146
                  21382276.9454                                   21382272.4144
                                                                        50.0004
        37.5004
   2954990.01647   2316241.34045
                  22607966.2894                                   22607959.5554
                                                                        47.0004
        32.5004
  -6081420.90647  -4692637.80945
                  23075154.5944                                   23075150.7544
                                                                        44.5004
        33.5004
   4997121.07047   3905104.76644
                  24050723.8134                                   24050720.1024
                                                                        44.2504
        25.2504
   3083007.59046   2444254.52343
                  24063283.8364                                   24063280.7074
                                                                        40.2504
        22.5004
 09 10 17 23 45 30.0000000  0  9G02G04G10G05G13G23G29G30G25
  -1670669.95348  -1280072.52347
                  20560398.2034                                   20560392.3794
                                                                        51.7504
        43.5004
   4319536.58248   3374531.13746
                  21875078.4304                                   21875074.7774
                                                                        49.5004
        37.5004
  -7851249.32047  -6096531.02045
                  22553989.4614                                   22553985.6054
                                                                        47.5004
        34.7504
  -3819761.88747  -2963442.66045
                  23419182.4534                                   23419178.1604
                                                                        45.0004
        33.7504
  -2985045.55548  -2296118.01246
                  21362663.6884                                   21362659.1174
                                                                        49.2504
        37.2504
   2931316.32047   2297794.30945
                  22603461.6174                                   22603454.0474
                                                                        46.7504
        31.2504
  -6242557.63347  -4818198.87945
                  23044491.7194                                   23044487.8634
                                                                        43.5004
        33.2504
   4998898.80947   3906490.05144
                  24051062.0004                                   24051058.6524
                                                                        44.7504
        25.2504
   2910591.92246   2309904.75443
                  24030474.5314                                   24030470.8404
                                                                        40.5004
        20.7504
 09 10 17 23 46  0.0000000  0  9G02G04G10G05G13G23G29G30G25
  -1757405.15648  -1347658.40247
                  20543892.9534                                   20543886.9734
                                                                        52.0004
        43.2504
   4311667.42248   3368399.34446
                  21873581.3674                                   21873577.1564
                                                                        51.0004
        37.7504
  -8039098.96547  -6242907.32445
                  22518242.9144                                   22518239.3984
                                                                        47.7504
        34.0004
  -4014144.68747  -3114909.76245
                  23382192.3134                                   23382188.0594
                                                                        46.0004
        34.0004
  -3087394.69948  -2375870.57446
                  21343187.3914                                   21343182.7154
                                                                        49.7504
        36.7504
   2908199.90247   2279781.51645
                  22599062.1484                                   22599055.7154
                                                                        47.0004
        31.2504
  -6403197.91847  -4943373.11745
                  23013922.7344                                   23013919.0204
                                                                        45.0004
        33.2504
   5001110.93447   3908213.77744
                  24051483.0474                                   24051479.1914
                                                                        43.0004
        25.0004
   2738561.19147   2175854.87143
                  23997738.3204                                   23997734.3754
                                                                        43.2504
        23.0004
 09 10 17 23 46 30.0000000  0  9G02G04G10G05G13G23G29G30G25
  -1843508.37548  -1414751.82047
                  20527508.1804                                   20527502.1914
                                                                        52.0004
        43.0004
   4304237.85548   3362610.07046
                  21872167.3204                                   21872163.7704
                                                                        50.5004
        38.2504
  -8226580.14847  -6388996.54745
                  22482566.3984                                   22482562.5984
                                                                        47.2504
        33.7504
  -4208258.44547  -3266167.19545
                  23345253.7034                                   23345249.8874
                                                                        44.5004
        32.7504
  -3189027.72748  -2455065.10546
                  21323847.0164                                   21323842.6724
                                                                        49.5004
        36.7504
   2885635.22347   2262198.62545
                  22594768.6174                                   22594761.6484
                                                                        46.7504
        30.7504
  -6563342.60947  -5068161.17645
                  22983448.0164                                   22983444.4924
                                                                        43.0004
        32.7504
   5003750.77046   3910270.77043
                  24051985.0554                                   24051982.2304
                                                                        41.5004
        23.0004
   2566914.69547   2042104.41444
                  23965075.4384                                   23965071.2464
                                                                        43.7504
        25.2504
 09 10 17 23 47  0.0000000  0  9G02G04G10G05G13G23G29G30G25
  -1928983.39548  -1481355.71547
                  20511242.8364                                   20511236.7934
                                                                        52.5004
        43.2504
   4297242.00848   3357158.75446
                  21870836.2274                                   21870832.0864
                                                                        50.0004
        38.0004
  -8413694.68047  -6534800.04345
                  22446959.4304                                   22446955.6334
                                                                        47.5004
        34.7504
  -4402105.55147  -3417216.89145
                  23308365.4224                                   23308361.6564
                                                                        44.7504
        32.5004
  -3289948.08248  -2533704.33246
                  21304642.5704                                   21304637.7704
                                                                        48.2504
        36.5004
   2863616.02347   2245040.80945
                  22590578.0784                                   22590571.3714
                                                                        46.0004
        30.7504
  -6722994.24647  -5192565.03545
                  22953067.0784                                   22953064.2154
                                                                        44.5004
        33.7504
   5006810.95346   3912655.27043
                  24052567.0004                                   24052564.4964
                                                                        40.7504
        22.2504
   2395651.31647   1908652.44143
                  23932484.4694                                   23932480.7774
                                                                        43.5004
        23.7504
 09 10 17 23 47 30.0000000  0  9G02G04G10G05G13G23G29G30G25
  -2013832.42648  -1547471.84847
                  20495096.6884                                   20495090.3874
                                                                        52.2504
        43.0004
   4290675.55548   3352042.06346
                  21869586.6564                                   21869582.8204
                                                                        50.2504
        38.0004
  -8600442.37147  -6680317.64845
                  22411422.5004                                   22411418.8984
                                                                        47.0004
        34.2504
  -4595685.48047  -3568058.35545
                  23271528.9924                                   23271524.7464
                                                                        46.7504
        33.7504
  -3390158.19548  -2611790.14146
                  21285573.1954                                   21285568.6914
                                                                        49.5004
        36.5004
   2842137.72347   2228304.46945
                  22586490.8594                                   22586484.5474
                                                                        46.2504
        30.7504
  -6882152.32047  -5316584.28145
                  22922780.8134                                   22922777.4454
                                                                        44.2504
        32.7504
   5010286.34846   3915363.27044
                  24053228.9614                                   24053225.9654
                                                                        40.5004
        25.0004
   2224770.92247   1775498.89544
                  23899966.8834                                   23899962.7854
                                                                        42.0004
        24.5004
 09 10 17 23 48  0.0000000  0  9G02G04G10G05G13G23G29G30G25
  -2098051.58648  -1613097.16047
                  20479070.2894                                   20479063.9774
                                                                        52.2504
        42.5004
   4284540.10948   3347261.16846
                  21868418.4454                                   21868415.3834
                                                                        49.0004
        37.0004
  -8786817.51647  -6825544.96545
                  22375956.6954                                   22375952.8204
                                                                        47.0004
        34.5004
  -4788993.06647  -3718687.65245
                  23234743.7034                                   23234739.6134
                                                                        47.0004
        34.0004
  -3489653.72348  -2689319.14146
                  21266639.7814                                   21266635.3364
                                                                        48.2504
        36.7504
   2821202.00047   2211990.91445
                  22582507.1564                                   22582500.6094
                                                                        46.0004
        31.0004
  -7040810.96947  -5440214.37145
                  22892589.0634                                   22892585.6564
                                                                        43.7504
        34.5004
   5014177.35946   3918395.20743
                  24053969.8674                                   24053966.0164
                                                                        41.2504
        23.7504
   2054280.18846   1642649.03943
                  23867523.0234                                   23867519.9224
                                                                        39.5004
        22.7504
 09 10 17 23 48 30.0000000  0  9G02G04G10G05G13G23G29G30G25
  -2181643.26648  -1678233.52747
                  20463163.1884                                   20463157.0234
                                                                        51.5004
        43.0004
   4278830.58248   3342812.17646
                  21867332.6804                                   21867328.5704
                                                                        49.2504
        37.0004
  -8972820.97747  -6970482.68745
                  22340561.3054                                   22340557.5744
                                                                        46.2504
        35.0004
  -4982029.63347  -3869105.75845
                  23198010.1094                                   23198005.9384
                                                                        47.0004
        33.7504
  -3588437.36348  -2766293.40246
                  21247841.7974                                   21247837.1094
                                                                        48.2504
        36.5004
   2800802.77747   2196095.41445
                  22578625.2034                                   22578618.5944
                                                                        46.0004
        31.0004
  -7198971.19947  -5563456.08645
                  22862492.1564                                   22862488.3054
                                                                        44.7504
        34.0004
   5018477.35947   3921745.86344
                  24054788.0314                                   24054784.2774
                                                                        42.5004
        25.2504
   1884178.51246   1510102.32443
                  23835154.1414                                   23835150.2854
                                                                        40.5004
        21.5004
 09 10 17 23 49  0.0000000  0  9G02G04G10G05G13G23G29G30G25
  -2264610.84448  -1742883.60547
                  20447374.9924                                   20447369.0434
                                                                        51.5004
        42.5004
   4273541.99648   3338691.18846
                  21866325.6334                                   21866322.6134
                                                                        49.5004
        37.2504
  -9158454.03147  -7115131.78145
                  22305236.1564                                   22305232.8244
                                                                        46.2504
        34.5004
  -5174796.47747  -4019313.67645
                  23161327.2194                                   23161323.8524
                                                                        47.2504
        34.0004
  -3686511.90648  -2842715.07846
                  21229178.7114                                   21229174.2704
                                                                        49.0004
        37.0004
   2780935.34047   2180614.28145
                  22574845.0234                                   22574838.3444
                                                                        46.2504
        31.2504
  -7356633.99647  -5686310.21545
                  22832490.2894                                   22832486.2894
                                                                        46.2504
        33.2504
   5023180.11747   3925410.39144
                  24055682.4534                                   24055679.5664
                                                                        42.5004
        24.7504
   1714465.73446   1377858.66044
                  23802858.8834                                   23802855.3364
                                                                        41.2504
        24.2504
 09 10 17 23 49 30.0000000  0  9G02G04G10G05G13G23G29G30G25
  -2346953.77048  -1807046.91847
                  20431705.5634                                   20431699.3554
                                                                        52.2504
        42.5004
   4268672.69548   3334896.86746
                  21865399.5314                                   21865396.3244
                                                                        50.0004
        37.2504
  -9343713.66847  -7259489.90645
                  22269982.8444                                   22269978.8204
                                                                        46.5004
        34.7504
  -5367290.11347  -4169308.71945
                  23124697.4774                                   23124693.6484
                                                                        47.0004
        34.7504
  -3783876.94948  -2918583.94146
                  21210651.0084                                   21210646.4024
                                                                        48.7504
        36.5004
   2761597.92247   2165546.14545
                  22571164.9384                                   22571158.2814
                                                                        47.2504
        31.5004
  -7513795.68047  -5808773.85245
                  22802583.2894                                   22802579.1174
                                                                        45.0004
        34.0004
   5028283.90647   3929387.35943
                  24056654.0864                                   24056650.4694
                                                                        42.2504
        22.7504
   1545144.53146   1245920.10544
                  23770638.3674                                   23770634.6054
                                                                        41.0004
        25.5004
 09 10 17 23 50  0.0000000  0  9G02G04G10G05G13G23G29G30G25
  -2428670.84048  -1870722.55547
                  20416155.4844                                   20416149.5984
                                                                        51.5004
        42.5004
   4264222.23448   3331428.98046
                  21864552.6254                                   21864549.0784
                                                                        49.0004
        36.5004
  -9528597.07447  -7403554.86745
                  22234800.1174                                   22234796.5514
                                                                        47.5004
        35.2504
  -5559508.33247  -4319089.10245
                  23088119.3834                                   23088115.6954
                                                                        47.5004
        34.2504
  -3880531.16048  -2993898.88346
                  21192258.1024                                   21192253.8554
                                                                        48.5004
        36.7504
   2742789.27047   2150890.03145
                  22567585.5634                                   22567579.4064
                                                                        46.7504
        30.5004
  -7670454.27747  -5930845.46145
                  22772771.8754                                   22772767.6174
                                                                        45.7504
        34.2504
   5033785.25047   3933674.10543
                  24057700.7894                                   24057697.2664
                                                                        42.2504
        23.5004
   1376219.28946   1114290.19144
                  23738492.6414                                   23738489.3364
                                                                        41.2504
        26.0004
 09 10 17 23 50 30.0000000  0  9G02G04G10G05G13G23G29G30G25
  -2509762.97348  -1933911.21147
                  20400724.3204                                   20400718.2464
                                                                        52.0004
        43.0004
   4260187.03548   3328284.66446
                  21863784.6334                                   21863781.4924
                                                                        49.2504
        37.0004
  -9713103.14547  -7547325.83645
                  22199690.1024                                   22199686.0904
                                                                        47.7504
        34.5004
  -5751450.19147  -4468654.16845
                  23051593.8914                                   23051589.8834
                                                                        47.5004
        34.5004
  -3976475.54748  -3068660.73446
                  21174000.3834                                   21173995.9224
                                                                        49.2504
        37.0004
   2724505.76647   2136643.12545
                  22564106.1954                                   22564099.7854
                                                                        46.0004
        30.2504
  -7826607.95347  -6052523.63745
                  22743056.7424                                   22743052.4454
                                                                        45.2504
        33.5004
   5039680.69947   3938268.00443
                  24058822.4774                                   24058819.1174
                                                                        42.5004
        21.7504
   1207690.99247    982969.53544
                  23706422.6564                                   23706419.2894
                                                                        42.2504
        24.5004
 09 10 17 23 51  0.0000000  0  9G02G04G10G05G13G23G29G30G25
  -2590234.37948  -1996616.19947
                  20385410.8674                                   20385405.0664
                                                                        51.7504
        43.2504
   4256561.03548   3325459.20346
                  21863094.7194                                   21863091.3324
                                                                        48.7504
        37.0004
  -9897233.89848  -7690804.34045
                  22164651.0554                                   22164647.5164
                                                                        48.0004
        34.2504
  -5943117.67247  -4618005.47345
                  23015121.0944                                   23015116.4614
                                                                        47.5004
        33.5004
  -4071713.96548  -3142872.51246
                  21155877.1644                                   21155872.5744
                                                                        49.0004
        36.5004
   2706741.03147   2122800.47344
                  22560726.0784                                   22560719.3874
                                                                        45.5004
        29.5004
  -7982259.14847  -6173810.26245
                  22713437.2504                                   22713432.9774
                                                                        45.5004
        33.2504
   5045962.42646   3943162.86343
                  24060017.3594                                   24060014.5824
                                                                        40.5004
        22.0004
   1039558.21946    851957.08243
                  23674427.6414                                   23674423.6884
                                                                        41.0004
        22.7504
 09 10 17 23 51 30.0000000  0  9G02G04G10G05G13G23G29G30G25
  -2670084.89848  -2058837.37947
                  20370215.9924                                   20370209.8714
                                                                        51.7504
        42.7504
   4253342.64148   3322951.35946
                  21862482.2114                                   21862478.4844
                                                                        49.7504
        37.0004
 -10080986.99647  -7833988.53145
                  22129684.4384                                   22129680.7734
                                                                        47.0004
        35.5004
  -6134508.53147  -4767141.22345
                  22978700.1724                                   22978696.2974
                                                                        47.2504
        32.5004
  -4166245.74248  -3216533.63746
                  21137888.4454                                   21137884.1214
                                                                        48.7504
        36.5004
   2689493.25447   2109360.62144
                  22557443.7114                                   22557437.3364
                                                                        46.5004
        29.7504
  -8137404.92647  -6294703.06245
                  22683913.7194                                   22683909.6294
                                                                        45.7504
        33.5004
   5052627.72346   3948356.55943
                  24061286.0004                                   24061283.3984
                                                                        41.2504
        22.7504
    871824.01646    721255.16843
                  23642509.0234                                   23642505.5204
                                                                        39.5004
        22.5004
 09 10 17 23 52  0.0000000  0  9G02G04G10G05G13G23G29G30G25
  -2749311.23048  -2120572.18047
                  20355139.5554                                   20355133.6294
                                                                        52.0004
        43.0004
   4250532.78948   3320761.84846
                  21861947.5554                                   21861943.7344
                                                                        49.7504
        36.5004
 -10264357.08647  -7976874.25845
                  22094789.7424                                   22094786.2304
                                                                        47.7504
        35.0004
  -6325617.79747  -4916057.47345
                  22942333.2894                                   22942329.2464
                                                                        47.7504
        34.0004
  -4260067.92248  -3289641.79346
                  21120034.6094                                   21120030.3094
                                                                        50.2504
        36.5004
   2672763.18447   2096324.18844
                  22554260.1484                                   22554253.4454
                                                                        46.0004
        28.7504
  -8292039.93747  -6415197.86345
                  22654487.7974                                   22654483.6524
                                                                        45.2504
        33.2504
   5059676.49646   3953849.09443
                  24062627.4454                                   24062624.9384
                                                                        41.7504
        22.7504
    704493.78146    590868.00444
                  23610667.5394                                   23610663.6254
                                                                        41.0004
        24.5004
 09 10 17 23 52 30.0000000  0  9G02G04G10G05G13G23G29G30G25
  -2827914.87148  -2181821.77047
                  20340181.8204                                   20340175.8524
                                                                        51.7504
        43.5004
   4248128.02348   3318887.95746
                  21861490.0864                                   21861486.4804
                                                                        49.7504
        36.7504
 -10447343.50448  -8119461.05945
                  22059968.1884                                   22059965.2934
                                                                        48.0004
        35.5004
  -6516444.98047  -5064753.89545
                  22906020.4144                                   22906016.5204
                                                                        47.5004
        34.0004
  -4353182.22748  -3362198.38346
                  21102315.8984                                   21102311.2504
                                                                        49.2504
        37.5004
   2656546.70347   2083687.96945
                  22551174.4304                                   22551167.3484
                                                                        47.2504
        30.5004
  -8446164.07847  -6535294.59045
                  22625159.2194                                   22625155.1174
                                                                        45.7504
        33.2504
   5067103.77347   3959636.53543
                  24064041.1414                                   24064037.5784
                                                                        42.2504
        23.0004
    537568.81646    460796.69543
                  23578902.2274                                   23578898.7734
                                                                        41.2504
        23.7504
 09 10 17 23 53  0.0000000  0  8G02G04G10G05G13G23G29G25
  -2905898.12948  -2242587.94147
                  20325342.0314                                   20325336.2774
                                                                        51.2504
        42.7504
   4246123.87948   3317326.24646
                  21861108.6724                                   21861104.8444
                                                                        49.2504
        37.2504
 -10629946.77747  -8261749.35545
                  22025220.7974                                   22025217.0354
                                                                        47.2504
        35.2504
  -6706990.37947  -5213230.74645
                  22869760.5234                                   22869756.8794
                                                                        47.5004
        34.5004
  -4445590.73048  -3434205.01246
                  21084731.1644                                   21084726.1844
                                                                        50.5004
        36.5004
   2640839.08647   2071448.25845
                  22548185.3364                                   22548178.4804
                                                                        46.2504
        30.7504
  -8599777.51247  -6654993.35945
                  22595927.0314                                   22595923.6334
                                                                        45.5004
        34.5004
    371049.22346    331041.24243
                  23547214.4454                                   23547210.5594
                                                                        41.2504
        22.7504
 09 10 17 23 53 30.0000000  0  8G02G04G10G05G13G23G29G25
  -2983260.21148  -2302870.09047
                  20310620.7504                                   20310614.3014
                                                                        51.7504
        42.7504
   4244519.38748   3316075.95746
                  21860803.5004                                   21860799.5784
                                                                        49.5004
        36.5004
 -10812163.48047  -8403736.39145
                  21990546.3284                                   21990542.3594
                                                                        47.7504
        35.5004
  -6897251.26247  -5361485.91445
                  22833554.5084                                   22833551.5944
                                                                        47.7504
        34.5004
  -4537292.44548  -3505660.88746
                  21067280.5004                                   21067275.9734
                                                                        49.7504
        36.2504
   2625639.12547   2059604.10544
                  22545293.2504                                   22545286.0434
                                                                        46.2504
        29.5004
  -8752876.62547  -6774291.36345
                  22566793.6724                                   22566790.3324
                                                                        44.7504
        34.7504
    204938.56247    201604.47244
                  23515605.1804                                   23515601.2504
                                                                        42.0004
        25.5004
 09 10 17 23 54  0.0000000  0  8G02G04G10G05G13G23G29G25
  -1484576.34848  -1135064.47347
                  20595810.6644                                   20595804.4064
                                                                        52.2504
        42.7504
   5818735.02048   4542737.50846
                  22160366.8594                                   22160362.9534
                                                                        50.2504
        36.5004
  -9418563.68048  -7317814.48445
                  22255739.0314                                   22255735.1414
                                                                        48.0004
        35.2504
  -5511797.06247  -4281911.15645
                  23097198.3754                                   23097194.1954
                                                                        47.5004
        35.0004
  -3052862.13348  -2348961.93746
                  21349758.3914                                   21349753.8284
                                                                        49.0004
        37.0004
   4186367.13747   3275755.80145
                  22842289.8834                                   22842283.2234
                                                                        45.7504
        30.0004
  -7330032.34447  -5665581.52045
                  22837552.1174                                   22837547.9304
                                                                        45.0004
        34.0004
   1614667.41047   1300094.57844
                  23783866.8054                                   23783863.7234
                                                                        42.5004
        25.7504
 09 10 17 23 54 30.0000000  0  8G02G04G10G05G13G23G29G25
  -1560692.10548  -1194375.46147
                  20581326.2424                                   20581320.2854
                                                                        52.2504
        43.0004
   5817928.48048   4542109.01646
                  22160213.2734                                   22160209.6994
                                                                        49.7504
        36.5004
  -9599997.36348  -7459191.36745
                  22221213.2734                                   22221209.5354
                                                                        48.2504
        35.2504
  -5701478.73848  -4429715.01645
                  23061103.0944                                   23061099.0004
                                                                        48.2504
        34.7504
  -3143145.95348  -2419312.96946
                  21332577.8984                                   21332573.0474
                                                                        49.5004
        36.2504
   4172179.68047   3264700.64145
                  22839590.0554                                   22839583.4144
                                                                        45.2504
        30.0004
  -7482093.05947  -5784070.37545
                  22808615.7734                                   22808611.8244
                                                                        45.5004
        34.7504
   1449387.23047   1171304.91844
                  23752415.5944                                   23752411.4884
                                                                        43.0004
        27.5004
 09 10 17 23 55  0.0000000  0  8G02G04G10G05G13G23G29G25
  -1636181.99248  -1253198.74247
                  20566961.1414                                   20566954.9344
                                                                        52.5004
        42.7504
   5817520.28548   4541790.98845
                  22160135.5944                                   22160131.9804
                                                                        49.5004
        35.5004
  -9781033.42647  -7600258.43045
                  22186763.4384                                   22186759.3364
                                                                        47.0004
        35.7504
  -5890865.04748  -4577288.69145
                  23025063.8984                                   23025060.0124
                                                                        48.0004
        34.7504
  -3232718.32448  -2489109.62146
                  21315532.5864                                   21315528.3984
                                                                        49.2504
        36.7504
   4158497.53947   3254039.20345
                  22836986.3054                                   22836979.5634
                                                                        45.7504
        30.0004
  -7633628.59447  -5902150.01245
                  22779779.2344                                   22779775.4884
                                                                        46.0004
        34.5004
   1284528.31647   1042843.52344
                  23721044.3674                                   23721039.8164
                                                                        43.2504
        26.0004
 09 10 17 23 55 30.0000000  0  8G02G04G10G05G13G23G29G25
  -1711053.18448  -1311539.92647
                  20552713.6174                                   20552707.1764
                                                                        52.2504
        42.5004
   5817501.43048   4541776.29746
                  22160132.0394                                   22160128.2074
                                                                        49.2504
        36.5004
  -9961677.07848  -7741019.73445
                  22152387.9064                                   22152384.1644
                                                                        49.0004
        35.5004
  -6079960.96147  -4724636.11745
                  22989079.7034                                   22989076.4184
                                                                        47.5004
        34.7504
  -3321586.20348  -2558357.30946
                  21298621.7344                                   21298616.8284
                                                                        49.5004
        36.5004
   4145311.52047   3243764.37545
                  22834476.8054                                   22834470.7034
                                                                        45.0004
        30.0004
  -7784643.67647  -6019824.09845
                  22751042.1644                                   22751038.3954
                                                                        45.5004
        34.7504
   1120086.53447    914707.10043
                  23689751.5164                                   23689747.2774
                                                                        43.0004
        22.7504
 09 10 17 23 56  0.0000000  0  8G02G04G10G05G13G23G29G25
  -1785309.59048  -1369402.06647
                  20538583.1954                                   20538576.9774
                                                                        52.5004
        42.2504
   5817865.61748   4542060.05946
                  22160201.2974                                   22160197.3874
                                                                        49.7504
        36.0004
 -10141929.85547  -7881476.43445
                  22118087.1884                                   22118083.7464
                                                                        47.2504
        35.5004
  -6268768.07448  -4871758.50445
                  22953151.0704                                   22953147.0164
                                                                        48.0004
        34.7504
  -3409753.64848  -2627059.22346
                  21281844.0704                                   21281839.6414
                                                                        49.0004
        37.0004
   4132614.89547   3233870.87945
                  22832061.0394                                   22832054.2704
                                                                        44.7504
        30.0004
  -7935139.98447  -6137093.93045
                  22722403.6484                                   22722399.9304
                                                                        45.5004
        34.2504
    956060.22946    786894.45843
                  23658537.6954                                   23658534.3014
                                                                        41.7504
        23.2504
 09 10 17 23 56 30.0000000  0  8G02G04G10G05G13G23G29G25
  -1858954.96948  -1426788.07047
                  20524568.6954                                   20524562.6454
                                                                        52.2504
        43.0004
   5818608.10948   4542638.60545
                  22160342.4144                                   22160338.5864
                                                                        49.0004
        35.7504
 -10321793.13747  -8021629.60545
                  22083860.2424                                   22083856.7854
                                                                        47.5004
        35.7504
  -6457288.67248  -5018657.66445
                  22917276.8834                                   22917273.2234
                                                                        48.0004
        35.5004
  -3497224.00448  -2695217.93746
                  21265199.3984                                   21265194.6914
                                                                        48.7504
        36.7504
   4120402.46547   3224354.67245
                  22829737.0394                                   22829730.7664
                                                                        44.7504
        30.2504
  -8085119.75047  -6253961.27745
                  22693862.9224                                   22693859.7194
                                                                        46.2504
        34.2504
    792448.84847    659405.11744
                  23627403.7504                                   23627400.5234
                                                                        42.0004
        24.0004
 09 10 17 23 57  0.0000000  0  8G02G04G10G05G13G23G29G25
  -1931991.42248  -1483699.59847
                  20510670.4614                                   20510663.9804
                                                                        52.0004
        43.2504
   5819724.62148   4543508.57845
                  22160555.2974                                   22160551.2544
                                                                        49.0004
        35.7504
 -10501267.24647  -8161479.53146
                  22049707.4224                                   22049703.6524
                                                                        47.5004
        36.2504
  -6645521.87148  -5165332.82845
                  22881457.3364                                   22881453.6884
                                                                        48.0004
        35.2504
  -3583999.57448  -2762835.27046
                  21248686.0554                                   21248681.5784
                                                                        48.7504
        36.7504
   4108669.44947   3215212.06344
                  22827504.2504                                   22827497.2664
                                                                        45.5004
        28.5004
  -8234582.11347  -6370425.45745
                  22665421.7274                                   22665417.9804
                                                                        46.0004
        34.0004
    629253.05147    532239.61744
                  23596349.2114                                   23596345.2464
                                                                        43.2504
        25.7504
 09 10 17 23 57 30.0000000  0  8G02G04G10G05G13G23G29G25
  -2004419.04348  -1540136.70747
                  20496887.7584                                   20496881.4064
                                                                        52.0004
        42.7504
   5821212.77348   4544668.14546
                  22160838.2894                                   22160834.6254
                                                                        49.5004
        36.2504
 -10680349.32047  -8301023.95746
                  22015629.0554                                   22015625.3954
                                                                        47.5004
        36.0004
  -6833466.37547  -5311783.04346
                  22845692.3204                                   22845688.8594
                                                                        47.2504
        36.2504
  -3670080.84448  -2829911.57846
                  21232305.3054                                   21232301.0164
                                                                        49.0004
        36.7504
   4097412.93047   3206440.75445
                  22825362.6804                                   22825355.4184
                                                                        45.2504
        30.0004
  -8383524.90647  -6486484.76645
                  22637079.1174                                   22637074.8204
                                                                        46.0004
        34.5004
    466474.91047    405399.57044
                  23565373.7734                                   23565369.2934
                                                                        43.7504
        27.2504
 09 10 17 23 58  0.0000000  0  8G02G04G10G05G13G23G29G25
  -2076237.85248  -1596099.43047
                  20483221.1024                                   20483214.8754
                                                                        51.5004
        43.2504
   5823071.15648   4546116.23046
                  22161192.0634                                   22161188.6764
                                                                        49.7504
        36.2504
 -10859038.00448  -8440261.84846
                  21981625.8674                                   21981622.0864
                                                                        49.0004
        36.2504
  -7021119.96947  -5458006.57845
                  22809983.1884                                   22809979.3484
                                                                        46.5004
        35.5004
  -3755467.38748  -2896446.53946
                  21216056.9064                                   21216052.1374
                                                                        49.5004
        37.0004
   4086631.55147   3198039.68044
                  22823310.6024                                   22823304.4144
                                                                        45.0004
        29.0004
  -8531946.39147  -6602137.85945
                  22608835.4304                                   22608831.4654
                                                                        46.5004
        34.0004
    304117.52747    278887.30544
                  23534477.8204                                   23534473.6484
                                                                        43.5004
        27.0004
 09 10 17 23 58 30.0000000  0  8G02G04G10G05G13G23G29G25
  -2147450.88348  -1651590.12147
                  20469669.7584                                   20469663.9654
                                                                        52.0004
        42.7504
   5825294.92648   4547849.02346
                  22161615.1174                                   22161611.5634
                                                                        49.0004
        36.0004
 -11037333.21148  -8579193.14145
                  21947696.8984                                   21947693.4224
                                                                        48.7504
        35.5004
  -7208483.18747  -5604003.86345
                  22774329.2034                                   22774325.6604
                                                                        47.5004
        35.5004
  -3840162.11748  -2962442.43446
                  21199940.2194                                   21199935.3554
                                                                        49.5004
        36.7504
   4076319.93047   3190004.65244
                  22821348.6254                                   22821341.7894
                                                                        46.0004
        29.0004
  -8679847.09847  -6717385.17245
                  22580690.2344                                   22580686.5474
                                                                        47.5004
        34.0004
    142180.67147    152702.75544
                  23503662.4144                                   23503657.6524
                                                                        43.0004
        25.5004
 09 10 17 23 59  0.0000000  0  8G02G04G10G05G13G23G29G25
  -2218057.89148  -1706608.57847
                  20456233.7734                                   20456227.7624
                                                                        51.7504
        42.7504
   5827882.03148   4549864.91445
                  22162107.5234                                   22162103.6334
                                                                        50.0004
        35.7504
 -11215232.98448  -8717816.31246
                  21913844.1254                                   21913840.4144
                                                                        48.7504
        36.2504
  -7395553.80547  -5749773.15245
                  22738730.6414                                   22738726.6724
                                                                        46.2504
        34.7504
  -3924165.53948  -3027899.64546
                  21183954.8524                                   21183950.2814
                                                                        50.0004
        36.5004
   4066475.62147   3182333.75844
                  22819475.1024                                   22819468.1094
                                                                        45.7504
        29.0004
  -8827224.75047  -6832224.89145
                  22552645.6484                                   22552641.5354
                                                                        47.7504
        35.2504
    -19332.94546     26848.07444
                  23472926.6094                                   23472922.8244
                                                                        41.2504
        24.0004
 09 10 17 23 59 30.0000000  0  8G02G04G10G05G13G23G29G25
  -2288060.49248  -1761156.05547
                  20442912.9384                                   20442906.6054
                                                                        52.0004
        42.2504
   5830829.56648   4552161.68846
                  22162668.3364                                   22162664.7344
                                                                        50.0004
        36.2504
 -11392736.09048  -8856130.39846
                  21880066.1954                                   21880062.1414
                                                                        49.5004
        36.0004
  -7582331.25847  -5895314.00045
                  22703188.1564                                   22703184.3014
                                                                        47.0004
        34.7504
  -4007478.79348  -3092819.06246
                  21168100.7894                                   21168095.9264
                                                                        49.7504
        36.5004
   4057095.12147   3175024.27344
                  22817689.8674                                   22817683.5784
                                                                        45.0004
        29.0004
  -8974078.48047  -6946656.36745
                  22524700.3054                                   22524695.9144
                                                                        47.5004
        34.7504
   -180422.22346    -98675.95743
                  23442272.2814                                   23442268.7734
                                                                        40.5004
        23.5004
