     2.11           OBSERVATION DATA    G (GPS)             RINEX VERSION / TYPE
teqc  2019Feb25                         20221121 12:28:38UTCPGM / RUN BY / DATE
OSX ker:10.11.6|Core i5|gcc 4.3 -m64|OSX ker:10.10+|=+      COMMENT
BIT 2 OF LLI FLAGS DATA COLLECTED UNDER A/S CONDITION       COMMENT
04712951                                                    MARKER NAME
2951                                                        MARKER NUMBER
-Unknown-           -Unknown-                               OBSERVER / AGENCY
0220400471          TRIMBLE R7          2.30                REC # / TYPE / VERS
-Unknown-           TRM39105.00     NONE                    ANT # / TYPE
  1449459.8288 -1709241.9848  5952442.0424                  APPROX POSITION XYZ
        0.0000        0.0000        0.0000                  ANTENNA: DELTA H/E/N
     1     1                                                WAVELENGTH FACT L1/2
    20    L1    L2    L5    L6    L7    L8    C1    P1    C2# / TYPES OF OBSERV
          P2    C5    C6    C7    C8    S1    S2    S5    S6# / TYPES OF OBSERV
          S7    S8                                          # / TYPES OF OBSERV
    30.0000                                                 INTERVAL
    15                                                      LEAP SECONDS
Forced Modulo Decimation to 30 seconds                      COMMENT
 SNR is mapped to RINEX snr flag value [0-9]                COMMENT
  L1 & L2: min(max(int(snr_dBHz/6), 0), 9)                  COMMENT
teqc edited: Beidou # 1 - 37 excluded                       COMMENT
  2009    10    22    23    11    0.0000000     GPS         TIME OF FIRST OBS
                                                            END OF HEADER
 09 10 22 23 11  0.0000000  0  9G02G04G05G10G13G23G29G30G31
   -190472.43058   -109254.90657
                  20531764.0784                                   20531757.5824
                                                                        52.5004
        43.7504
    -42115.22758    -25704.97356
                  21425468.2424                                   21425464.1094
                                                                        52.0004
        39.5004
   -353488.95757   -203811.88755
                  23913809.4304                                   23913805.3834
                                                                        45.0004
        32.0004
   -351388.18057   -199572.48855
                  22985342.3594                                   22985338.5784
                                                                        44.0004
        30.0004
   -220406.54758   -129347.34856
                  21421663.4844                                   21421658.9534
                                                                        51.5004
        36.5004
    -76358.09457    -44616.45755
                  22219635.9384                                   22219628.7114
                                                                        47.7504
        32.7504
   -310694.52757   -176670.92255
                  23381238.6724                                   23381236.0164
                                                                        42.2504
        31.2504
    -25638.30557    -15706.84854
                  23532545.8984                                   23532542.1684
                                                                        43.0004
        28.0004
    -39617.34056    -21168.40253
                  24542042.6884                                   24542037.6644
                                                                        40.5004
        22.5004
 09 10 22 23 11 30.0000000  0  9G02G04G05G10G13G23G29G30G31
   -301598.48048   -195846.63747
                  20510617.3594                                   20510611.1024
                                                                        52.2504
        43.0004
    -69086.02748    -46721.18746
                  21420335.5164                                   21420332.3204
                                                                        51.7504
        39.2504
   -560969.51247   -365485.05145
                  23874326.9924                                   23874322.5864
                                                                        45.5004
        30.2504
   -554499.88347   -357841.29745
                  22946691.9694                                   22946687.4224
                                                                        45.5004
        31.5004
   -348947.80948   -229509.42646
                  21397202.8364                                   21397198.0744
                                                                        50.5004
        37.2504
   -122729.82448    -80750.37945
                  22210811.6484                                   22210805.1684
                                                                        49.2504
        32.2504
   -490495.16447   -316775.23445
                  23347023.3984                                   23347020.4804
                                                                        44.5004
        31.2504
    -43123.49647    -29331.66844
                  23529218.8834                                   23529214.9184
                                                                        43.5004
        26.0004
    -65612.45346    -41424.34043
                  24537095.3674                                   24537091.0124
                                                                        40.5004
        22.0004
 09 10 22 23 12  0.0000000  0  9G02G04G05G10G13G23G29G30G31
   -412842.43748   -282530.27747
                  20489448.1954                                   20489441.9144
                                                                        52.5004
        43.5004
    -96303.76248    -67929.81246
                  21415156.6094                                   21415152.5274
                                                                        50.7504
        39.0004
   -768970.99647   -527564.14145
                  23834745.7504                                   23834740.9264
                                                                        44.7504
        30.5004
   -758034.42247   -516439.62545
                  22907960.5944                                   22907956.0354
                                                                        46.0004
        32.7504
   -477530.79748   -329704.00046
                  21372734.6094                                   21372729.9654
                                                                        51.2504
        37.0004
   -169229.27348   -116983.85545
                  22201963.1174                                   22201956.6684
                                                                        48.2504
        32.5004
   -670601.65647   -457117.89145
                  23312750.4384                                   23312747.4614
                                                                        43.7504
        31.5004
    -60831.59447    -43130.20344
                  23525847.9454                                   23525845.2074
                                                                        43.5004
        26.0004
    -91863.06246    -61879.37943
                  24532099.8204                                   24532095.5944
                                                                        40.5004
        22.5004
 09 10 22 23 12 30.0000000  0  9G02G04G05G10G13G23G29G30G31
   -523953.22348   -369110.10247
                  20468304.5234                                   20468298.6844
                                                                        51.7504
        43.5004
   -123519.98848    -89137.27746
                  21409977.1884                                   21409972.9924
                                                                        51.2504
        40.0004
   -977241.48447   -689852.80544
                  23795112.9534                                   23795109.0084
                                                                        43.0004
        29.0004
   -961739.27747   -675170.69545
                  22869196.7894                                   22869192.5354
                                                                        45.5004
        32.7504
   -605904.25048   -429735.30546
                  21348305.8204                                   21348301.1134
                                                                        51.2504
        36.5004
   -215608.03948   -153123.27345
                  22193137.8054                                   22193131.2384
                                                                        48.0004
        33.0004
   -850761.11347   -597501.82045
                  23278468.0234                                   23278463.7154
                                                                        44.7504
        31.2504
    -78515.25847    -56909.66844
                  23522483.2114                                   23522480.5944
                                                                        42.2504
        26.7504
   -118121.12946    -82340.23444
                  24527103.1174                                   24527099.4964
                                                                        39.7504
        24.5004
 09 10 22 23 13  0.0000000  0  9G02G04G05G10G13G23G29G30G31
   -634790.64848   -455476.91447
                  20447213.0474                                   20447206.5234
                                                                        52.5004
        43.5004
   -150595.67248   -110235.21546
                  21404825.0004                                   21404820.8754
                                                                        50.5004
        39.5004
  -1185639.63347   -852240.98445
                  23755456.3364                                   23755451.4654
                                                                        44.0004
        30.7504
  -1165472.96147   -833924.19145
                  22830427.2894                                   22830423.7344
                                                                        45.0004
        34.0004
   -733925.99648   -529492.48846
                  21323943.9454                                   21323939.0984
                                                                        51.0004
        36.5004
   -261726.99648   -189060.18045
                  22184361.3834                                   22184354.9304
                                                                        48.5004
        33.2504
  -1030832.45347   -737817.12545
                  23244201.1024                                   23244197.7734
                                                                        44.7504
        32.5004
    -96038.71546    -70564.22344
                  23519148.5704                                   23519145.6524
                                                                        41.7504
        26.5004
   -144250.00446   -102700.40644
                  24522131.3364                                   24522127.6994
                                                                        38.7504
        24.0004
 09 10 22 23 13 30.0000000  0  9G02G04G05G10G13G23G29G30G31
   -745264.34848   -541560.31647
                  20426190.6884                                   20426184.1414
                                                                        52.0004
        43.5004
   -177444.45748   -131156.34846
                  21399715.6334                                   21399712.1844
                                                                        50.5004
        39.0004
  -1394073.23047  -1014656.79345
                  23715793.1644                                   23715788.8754
                                                                        44.5004
        32.5004
  -1369143.60247   -992628.55545
                  22791670.1334                                   22791666.7194
                                                                        44.7504
        34.0004
   -861506.75448   -628906.05146
                  21299666.5704                                   21299661.4064
                                                                        51.0004
        36.5004
   -307499.62948   -224727.21945
                  22175651.5944                                   22175644.9344
                                                                        48.7504
        32.2504
  -1210722.50847   -877991.13745
                  23209969.2344                                   23209965.8134
                                                                        45.7504
        33.7504
   -113314.26247    -84025.71544
                  23515860.8284                                   23515857.5164
                                                                        42.0004
        24.7504
   -170162.02746   -122891.62144
                  24517200.4774                                   24517196.7384
                                                                        40.7504
        24.5004
 09 10 22 23 14  0.0000000  0  9G02G04G05G10G13G23G29G30G31
   -855316.74648   -627315.44547
                  20405248.4694                                   20405241.6644
                                                                        52.5004
        43.0004
   -204010.32448   -151857.03946
                  21394660.3284                                   21394656.5084
                                                                        50.0004
        39.2504
  -1602483.71147  -1177054.57445
                  23676133.7584                                   23676129.5634
                                                                        44.2504
        32.0004
  -1572691.96147  -1151237.60245
                  22752935.6954                                   22752932.0824
                                                                        44.5004
        32.2504
   -988587.98448   -727930.35946
                  21275483.6644                                   21275478.5354
                                                                        51.0004
        37.0004
   -352870.13348   -260080.84845
                  22167017.5554                                   22167010.9304
                                                                        48.2504
        33.5004
  -1390372.44547  -1017978.02045
                  23175782.6334                                   23175779.3834
                                                                        45.5004
        33.0004
   -130288.51647    -97252.42644
                  23512631.6644                                   23512627.8324
                                                                        43.0004
        26.5004
   -195802.99646   -142871.62944
                  24512321.0394                                   24512317.5084
                                                                        41.2504
        27.0004
 09 10 22 23 14 30.0000000  0  9G02G04G05G10G13G23G29G30G31
   -964907.07048   -712710.57447
                  20384393.9534                                   20384387.6524
                                                                        53.0004
        42.7504
   -230254.89848   -172307.37946
                  21389666.4844                                   21389662.7344
                                                                        50.0004
        39.5004
  -1810828.77347  -1339401.37145
                  23636486.5634                                   23636482.3484
                                                                        43.2504
        31.5004
  -1776075.61747  -1309718.34445
                  22714233.3364                                   22714229.4534
                                                                        45.5004
        33.0004
  -1115128.38748   -826533.26646
                  21251403.3364                                   21251398.6254
                                                                        50.7504
        36.2504
   -397800.31648   -295091.39545
                  22158467.9844                                   22158461.5164
                                                                        48.5004
        32.5004
  -1569739.76647  -1157744.68445
                  23141649.9844                                   23141646.7114
                                                                        44.2504
        32.5004
   -146924.32047   -110215.39544
                  23509465.5944                                   23509462.3714
                                                                        44.5004
        28.5004
   -221135.04347   -162610.90244
                  24507501.2194                                   24507496.5864
                                                                        43.5004
        25.5004
 09 10 22 23 15  0.0000000  0  9G02G04G05G10G13G23G29G30G31
  -1074002.60548   -797720.12147
                  20363633.8914                                   20363627.3444
                                                                        52.5004
        43.5004
   -256148.68748   -192484.37546
                  21384738.7734                                   21384735.2274
                                                                        50.5004
        39.0004
  -2019074.26247  -1501670.56244
                  23596858.0234                                   23596854.8594
                                                                        42.0004
        29.7504
  -1979259.96147  -1468043.78545
                  22675568.9454                                   22675564.6764
                                                                        46.0004
        33.5004
  -1241096.21548   -924690.00446
                  21227432.7664                                   21227428.0594
                                                                        50.5004
        36.0004
   -442260.78548   -329735.92245
                  22150007.0234                                   22150000.9614
                                                                        48.5004
        32.0004
  -1748789.26647  -1297263.67645
                  23107578.0704                                   23107575.1174
                                                                        44.5004
        32.7504
   -163191.84047   -122891.34844
                  23506370.2034                                   23506366.8674
                                                                        43.5004
        28.0004
   -246128.66047   -182086.46144
                  24502745.0704                                   24502740.4144
                                                                        43.0004
        26.0004
 09 10 22 23 15 30.0000000  0  9G02G04G05G10G13G23G29G30G31
  -1182579.74248   -882325.73447
                  20342972.1884                                   20342966.1564
                                                                        52.7504
        43.0004
   -281669.35248   -212370.62546
                  21379882.4924                                   21379878.7974
                                                                        50.0004
        39.0004
  -2227195.61347  -1663843.00845
                  23557254.9304                                   23557250.2734
                                                                        44.0004
        31.5004
  -2182220.43047  -1626194.81245
                  22636946.8054                                   22636942.6484
                                                                        47.0004
        33.0004
  -1366465.87948  -1022380.64546
                  21203575.5164                                   21203570.9304
                                                                        50.5004
        36.7504
   -486229.10948   -363996.99245
                  22141640.0314                                   22141633.6564
                                                                        48.7504
        31.7504
  -1927496.87147  -1436516.27745
                  23073570.7664                                   23073567.7934
                                                                        44.7504
        32.5004
   -179072.19147   -135265.60244
                  23503348.1024                                   23503344.6414
                                                                        43.0004
        27.2504
   -270763.36347   -201282.31644
                  24498057.0634                                   24498052.6564
                                                                        43.5004
        25.5004
 09 10 22 23 16  0.0000000  0 10G02G04G05G10G13G23G25G29G30G31
  -1290619.73448   -966512.74647
                  20322413.1414                                   20322406.5354
                                                                        53.0004
        43.5004
   -306801.69148   -231954.28546
                  21375099.9924                                   21375096.0594
                                                                        51.0004
        39.0004
  -2435172.18447  -1825902.68745
                  23517678.4694                                   23517673.2624
                                                                        46.0004
        32.5004
  -2384936.19947  -1784155.13745
                  22598370.6254                                   22598366.5784
                                                                        46.5004
        32.2504
  -1491219.31648  -1119591.07446
                  21179835.6414                                   21179830.9734
                                                                        51.5004
        36.0004
   -529690.21548   -397862.78945
                  22133370.0864                                   22133362.9574
                                                                        48.5004
        31.7504
   -274277.18056   -193206.83253
                  24072715.6564                                   24072712.3284
                                                                        41.2504
        21.7504
  -2105840.86747  -1575485.54745
                  23039633.2114                                   23039629.4654
                                                                        45.0004
        31.0004
   -194549.07447   -147325.49244
                  23500402.9534                                   23500399.5784
                                                                        42.2504
        26.2504
   -295023.14146   -220186.05144
                  24493440.4224                                   24493435.6334
                                                                        41.5004
        24.0004
 09 10 22 23 16 30.0000000  0  9G02G04G05G10G13G23G25G29G30
    177306.92248    177326.20347
                  20601750.4144                                   20601743.7624
                                                                        52.5004
        44.0004
   1243879.23048    976368.48446
                  21670184.5944                                   21670180.7384
                                                                        50.2504
        39.0004
  -1067570.09047   -760238.73845
                  23777924.4774                                   23777919.7814
                                                                        47.0004
        32.0004
  -1011973.42647   -714313.99245
                  22859637.0314                                   22859632.8164
                                                                        45.7504
        32.2504
    -39925.59448     11287.15646
                  21456008.0554                                   21456003.0234
                                                                        51.2504
        36.5004
   1002781.43048    796270.94545
                  22424989.4694                                   22424982.4574
                                                                        48.0004
        32.0004
   1113597.25446    888253.95343
                  24336819.2584                                   24336815.3244
                                                                        40.0004
        19.5004
   -708387.99647   -486561.19945
                  23305559.8364                                   23305556.2034
                                                                        45.2504
        31.0004
   1365799.60947   1068530.66044
                  23797327.0394                                   23797323.6804
                                                                        43.0004
        27.0004
 09 10 22 23 17  0.0000000  0  9G02G04G05G10G13G23G25G29G30
     70369.21948     93998.12547
                  20581400.4534                                   20581394.4384
                                                                        52.7504
        43.0004
   1219545.82848    957407.38346
                  21665554.3834                                   21665550.4964
                                                                        50.5004
        39.0004
  -1275225.34547   -922048.04545
                  23738408.6644                                   23738404.2274
                                                                        45.0004
        31.5004
  -1214167.30547   -871867.66445
                  22821160.8204                                   22821157.1374
                                                                        46.5004
        33.5004
   -163416.52348    -84939.53146
                  21432508.4774                                   21432503.0904
                                                                        50.0004
        37.0004
    960356.89848    763212.86345
                  22416916.3054                                   22416909.5044
                                                                        48.0004
        31.7504
    926314.97346    742319.84843
                  24301180.5164                                   24301176.9184
                                                                        39.7504
        19.7504
   -885971.80547   -624938.17245
                  23271766.7504                                   23271762.2074
                                                                        45.5004
        31.2504
   1351145.77746   1057112.06644
                  23794538.4844                                   23794535.7194
                                                                        41.2504
        27.0004
 09 10 22 23 17 30.0000000  0  9G02G04G05G10G13G23G25G29G30
    -35990.47348     11120.46547
                  20561160.7734                                   20561154.5554
                                                                        52.0004
        43.5004
   1195634.26248    938774.97346
                  21661004.0084                                   21661000.1844
                                                                        50.2504
        38.7504
  -1482691.24647  -1083709.78545
                  23698929.0784                                   23698924.9414
                                                                        44.0004
        32.0004
  -1416070.82047  -1029195.03945
                  22782739.8674                                   22782736.2584
                                                                        46.2504
        34.0004
   -286249.78548   -180653.75446
                  21409133.8054                                   21409128.8634
                                                                        50.0004
        36.5004
    918472.98448    730576.05945
                  22408946.2974                                   22408939.1684
                                                                        48.0004
        32.2504
    739322.10546    596611.17643
                  24265597.1024                                   24265592.6844
                                                                        41.2504
        20.2504
  -1063146.11347   -762996.04745
                  23238051.0234                                   23238048.0354
                                                                        46.0004
        32.7504
   1336924.88346   1046030.82044
                  23791832.5084                                   23791829.8364
                                                                        41.0004
        28.0004
 09 10 22 23 18  0.0000000  0  9G02G04G05G10G13G23G25G29G30
   -141752.73048    -71291.65247
                  20541035.1254                                   20541028.8364
                                                                        53.2504
        43.2504
   1172162.66448    920485.39146
                  21656537.3204                                   21656533.6914
                                                                        50.0004
        38.5004
  -1689946.59847  -1245207.40645
                  23659489.8524                                   23659486.0044
                                                                        46.5004
        32.2504
  -1617662.78147  -1186279.64845
                  22744377.7814                                   22744374.4414
                                                                        46.5004
        34.0004
   -408404.77048   -275839.46946
                  21385888.6174                                   21385884.0274
                                                                        50.2504
        36.2504
    877147.53147    698374.46145
                  22401081.9454                                   22401075.4454
                                                                        47.7504
        31.7504
    552641.75446    451146.08643
                  24230072.7734                                   24230068.9384
                                                                        41.0004
        21.5004
  -1239889.70347   -900718.27345
                  23204418.2814                                   23204415.4304
                                                                        45.2504
        33.0004
   1323152.57447   1035299.09444
                  23789211.7194                                   23789208.8714
                                                                        43.0004
        26.0004
 09 10 22 23 18 30.0000000  0  9G02G04G05G10G13G23G25G29G30
   -246918.24648   -153238.80947
                  20521022.6724                                   20521016.4104
                                                                        53.0004
        43.7504
   1149127.29748    902535.72746
                  21652154.0314                                   21652150.1644
                                                                        50.5004
        38.7504
  -1896990.37547  -1406540.16845
                  23620090.3914                                   23620086.5824
                                                                        46.0004
        33.0004
  -1818942.35947  -1343120.84845
                  22706076.0004                                   22706072.0824
                                                                        47.2504
        33.5004
   -529882.10248   -370497.12546
                  21362771.9454                                   21362767.5824
                                                                        50.5004
        36.7504
    836376.99247    666605.25045
                  22393323.6954                                   22393317.4924
                                                                        47.7504
        32.0004
    366274.52047    305924.92643
                  24194608.3984                                   24194604.7234
                                                                        43.5004
        22.7504
  -1416200.62147  -1038103.36745
                  23170867.2814                                   23170864.4734
                                                                        46.0004
        33.2504
   1309825.14546   1024913.96944
                  23786675.3754                                   23786672.6024
                                                                        40.7504
        25.5004
 09 10 22 23 19  0.0000000  0  9G02G04G05G10G13G23G25G29G30
   -351469.77048   -234707.53547
                  20501127.2584                                   20501121.0274
                                                                        52.0004
        43.2504
   1126543.23048    884937.75046
                  21647856.2664                                   21647852.2114
                                                                        50.0004
        38.0004
  -2103804.57847  -1567694.09045
                  23580734.8594                                   23580731.2464
                                                                        45.7504
        32.0004
  -2019890.94947  -1499704.15645
                  22667836.8754                                   22667832.5314
                                                                        47.2504
        34.0004
   -650664.12548   -464612.96546
                  21339788.0084                                   21339783.2704
                                                                        50.7504
        37.0004
    796176.16048    635279.96945
                  22385673.6094                                   22385667.0664
                                                                        49.0004
        32.5004
    180240.67647    160963.64543
                  24159207.7114                                   24159203.4344
                                                                        43.2504
        22.5004
  -1592060.74647  -1175137.21545
                  23137402.1564                                   23137398.8984
                                                                        45.2504
        33.2504
   1296955.71946   1014885.76244
                  23784227.2194                                   23784223.3094
                                                                        41.5004
        26.0004
 09 10 22 23 19 30.0000000  0  9G02G04G05G10G13G23G25G29G30
   -455408.42648   -315698.71147
                  20481348.2894                                   20481342.0004
                                                                        53.0004
        43.5004
   1104406.86748    867688.62546
                  21643643.9844                                   21643640.2814
                                                                        50.5004
        38.7504
  -2310388.22347  -1728668.33645
                  23541423.6724                                   23541419.3874
                                                                        45.5004
        32.2504
  -2220507.36348  -1656028.62545
                  22629660.7194                                   22629656.7234
                                                                        48.0004
        34.0004
   -770752.06248   -558187.87546
                  21316936.1884                                   21316931.3094
                                                                        51.0004
        36.2504
    756540.78147    604395.26245
                  22378131.1644                                   22378124.7854
                                                                        47.5004
        32.5004
     -5459.39546     16262.37143
                  24123869.6174                                   24123866.1024
                                                                        41.5004
        23.5004
  -1767468.91447  -1311818.90245
                  23104022.9144                                   23104020.2304
                                                                        45.2504
        33.0004
   1284539.81647   1005210.87544
                  23781865.0394                                   23781860.8634
                                                                        42.5004
        26.0004
 09 10 22 23 20  0.0000000  0  9G02G04G05G10G13G23G25G29G30
   -558727.91048   -396207.37147
                  20461687.3594                                   20461680.9574
                                                                        53.0004
        43.0004
   1082722.79748    850791.93846
                  21639517.8834                                   21639513.9414
                                                                        50.2504
        38.0004
  -2516733.29347  -1889456.66445
                  23502157.5864                                   23502152.8444
                                                                        45.2504
        32.7504
  -2420783.74247  -1812088.13345
                  22591549.0634                                   22591545.2814
                                                                        46.5004
        34.0004
   -890138.80148   -651216.45746
                  21294217.5164                                   21294212.6684
                                                                        49.5004
        36.2504
    717475.64147    573954.91445
                  22370697.2034                                   22370691.0864
                                                                        47.2504
        31.0004
   -190816.21946   -128171.37543
                  24088597.1094                                   24088593.7034
                                                                        41.2504
        22.2504
  -1942416.39547  -1448141.59445
                  23070731.4694                                   23070728.5744
                                                                        44.2504
        34.0004
   1272580.86347    995892.15244
                  23779588.9924                                   23779585.7234
                                                                        43.5004
        26.2504
 09 10 22 23 20 30.0000000  0  9G02G04G05G10G13G23G25G29G30
   -661424.64148   -476230.78947
                  20442144.3524                                   20442138.6414
                                                                        52.7504
        43.2504
   1061491.74248    834248.24646
                  21635477.4694                                   21635473.8094
                                                                        50.7504
        38.0004
  -2722834.93447  -2050055.35245
                  23462937.5084                                   23462932.7584
                                                                        45.7504
        33.0004
  -2620714.77747  -1967878.55945
                  22553503.6644                                   22553499.7584
                                                                        47.0004
        33.5004
  -1008820.67648   -743695.79746
                  21271633.0864                                   21271628.2464
                                                                        50.0004
        37.2504
    678981.77347    543959.75045
                  22363372.3674                                   22363365.6334
                                                                        47.5004
        32.5004
   -375824.19946   -272333.35243
                  24053391.5314                                   24053387.7464
                                                                        41.0004
        23.0004
  -2116898.15647  -1584101.39545
                  23037528.8594                                   23037525.8874
                                                                        44.7504
        33.7504
   1261078.41047    986929.25044
                  23777400.4844                                   23777396.1414
                                                                        43.0004
        26.0004
 09 10 22 23 21  0.0000000  0  9G02G04G05G10G13G23G25G29G30
   -763493.79348   -555765.14847
                  20422721.6334                                   20422715.5744
                                                                        52.5004
        43.2504
   1040716.19948    818059.50046
                  21631524.1564                                   21631520.5864
                                                                        50.7504
        38.0004
  -2928686.96147  -2210459.51245
                  23423764.8754                                   23423761.1564
                                                                        45.7504
        33.0004
  -2820294.10547  -2123394.95745
                  22515525.1954                                   22515521.3054
                                                                        46.7504
        34.5004
  -1126793.16848   -835622.44146
                  21249183.3284                                   21249178.6254
                                                                        50.0004
        36.5004
    641061.01248    514411.14545
                  22356156.1484                                   22356149.4454
                                                                        48.7504
        31.5004
   -560476.37146   -416218.00043
                  24018252.9064                                   24018249.2624
                                                                        41.2504
        22.0004
  -2290907.52047  -1719693.05945
                  23004415.9224                                   23004413.1294
                                                                        45.7504
        34.0004
   1250033.69947    978322.99244
                  23775297.9924                                   23775295.2154
                                                                        43.7504
        26.5004
 09 10 22 23 21 30.0000000  0  9G02G04G05G10G13G23G25G29G30
   -864934.51248   -634809.85947
                  20403418.1884                                   20403411.5204
                                                                        53.0004
        43.5004
   1020395.17648    802224.92246
                  21627657.3054                                   21627653.1844
                                                                        50.0004
        38.0004
  -3134286.72347  -2370667.09445
                  23384640.8524                                   23384636.6644
                                                                        45.0004
        33.0004
  -3019519.00847  -2278635.14845
                  22477614.0704                                   22477610.2424
                                                                        47.5004
        34.7504
  -1244054.54348   -926995.04346
                  21226869.3594                                   21226864.7854
                                                                        50.0004
        37.2504
    603712.34848    485308.34045
                  22349049.0474                                   22349042.7664
                                                                        48.0004
        32.5004
   -744769.08646   -559822.62543
                  23983182.7194                                   23983179.0164
                                                                        40.5004
        22.0004
  -2464441.44947  -1854914.25845
                  22971394.0944                                   22971389.8404
                                                                        46.2504
        33.5004
   1239443.80947    970071.12144
                  23773283.2664                                   23773279.8714
                                                                        43.5004
        27.0004
 09 10 22 23 22  0.0000000  0  9G02G04G05G10G13G23G25G29G30
   -965744.82448   -713363.38347
                  20384234.3754                                   20384227.8204
                                                                        52.0004
        43.2504
   1000527.86748    786743.91446
                  21623876.6334                                   21623872.8554
                                                                        50.7504
        38.0004
  -3339630.49647  -2530675.22345
                  23345565.5864                                   23345561.1024
                                                                        45.5004
        33.2504
  -3218385.72747  -2433596.26645
                  22439770.5474                                   22439766.9654
                                                                        47.5004
        34.2504
  -1360602.94148  -1017812.00046
                  21204691.1484                                   21204686.2234
                                                                        50.2504
        36.5004
    566934.81647    456650.59845
                  22342050.5634                                   22342043.6334
                                                                        47.0004
        31.7504
   -928698.82446   -703144.42243
                  23948182.5784                                   23948178.1564
                                                                        40.2504
        20.7504
  -2637495.94147  -1989761.90645
                  22938462.5944                                   22938458.8984
                                                                        46.0004
        33.2504
   1229308.04347    962173.14844
                  23771354.1484                                   23771351.0234
                                                                        43.7504
        25.0004
 09 10 22 23 22 30.0000000  0  9G02G04G05G10G13G23G25G29G30
  -1065920.41048   -791422.30547
                  20365171.9454                                   20365165.7544
                                                                        52.7504
        43.0004
    981116.31648    771618.03546
                  21620182.7814                                   21620178.8714
                                                                        51.2504
        37.5004
  -3544712.73847  -2690479.59445
                  23306539.3364                                   23306534.8014
                                                                        46.0004
        34.2504
  -3416888.26647  -2588273.62145
                  22401997.1254                                   22401993.0274
                                                                        47.5004
        34.5004
  -1476433.77748  -1108069.78146
                  21182649.2344                                   21182644.2114
                                                                        49.7504
        36.5004
    530730.38347    428439.45745
                  22335160.3364                                   22335154.1564
                                                                        47.2504
        31.7504
  -1112258.46146   -846177.84443
                  23913252.1724                                   23913247.9884
                                                                        41.5004
        22.2504
  -2810065.25047  -2124231.48445
                  22905623.6484                                   22905619.8324
                                                                        44.5004
        32.7504
   1219626.47747    954629.04744
                  23769511.6254                                   23769508.9264
                                                                        43.7504
        26.2504
 09 10 22 23 23  0.0000000  0  9G02G04G05G10G13G23G25G29G30
  -1165460.58648   -868986.07047
                  20346229.7664                                   20346223.5784
                                                                        52.5004
        43.5004
    962159.45748    756846.45746
                  21616575.0944                                   21616571.3404
                                                                        50.5004
        37.5004
  -3749531.05147  -2850078.29745
                  23267563.6484                                   23267559.5394
                                                                        47.2504
        34.2504
  -3615024.12947  -2742665.25445
                  22364292.8524                                   22364289.3284
                                                                        47.7504
        34.0004
  -1591546.04748  -1197767.71546
                  21160744.2584                                   21160739.3404
                                                                        49.5004
        36.7504
    495097.69147    400673.76245
                  22328380.1564                                   22328373.2814
                                                                        46.2504
        31.2504
  -1295444.30947   -988919.98443
                  23878393.0394                                   23878389.0314
                                                                        42.5004
        22.2504
  -2982146.68747  -2258320.90645
                  22872877.5084                                   22872874.2464
                                                                        44.2504
        33.0004
   1210396.09447    947436.48044
                  23767755.7114                                   23767752.0664
                                                                        43.7504
        26.5004
 09 10 22 23 23 30.0000000  0  9G02G04G05G10G13G23G25G29G30
  -1264360.90248   -946051.25047
                  20327409.9304                                   20327403.3284
                                                                        52.5004
        43.7504
    943658.94148    742430.46946
                  21613054.6334                                   21613050.8954
                                                                        50.2504
        37.7504
  -3954079.07047  -3009466.37945
                  23228639.4384                                   23228635.3444
                                                                        47.2504
        34.2504
  -3812786.79347  -2896766.04745
                  22326660.1724                                   22326656.5864
                                                                        47.2504
        33.7504
  -1705935.29748  -1286902.29346
                  21138976.8284                                   21138971.9264
                                                                        50.0004
        36.0004
    460038.41847    373354.93445
                  22321708.1094                                   22321702.0594
                                                                        47.0004
        30.2504
  -1478250.30146  -1131366.12943
                  23843606.2894                                   23843602.4804
                                                                        41.5004
        22.7504
  -3153733.30547  -2392024.76245
                  22840225.6484                                   22840222.4804
                                                                        44.2504
        33.0004
   1201618.46147    940596.71144
                  23766085.0004                                   23766081.5474
                                                                        44.2504
        26.2504
 09 10 22 23 24  0.0000000  0  9G02G04G05G10G13G23G25G29G30
  -1362625.90648  -1022621.37547
                  20308710.3754                                   20308704.2734
                                                                        52.7504
        43.2504
    925607.78948    728364.62946
                  21609619.6884                                   21609616.1684
                                                                        50.0004
        37.5004
  -4158359.34447  -3168645.77045
                  23189766.6334                                   23189762.1604
                                                                        46.2504
        33.2504
  -4010178.43447  -3050577.73845
                  22289097.6024                                   22289093.6604
                                                                        47.7504
        35.2504
  -1819606.10248  -1375476.96946
                  21117345.5634                                   21117341.0634
                                                                        50.0004
        36.7504
    425544.65647    346476.75044
                  22315144.3134                                   22315137.7854
                                                                        47.0004
        29.7504
  -1660678.99646  -1273518.23843
                  23808890.9064                                   23808887.0634
                                                                        41.7504
        23.0004
  -3324827.43747  -2525344.84445
                  22807667.0634                                   22807664.0984
                                                                        45.2504
        34.0004
   1193286.28947    934104.12544
                  23764499.6884                                   23764496.9264
                                                                        43.2504
        25.7504
 09 10 22 23 24 30.0000000  0  9G02G04G05G10G13G23G25G29G30
    115173.23848    128910.42647
                  20589926.1254                                   20589920.1294
                                                                        53.0004
        42.5004
   2483430.75448   1942252.66446
                  21906063.6414                                   21906059.8554
                                                                        49.2504
        37.7504
  -2786938.84447  -2100006.39845
                  23450738.5554                                   23450734.3284
                                                                        45.7504
        32.2504
  -2631765.66448  -1976489.88345
                  22551400.6414                                   22551396.9574
                                                                        48.0004
        35.5004
   -357128.07448   -235883.72346
                  21395646.1954                                   21395641.4224
                                                                        49.5004
        36.0004
   1967042.38747   1547643.90245
                  22608481.5164                                   22608474.9884
                                                                        47.5004
        30.7504
   -267295.17247   -187764.51644
                  24074043.3054                                   24074039.2114
                                                                        42.5004
        25.2504
  -1919996.29347  -1430671.22745
                  23074998.1414                                   23074994.8484
                                                                        44.2504
        33.7504
   2760820.43047   2155559.25843
                  24062790.9384                                   24062787.9964
                                                                        44.5004
        23.7504
 09 10 22 23 25  0.0000000  0  9G02G04G05G10G13G23G25G29G30
     18188.94948     53338.23047
                  20571471.0634                                   20571464.6884
                                                                        52.2504
        43.2504
   2466282.66848   1928890.52346
                  21902800.5314                                   21902796.6994
                                                                        50.5004
        37.7504
  -2990669.59847  -2258757.64545
                  23411970.2664                                   23411965.5204
                                                                        45.2504
        33.0004
  -2828400.47347  -2129711.74645
                  22513982.9774                                   22513978.5824
                                                                        47.7504
        35.2504
   -469350.25848   -323329.57446
                  21374290.9384                                   21374286.4774
                                                                        49.7504
        36.7504
   1933684.88747   1521651.16045
                  22602133.9304                                   22602127.3714
                                                                        46.5004
        31.7504
   -448950.65247   -329314.37544
                  24039475.7194                                   24039471.2504
                                                                        42.2504
        24.7504
  -2090090.20347  -1563211.91445
                  23042630.0164                                   23042627.3874
                                                                        44.2504
        34.0004
   2753377.25047   2149759.39844
                  24061374.7344                                   24061371.1804
                                                                        44.0004
        25.2504
 09 10 22 23 25 30.0000000  0  9G02G04G05G10G13G23G25G29G30
    -78155.17248    -21735.13347
                  20553137.0084                                   20553130.6914
                                                                        53.5004
        43.0004
   2449582.75848   1915877.60946
                  21899622.3134                                   21899618.6884
                                                                        50.0004
        38.0004
  -3194123.27047  -2417293.01245
                  23373253.8914                                   23373249.7624
                                                                        45.5004
        34.2504
  -3024654.08647  -2282636.56645
                  22476636.3834                                   22476633.1524
                                                                        47.2504
        34.7504
   -580848.33248   -410211.19546
                  21353073.4844                                   21353068.9224
                                                                        49.2504
        37.0004
   1900891.39847   1496097.83245
                  22595893.7424                                   22595887.0944
                                                                        47.0004
        32.5004
   -630216.06246   -470560.23043
                  24004982.2814                                   24004977.5634
                                                                        41.7504
        22.0004
  -2259681.12547  -1695360.63745
                  23010358.0394                                   23010355.1254
                                                                        45.2504
        34.5004
   2746373.07947   2144301.50644
                  24060042.2424                                   24060038.9384
                                                                        43.7504
        25.5004
 09 10 22 23 26  0.0000000  0  9G02G04G05G10G13G23G25G29G30
   -173858.88348    -96309.49647
                  20534925.3364                                   20534918.9804
                                                                        53.0004
        43.0004
   2433328.93448   1903212.30146
                  21896529.5864                                   21896525.8954
                                                                        49.5004
        37.5004
  -3397297.70747  -2575610.74245
                  23334591.2034                                   23334587.7814
                                                                        45.7504
        34.5004
  -3220524.77048  -2435263.02345
                  22439363.4454                                   22439359.7504
                                                                        48.0004
        35.2504
   -691621.65248   -496528.09046
                  21331994.1334                                   21331989.5824
                                                                        49.0004
        37.0004
   1868659.73847   1470982.30945
                  22589760.4694                                   22589752.8834
                                                                        47.5004
        31.5004
   -811088.24646   -611499.57443
                  23970562.7504                                   23970559.1644
                                                                        40.5004
        22.5004
  -2428766.93747  -1827115.77745
                  22978181.9694                                   22978179.1214
                                                                        45.0004
        35.0004
   2739804.92247   2139183.43844
                  24058791.9844                                   24058789.2504
                                                                        43.0004
        25.5004
 09 10 22 23 26 30.0000000  0  9G02G04G05G10G13G23G25G29G30
   -268924.13348   -170386.32047
                  20516835.2344                                   20516828.7384
                                                                        52.5004
        43.0004
   2417516.62148   1890890.99646
                  21893520.6884                                   21893517.0354
                                                                        50.5004
        37.5004
  -3600192.86747  -2733710.85945
                  23295981.9304                                   23295977.7974
                                                                        46.7504
        35.5004
  -3416012.38748  -2587590.99645
                  22402163.0164                                   22402159.2464
                                                                        48.2504
        34.5004
   -801672.69148   -582282.17646
                  21311051.9144                                   21311047.5394
                                                                        49.7504
        36.2504
   1836985.24247   1446300.94945
                  22583732.8054                                   22583725.6334
                                                                        46.7504
        31.0004
   -991567.61046   -752132.83543
                  23936218.9304                                   23936215.2114
                                                                        40.5004
        22.5004
  -2597347.13747  -1958476.93745
                  22946102.3444                                   22946099.3484
                                                                        45.5004
        34.2504
   2733667.66447   2134401.14044
                  24057624.3594                                   24057621.4694
                                                                        43.5004
        25.2504
 09 10 22 23 27  0.0000000  0  9G02G04G05G10G13G23G25G29G30
   -363351.43448   -243966.00047
                  20498866.1174                                   20498859.7704
                                                                        52.5004
        43.5004
   2402144.02048   1878912.34846
                  21890595.3444                                   21890591.4024
                                                                        49.2504
        37.7504
  -3802807.84447  -2891592.60945
                  23257425.5234                                   23257421.6524
                                                                        47.7504
        35.0004
  -3611115.59447  -2739619.45345
                  22365036.7274                                   22365032.4924
                                                                        47.5004
        34.5004
   -911000.51248   -667472.71146
                  21290247.9614                                   21290243.3444
                                                                        49.0004
        37.2504
   1805865.52047   1422051.85245
                  22577810.6174                                   22577803.4144
                                                                        46.7504
        30.5004
  -1171651.13447   -892457.61544
                  23901949.7974                                   23901946.2114
                                                                        42.0004
        24.2504
  -2765421.43047  -2089443.87945
                  22914119.5004                                   22914115.4064
                                                                        45.7504
        35.0004
   2727956.53547   2129950.83244
                  24056537.9534                                   24056534.5434
                                                                        42.5004
        24.2504
 09 10 22 23 27 30.0000000  0  9G02G04G05G10G13G23G25G29G30
   -457137.75048   -317046.19547
                  20481019.2344                                   20481012.5904
                                                                        52.2504
        43.0004
   2387211.21148   1867276.39846
                  21887753.9454                                   21887750.1024
                                                                        50.5004
        37.7504
  -4005137.51647  -3049252.07445
                  23218923.0944                                   23218918.8714
                                                                        46.7504
        34.0004
  -3805828.94548  -2891344.11745
                  22327983.9924                                   22327979.9304
                                                                        48.5004
        35.2504
  -1019603.47348   -752098.41846
                  21269581.2504                                   21269576.4774
                                                                        48.7504
        37.2504
   1775300.58247   1398235.03145
                  22571993.7504                                   22571987.0204
                                                                        46.5004
        31.2504
  -1351334.50047  -1032470.67244
                  23867757.5554                                   23867753.5314
                                                                        42.0004
        25.2504
  -2932982.82047  -2220011.19145
                  22882232.7114                                   22882229.1524
                                                                        46.0004
        33.7504
   2722672.61746   2125833.52044
                  24055532.0554                                   24055529.1134
                                                                        41.2504
        24.0004
 09 10 22 23 28  0.0000000  0  9G02G04G05G10G13G23G25G29G30
   -550288.05948   -389630.81247
                  20463293.3524                                   20463286.8794
                                                                        51.7504
        42.7504
   2372711.27348   1855977.74246
                  21884994.3674                                   21884990.6254
                                                                        49.5004
        37.2504
  -4207185.36747  -3206691.93745
                  23180474.2734                                   23180470.6374
                                                                        46.5004
        33.2504
  -4000156.06647  -3042767.87545
                  22291004.4384                                   22291000.6484
                                                                        47.2504
        35.5004
  -1127485.46148   -836162.31646
                  21249052.2814                                   21249047.4344
                                                                        49.5004
        37.2504
   1745283.55147   1374845.14145
                  22566281.9304                                   22566275.3874
                                                                        45.0004
        30.2504
  -1530619.57046  -1172173.32444
                  23833640.0314                                   23833636.9844
                                                                        41.5004
        25.0004
  -3100035.45747  -2350182.05945
                  22850443.7114                                   22850440.6134
                                                                        44.5004
        34.0004
   2717806.74246   2122041.87144
                  24054605.7504                                   24054603.0594
                                                                        41.2504
        25.2504
 09 10 22 23 28 30.0000000  0  9G02G04G05G10G13G23G25G29G30
   -642801.26648   -461719.03947
                  20445688.6884                                   20445682.4774
                                                                        51.2504
        43.5004
   2358643.35548   1845015.72746
                  21882317.3984                                   21882313.9264
                                                                        50.0004
        37.5004
  -4408948.11347  -3363909.64145
                  23142080.1024                                   23142076.0044
                                                                        46.7504
        33.5004
  -4194093.34047  -3193887.82845
                  22254099.6484                                   22254096.0744
                                                                        47.7504
        35.7504
  -1234645.33248   -919663.51246
                  21228660.1564                                   21228655.3834
                                                                        49.5004
        36.7504
   1715813.26247   1351881.25045
                  22560673.9064                                   22560667.4144
                                                                        45.7504
        30.0004
  -1709502.52347  -1311562.68444
                  23799600.6954                                   23799596.1094
                                                                        42.0004
        24.0004
  -3266575.80147  -2479953.74245
                  22818751.7424                                   22818749.0084
                                                                        46.0004
        34.0004
   2713357.03547   2118574.56644
                  24053759.7894                                   24053756.2384
                                                                        42.7504
        25.7504
 09 10 22 23 29  0.0000000  0  9G02G04G05G10G13G23G25G29G30
   -734677.62148   -533311.01647
                  20428205.1414                                   20428198.6024
                                                                        51.5004
        43.5004
   2345005.58248   1834388.89846
                  21879721.8444                                   21879718.1644
                                                                        49.2504
        37.2504
  -4610424.39547  -3520904.12145
                  23103741.0234                                   23103736.4774
                                                                        47.2504
        34.5004
  -4387638.85948  -3344702.51646
                  22217269.0554                                   22217265.7624
                                                                        48.0004
        36.7504
  -1341082.70148  -1002601.69946
                  21208405.9384                                   21208401.1174
                                                                        48.5004
        36.7504
   1686887.41847   1329341.64145
                  22555169.3754                                   22555162.4924
                                                                        46.2504
        30.5004
  -1887980.65847  -1450636.57544
                  23765637.5004                                   23765633.2894
                                                                        42.2504
        25.0004
  -3432602.15247  -2609324.91445
                  22787158.4614                                   22787155.1454
                                                                        44.7504
        33.0004
   2709319.34947   2115428.30444
                  24052991.0004                                   24052988.1254
                                                                        42.5004
        24.7504
 09 10 22 23 29 30.0000000  0  9G02G04G05G10G13G23G25G29G30
   -825917.43448   -604406.98047
                  20410842.7814                                   20410836.2894
                                                                        52.2504
        43.5004
   2331794.50448   1824094.52746
                  21877208.0084                                   21877204.2234
                                                                        49.2504
        37.5004
  -4811612.06248  -3677673.71945
                  23065456.3674                                   23065451.5164
                                                                        48.2504
        34.2504
  -4580790.73447  -3495210.43746
                  22180513.4844                                   22180510.4494
                                                                        46.7504
        36.0004
  -1446799.31648  -1084978.28146
                  21188288.6484                                   21188283.7734
                                                                        48.0004
        36.2504
   1658501.75848   1307222.94945
                  22549768.1644                                   22549761.0634
                                                                        48.0004
        31.5004
  -2066053.34846  -1589394.53543
                  23731751.7274                                   23731746.4104
                                                                        41.2504
        22.7504
  -3598112.14147  -2738293.69145
                  22755662.6254                                   22755659.9344
                                                                        44.2504
        33.7504
   2705691.00847   2112600.98844
                  24052300.6484                                   24052297.8984
                                                                        42.7504
        26.5004
 09 10 22 23 30  0.0000000  0  9G02G04G05G10G13G23G25G29G30
   -916522.17648   -675008.07847
                  20393601.1094                                   20393595.0354
                                                                        52.0004
        43.5004
   2319006.99248   1814130.20746
                  21874774.5314                                   21874771.0904
                                                                        49.0004
        36.7504
  -5012511.32048  -3834218.53945
                  23027226.6724                                   23027222.3674
                                                                        48.5004
        35.2504
  -4773549.51248  -3645412.06246
                  22143832.6804                                   22143829.0634
                                                                        48.2504
        36.2504
  -1551795.37948  -1166793.39846
                  21168308.6334                                   21168303.6684
                                                                        49.2504
        37.2504
   1630653.84447   1285523.27345
                  22544468.5864                                   22544462.1054
                                                                        46.5004
        31.0004
  -2243717.98246  -1727834.51843
                  23697942.7274                                   23697938.1804
                                                                        39.7504
        22.5004
  -3763106.00447  -2866860.31645
                  22724265.7034                                   22724263.1024
                                                                        45.7504
        34.7504
   2702466.10947   2110088.03544
                  24051687.4224                                   24051684.0784
                                                                        42.2504
        24.0004
 09 10 22 23 30 30.0000000  0  9G02G04G05G10G13G23G25G29G30
  -1006491.18048   -745113.82447
                  20376480.7194                                   20376474.5784
                                                                        52.0004
        43.0004
   2306641.86348   1804495.00046
                  21872421.5704                                   21872418.0354
                                                                        50.0004
        37.0004
  -5213119.66448  -3990536.67245
                  22989051.6334                                   22989047.8284
                                                                        48.0004
        35.2504
  -4965912.03548  -3795304.89845
                  22107227.1954                                   22107223.1914
                                                                        48.0004
        35.5004
  -1656070.44548  -1248046.65246
                  21148465.5634                                   21148461.0394
                                                                        49.0004
        37.0004
   1603341.74247   1264241.09445
                  22539271.5474                                   22539264.5204
                                                                        45.7504
        30.2504
  -2420971.69146  -1865954.16043
                  23664211.9454                                   23664208.4224
                                                                        40.2504
        22.7504
  -3927580.30147  -2995022.05945
                  22692967.3054                                   22692964.0554
                                                                        45.5004
        34.5004
   2699642.46946   2107887.65644
                  24051150.1484                                   24051146.5474
                                                                        40.7504
        24.0004
 09 10 22 23 31  0.0000000  0  9G02G04G05G10G13G23G25G29G30
  -1095826.13348   -814725.47347
                  20359480.8204                                   20359474.2274
                                                                        51.5004
        43.5004
   2294695.12148   1795185.83246
                  21870148.4304                                   21870144.5824
                                                                        49.2504
        37.2504
  -5413436.59448  -4146627.80945
                  22950932.5864                                   22950929.0594
                                                                        48.0004
        35.5004
  -5157877.58647  -3944888.44146
                  22070697.2664                                   22070693.7424
                                                                        47.2504
        36.0004
  -1759626.33648  -1328739.48446
                  21128759.1024                                   21128754.5784
                                                                        49.5004
        37.2504
   1576561.10547   1243373.07044
                  22534175.3204                                   22534168.2734
                                                                        44.7504
        29.7504
  -2597814.20346  -2003753.37944
                  23630559.7194                                   23630556.3674
                                                                        40.0004
        24.2504
  -4091534.78547  -3122778.72745
                  22661767.5864                                   22661764.3594
                                                                        45.7504
        34.7504
   2697215.47347   2105996.43044
                  24050687.7894                                   24050685.2194
                                                                        42.5004
        24.5004
 09 10 22 23 31 30.0000000  0  9G02G04G05G10G13G23G25G29G30
  -1184525.44548   -883841.83247
                  20342602.4064                                   20342595.8554
                                                                        51.5004
        43.2504
   2283166.48848   1786202.46946
                  21867954.8984                                   21867950.7664
                                                                        49.0004
        37.2504
  -5613458.86347  -4302489.31245
                  22912869.2114                                   22912866.1684
                                                                        47.0004
        34.5004
  -5349443.00048  -4094160.19546
                  22034243.6254                                   22034239.4064
                                                                        48.2504
        36.0004
  -1862461.12548  -1408870.50046
                  21109190.9144                                   21109186.4964
                                                                        49.7504
        36.7504
   1550311.47747   1222918.79345
                  22529180.4454                                   22529173.5514
                                                                        45.5004
        30.2504
  -2774240.75046  -2141228.53144
                  23596987.5234                                   23596983.4384
                                                                        39.2504
        25.0004
  -4254966.18447  -3250127.79745
                  22630667.9614                                   22630664.3554
                                                                        46.7504
        35.0004
   2695182.69547   2104412.34443
                  24050301.3204                                   24050297.9304
                                                                        43.5004
        23.2504
 09 10 22 23 32  0.0000000  0  9G02G04G05G10G13G23G25G29G30
  -1272588.62148   -952462.48047
                  20325843.8524                                   20325837.8954
                                                                        51.2504
        43.0004
   2272054.22348   1777543.56346
                  21865840.1884                                   21865835.9534
                                                                        48.5004
        36.5004
  -5813183.45347  -4458118.87945
                  22874863.5084                                   22874859.1294
                                                                        47.7504
        34.5004
  -5540605.21148  -4243117.81245
                  21997867.0394                                   21997863.2934
                                                                        48.2504
        35.7504
  -1964574.69548  -1488439.51646
                  21089758.9384                                   21089754.2774
                                                                        49.7504
        36.7504
   1524590.54347   1202876.47345
                  22524285.6174                                   22524278.9924
                                                                        46.5004
        30.2504
  -2950248.81247  -2278377.64144
                  23563494.6254                                   23563490.1884
                                                                        42.2504
        27.2504
  -4417870.98447  -3377066.54345
                  22599668.1644                                   22599664.6644
                                                                        46.5004
        35.5004
   2693542.45347   2103134.16443
                  24049988.6484                                   24049985.7074
                                                                        42.5004
        22.5004
 09 10 22 23 32 30.0000000  0  9G02G04G05G10G13G23G25G29G30
  -1360019.68048  -1020590.59047
                  20309206.5234                                   20309199.7854
                                                                        51.0004
        43.2504
   2261352.95348   1769204.90646
                  21863803.4924                                   21863799.4924
                                                                        48.7504
        36.5004
  -6012612.71947  -4613518.30545
                  22836913.8674                                   22836909.5044
                                                                        47.7504
        35.0004
  -5731366.27048  -4391762.78146
                  21961566.6884                                   21961562.3244
                                                                        48.2504
        36.2504
  -2065969.71948  -1567448.51246
                  21070464.1094                                   21070459.3364
                                                                        49.5004
        37.0004
   1499392.84047   1183241.87945
                  22519490.6414                                   22519484.0204
                                                                        46.0004
        30.0004
  -3125838.57446  -2415200.74644
                  23530080.5704                                   23530075.9694
                                                                        41.5004
        25.7504
  -4580251.52047  -3503596.74245
                  22568767.7034                                   22568764.6844
                                                                        45.0004
        35.0004
   2692286.50447   2102155.48043
                  24049750.2664                                   24049746.9654
                                                                        43.0004
        22.2504
 09 10 22 23 33  0.0000000  0  8G02G04G05G10G13G23G25G29
    128604.68048    139376.45347
                  20592482.0944                                   20592475.8834
                                                                        51.2504
        43.0004
   3826480.48048   2988784.79345
                  22161637.3984                                   22161633.7274
                                                                        49.7504
        35.5004
  -4636317.83248  -3541080.73846
                  23098813.5554                                   23098809.2734
                                                                        48.5004
        36.0004
  -4346297.08648  -3312488.07846
                  22225136.5084                                   22225132.4224
                                                                        48.7504
        36.5004
   -591223.83648   -418295.84446
                  21351099.3364                                   21351094.2584
                                                                        49.2504
        36.7504
   3050136.32047   2391613.37944
                  22814587.2194                                   22814580.6094
                                                                        45.5004
        29.2504
  -1725583.02047  -1324092.64844
                  23796539.9144                                   23796535.8874
                                                                        42.7504
        24.0004
  -3166679.84447  -2402112.20345
                  22837761.2034                                   22837758.0594
                                                                        45.0004
        35.2504
 09 10 22 23 33 30.0000000  0  8G02G04G05G10G13G23G25G29
     42441.00048     72235.93047
                  20576085.8134                                   20576079.5984
                                                                        52.2504
        43.0004
   3816597.07048   2981083.45346
                  22159756.7274                                   22159752.5474
                                                                        49.5004
        36.2504
  -4835147.52348  -3696012.98445
                  23060977.4694                                   23060973.3794
                                                                        48.7504
        35.7504
  -4536246.47748  -3460500.59046
                  22188990.4534                                   22188986.2234
                                                                        48.5004
        36.2504
   -691181.10948   -496184.73846
                  21332077.5554                                   21332073.2114
                                                                        50.0004
        36.7504
   3025979.79747   2372790.07844
                  22809990.4384                                   22809983.9574
                                                                        46.0004
        28.5004
  -1900327.71146  -1460257.39843
                  23763287.1724                                   23763282.8754
                                                                        41.5004
        23.7504
  -3328002.71547  -2527818.27345
                  22807062.6644                                   22807059.1334
                                                                        45.0004
        34.7504
 09 10 22 23 34  0.0000000  0  8G02G04G05G10G13G23G25G29
    -43085.43748      5591.96947
                  20559810.7814                                   20559804.5234
                                                                        52.2504
        43.2504
   3807123.07448   2973701.10945
                  22157953.8914                                   22157950.4844
                                                                        49.2504
        35.7504
  -5033670.59448  -3850706.30145
                  23023199.8594                                   23023195.5314
                                                                        48.0004
        35.0004
  -4725782.93448  -3608191.34445
                  22152922.3134                                   22152918.1094
                                                                        48.2504
        35.7504
   -790415.45348   -573510.15246
                  21313194.2344                                   21313189.7814
                                                                        50.0004
        37.0004
   3002344.37547   2354372.85544
                  22805492.9304                                   22805486.4614
                                                                        45.7504
        29.2504
  -2074642.19146  -1596086.96543
                  23730116.5474                                   23730112.3134
                                                                        40.5004
        23.5004
  -3488789.53147  -2653106.68745
                  22776465.8984                                   22776462.2114
                                                                        45.5004
        34.5004
 09 10 22 23 34 30.0000000  0  8G02G04G05G10G13G23G25G29
   -127968.59048    -60550.72347
                  20543657.8204                                   20543651.7154
                                                                        52.0004
        43.2504
   3798062.84448   2966641.17246
                  22156229.7814                                   22156225.8954
                                                                        48.5004
        36.2504
  -5231879.46148  -4005154.83645
                  22985482.2194                                   22985477.8714
                                                                        49.0004
        35.5004
  -4914898.73848  -3755554.38745
                  22116935.0234                                   22116930.3484
                                                                        49.0004
        35.5004
   -888920.42248   -650267.13746
                  21294449.1644                                   21294444.6844
                                                                        49.2504
        37.2504
   2979233.36747   2336364.27044
                  22801094.8134                                   22801088.2584
                                                                        44.2504
        29.0004
  -2248517.26247  -1731574.01643
                  23697029.3524                                   23697025.0784
                                                                        42.2504
        23.2504
  -3649032.48447  -2777971.26645
                  22745972.6644                                   22745968.9574
                                                                        46.0004
        34.2504
 09 10 22 23 35  0.0000000  0  8G02G04G05G10G13G23G25G29
   -212207.05548   -126191.08247
                  20527627.8364                                   20527621.5354
                                                                        53.0004
        43.0004
   3789415.87548   2959903.26246
                  22154584.5784                                   22154580.6094
                                                                        49.5004
        36.5004
  -5429769.96548  -4159355.27746
                  22947824.8364                                   22947820.6524
                                                                        48.7504
        36.2504
  -5103589.77048  -3902586.41046
                  22081028.2974                                   22081024.3674
                                                                        48.0004
        36.0004
   -986695.16448   -726455.03946
                  21275842.8284                                   21275838.3054
                                                                        50.0004
        36.7504
   2956646.34447   2318764.02745
                  22796796.7114                                   22796789.7704
                                                                        46.5004
        30.2504
  -2421949.10947  -1866715.55943
                  23664026.2274                                   23664022.1564
                                                                        42.0004
        22.7504
  -3808727.46547  -2902408.89545
                  22715583.7344                                   22715579.9144
                                                                        45.2504
        35.0004
 09 10 22 23 35 30.0000000  0  8G02G04G05G10G13G23G25G29
   -295812.81248   -191338.41447
                  20511718.0704                                   20511711.9064
                                                                        53.0004
        42.7504
   3781168.46948   2953476.69946
                  22153015.0784                                   22153011.2464
                                                                        49.0004
        36.2504
  -5627352.45348  -4313315.65245
                  22910226.0704                                   22910221.8134
                                                                        49.0004
        35.7504
  -5291866.27748  -4049295.42646
                  22045200.2274                                   22045196.4064
                                                                        48.0004
        36.5004
  -1083751.46548   -802083.19146
                  21257373.7034                                   21257368.8134
                                                                        49.2504
        37.0004
   2934569.11347   2301560.98445
                  22792595.4144                                   22792589.0354
                                                                        45.5004
        30.7504
  -2594946.67247  -2001518.71144
                  23631105.9774                                   23631101.6804
                                                                        42.2504
        24.0004
  -3967884.95747  -3026427.69145
                  22685296.8054                                   22685293.4144
                                                                        46.5004
        35.2504
 09 10 22 23 36  0.0000000  0  8G02G04G05G10G13G23G25G29
   -378792.52748   -255997.91047
                  20495927.7034                                   20495921.6524
                                                                        52.7504
        42.7504
   3773311.55148   2947354.40646
                  22151520.4774                                   22151516.5394
                                                                        48.5004
        36.2504
  -5824631.59848  -4467039.74245
                  22872685.1644                                   22872680.8834
                                                                        48.7504
        35.5004
  -5479732.50448  -4195684.68046
                  22009450.7034                                   22009447.1134
                                                                        48.5004
        37.5004
  -1180096.37548   -877157.07046
                  21239040.0634                                   21239034.7734
                                                                        49.2504
        37.0004
   2912992.22747   2284747.85544
                  22788490.0234                                   22788482.9104
                                                                        45.5004
        29.7504
  -2767514.70347  -2135987.15243
                  23598266.9454                                   23598262.0824
                                                                        43.2504
        23.5004
  -4126508.81047  -3150030.68345
                  22655111.7734                                   22655108.2624
                                                                        47.2504
        35.5004
 09 10 22 23 36 30.0000000  0  8G02G04G05G10G13G23G25G29
   -461145.75448   -320169.23047
                  20480256.3284                                   20480250.2894
                                                                        52.5004
        42.5004
   3765844.20748   2941535.69945
                  22150098.3674                                   22150094.9144
                                                                        49.7504
        35.5004
  -6021604.23848  -4620524.98446
                  22835202.3444                                   22835198.6564
                                                                        48.5004
        36.2504
  -5667185.89148  -4341752.24246
                  21973779.8054                                   21973776.2384
                                                                        48.2504
        37.2504
  -1275728.75848   -951675.75046
                  21220841.4694                                   21220836.7194
                                                                        48.5004
        36.5004
   2891914.54347   2268323.67244
                  22784478.8754                                   22784471.6994
                                                                        44.5004
        29.5004
  -2939649.37147  -2270117.93044
                  23565510.7894                                   23565506.1764
                                                                        43.7504
        26.2504
  -4284596.97347  -3273216.30945
                  22625028.9924                                   22625024.9964
                                                                        46.7504
        35.0004
 09 10 22 23 37  0.0000000  0  8G02G04G05G10G13G23G25G29
   -542880.78548   -383858.85947
                  20464702.9384                                   20464696.0634
                                                                        52.5004
        42.7504
   3758755.65648   2936012.14845
                  22148749.8754                                   22148746.6374
                                                                        49.0004
        35.7504
  -6218276.64148  -4773776.23845
                  22797777.2274                                   22797773.0274
                                                                        48.2504
        35.5004
  -5854232.30548  -4487502.71946
                  21938185.6804                                   21938182.0124
                                                                        48.7504
        36.5004
  -1370657.87948  -1025646.45746
                  21202777.1644                                   21202772.5944
                                                                        49.5004
        37.0004
   2871324.54347   2252279.48444
                  22780560.6644                                   22780553.5234
                                                                        45.5004
        28.2504
  -3111357.18747  -2403916.04344
                  23532835.4534                                   23532831.8054
                                                                        44.2504
        26.0004
  -4442154.65647  -3395988.49245
                  22595046.4534                                   22595042.4344
                                                                        47.0004
        35.5004
 09 10 22 23 37 30.0000000  0  8G02G04G05G10G13G23G25G29
   -623994.49648   -447064.36347
                  20449267.2894                                   20449261.1024
                                                                        52.7504
        43.0004
   3752047.62948   2930785.10546
                  22147473.6884                                   22147469.4964
                                                                        49.2504
        36.0004
  -6414643.69147  -4926789.42245
                  22760409.3524                                   22760405.5274
                                                                        47.7504
        35.7504
  -6040866.37548  -4632931.87546
                  21902670.1884                                   21902666.6484
                                                                        49.2504
        36.7504
  -1464879.81648  -1099066.08246
                  21184847.6724                                   21184842.7154
                                                                        49.2504
        37.2504
   2851223.98847   2236616.77044
                  22776735.4774                                   22776728.4264
                                                                        45.5004
        28.2504
  -3282631.48447  -2537376.34844
                  23500242.8984                                   23500238.9734
                                                                        43.5004
        26.0004
  -4599176.84447  -3518343.42645
                  22565166.2664                                   22565162.2894
                                                                        46.5004
        35.2504
 09 10 22 23 38  0.0000000  0  8G02G04G05G10G13G23G25G29
   -704488.76248   -509787.17647
                  20433949.7584                                   20433943.3094
                                                                        52.0004
        42.7504
   3745716.54348   2925851.79345
                  22146268.9774                                   22146264.8014
                                                                        49.2504
        35.2504
  -6610705.60248  -5079564.86346
                  22723100.2734                                   22723096.2934
                                                                        48.7504
        37.5004
  -6227088.18448  -4778039.78146
                  21867233.6174                                   21867229.8914
                                                                        49.2504
        37.2504
  -1558396.42248  -1171936.14146
                  21167051.6884                                   21167046.7274
                                                                        48.7504
        36.2504
   2831608.45747   2221331.90644
                  22773002.8444                                   22772995.9844
                                                                        44.5004
        28.5004
  -3453471.12947  -2670497.91044
                  23467732.8364                                   23467729.3714
                                                                        43.0004
        26.5004
  -4755663.88747  -3640281.37545
                  22535387.2344                                   22535384.0274
                                                                        47.5004
        35.2504
 09 10 22 23 38 30.0000000  0  8G02G04G05G10G13G23G25G29
   -784362.72348   -572026.60547
                  20418750.2814                                   20418744.1884
                                                                        52.7504
        43.2504
   3739760.47748   2921210.71146
                  22145135.4694                                   22145131.2234
                                                                        49.7504
        36.0004
  -6806458.92248  -5232100.06246
                  22685849.8674                                   22685845.4614
                                                                        49.2504
        37.0004
  -6412893.99648  -4922823.50446
                  21831875.7114                                   21831872.2974
                                                                        48.7504
        37.0004
  -1651208.07448  -1244256.98846
                  21149390.1094                                   21149385.4774
                                                                        49.2504
        36.7504
   2812476.22347   2206423.68844
                  22769361.9844                                   22769355.6564
                                                                        45.5004
        29.0004
  -3623874.27746  -2803279.33644
                  23435306.3204                                   23435302.5004
                                                                        41.7504
        26.2504
  -4911611.52747  -3761799.03545
                  22505712.0084                                   22505708.5474
                                                                        46.2504
        35.5004
 09 10 22 23 39  0.0000000  0  8G02G04G05G10G13G23G25G29
   -863617.00448   -633783.12147
                  20403668.5634                                   20403662.2934
                                                                        52.0004
        42.7504
   3734177.95748   2916860.69545
                  22144072.8054                                   22144069.4064
                                                                        50.0004
        35.5004
  -7001902.24648  -5384393.62946
                  22648658.5234                                   22648654.1914
                                                                        48.0004
        36.7504
  -6598282.85948  -5067282.30546
                  21796597.6174                                   21796593.7114
                                                                        49.2504
        37.0004
  -1743314.24648  -1316028.05946
                  21131863.2344                                   21131858.1454
                                                                        50.0004
        36.5004
   2793825.26247   2191890.46944
                  22765813.0394                                   22765806.1054
                                                                        45.5004
        29.2504
  -3793837.22346  -2935717.75443
                  23402963.3204                                   23402959.0984
                                                                        41.5004
        23.2504
  -5067019.49648  -3882896.16445
                  22476138.8054                                   22476134.9884
                                                                        48.0004
        35.5004
 09 10 22 23 39 30.0000000  0  8G02G04G05G10G13G23G25G29
   -942253.88748   -695058.54347
                  20388704.3134                                   20388698.4304
                                                                        52.0004
        42.5004
   3728964.91848   2912798.59845
                  22143080.9454                                   22143077.2854
                                                                        49.7504
        35.5004
  -7197034.94947  -5536445.06646
                  22611525.8204                                   22611521.6174
                                                                        47.0004
        36.2504
  -6783254.05148  -5211415.66846
                  21761398.8524                                   21761395.0314
                                                                        49.7504
        37.2504
  -1834717.69148  -1387251.55146
                  21114469.6024                                   21114464.6524
                                                                        49.5004
        36.5004
   2775650.74247   2177728.48444
                  22762354.5704                                   22762347.9264
                                                                        45.5004
        29.7504
  -3963360.07046  -3067813.31244
                  23370703.7584                                   23370699.4804
                                                                        41.7504
        24.5004
  -5221887.05548  -4003572.21945
                  22446668.4384                                   22446664.8284
                                                                        48.5004
        35.5004
 09 10 22 23 40  0.0000000  0  8G02G04G05G10G13G23G25G29
  -1020271.97348   -755851.79347
                  20373858.1254                                   20373851.5704
                                                                        52.2504
        43.0004
   3724120.24648   2909023.53145
                  22142159.1644                                   22142155.3554
                                                                        49.5004
        35.0004
  -7391853.96147  -5688252.05145
                  22574452.2424                                   22574447.7464
                                                                        47.0004
        35.5004
  -6967804.38348  -5355221.13746
                  21726280.1094                                   21726276.2194
                                                                        50.0004
        37.5004
  -1925417.09448  -1457926.39846
                  21097210.0864                                   21097205.0514
                                                                        50.2504
        36.7504
   2757951.49247   2163936.82445
                  22758986.4924                                   22758980.3554
                                                                        46.2504
        30.0004
  -4132438.96946  -3199563.00844
                  23338529.4924                                   23338525.2274
                                                                        40.7504
        24.0004
  -5376210.64147  -4123824.33245
                  22417301.3754                                   22417297.9734
                                                                        47.2504
        35.5004
 09 10 22 23 40 30.0000000  0  8G02G04G05G10G13G23G25G29
  -1097671.07048   -816162.71547
                  20359129.3594                                   20359123.1294
                                                                        51.5004
        42.7504
   3719642.39148   2905534.30145
                  22141306.9384                                   22141303.3834
                                                                        49.5004
        35.5004
  -7586356.50047  -5839812.43445
                  22537439.7194                                   22537435.6604
                                                                        45.7504
        35.2504
  -7151930.69548  -5498696.16046
                  21691241.9454                                   21691238.2544
                                                                        49.5004
        37.5004
  -2015412.48848  -1528052.69546
                  21080084.6254                                   21080079.5044
                                                                        51.0004
        36.7504
   2740725.60547   2150514.08244
                  22755708.7894                                   22755701.6024
                                                                        46.2504
        29.5004
  -4301071.57046  -3330965.10244
                  23306438.7974                                   23306435.3324
                                                                        41.5004
        24.2504
  -5529987.02547  -4243650.03946
                  22388038.8524                                   22388035.6414
                                                                        47.5004
        36.0004
 09 10 22 23 41  0.0000000  0  8G02G04G05G10G13G23G25G29
    400968.10948    351608.10947
                  20644310.8594                                   20644304.6994
                                                                        52.2504
        42.7504
   5290947.63348   4129928.00845
                  22440316.7734                                   22440312.6174
                                                                        49.7504
        35.5004
  -6205117.67247  -4763522.40246
                  22800281.1954                                   22800277.0704
                                                                        47.7504
        37.0004
  -5760208.48848  -4414237.28546
                  21956077.7194                                   21956073.7034
                                                                        49.5004
        37.5004
   -529283.30148   -370029.98046
                  21362885.0944                                   21362880.7074
                                                                        51.0004
        37.0004
   4299389.02047   3365057.01244
                  23052311.7734                                   23052306.0044
                                                                        45.5004
        29.5004
  -2893830.82047  -2234413.87944
                  23574229.1724                                   23574224.2584
                                                                        42.0004
        25.2504
  -4107793.24647  -3135447.04745
                  22658673.3914                                   22658669.7584
                                                                        47.5004
        35.5004
 09 10 22 23 41 30.0000000  0  8G02G04G05G10G13G23G25G29
    324796.93848    292253.95747
                  20629816.1024                                   20629809.7544
                                                                        51.7504
        42.7504
   5287189.71948   4126999.79345
                  22439601.4144                                   22439597.5314
                                                                        48.2504
        34.7504
  -6398991.21947  -4914592.67646
                  22763388.3284                                   22763384.5164
                                                                        47.0004
        38.0004
  -5943490.53548  -4557054.43046
                  21921200.1174                                   21921196.0784
                                                                        50.5004
        37.0004
   -617879.78148   -439066.19546
                  21346026.0004                                   21346021.4574
                                                                        51.2504
        37.0004
   4283094.60247   3352360.10544
                  23049211.5084                                   23049204.7304
                                                                        45.5004
        28.5004
  -3061569.59846  -2365119.41444
                  23542309.5164                                   23542304.8674
                                                                        41.7504
        26.5004
  -4260480.48847  -3254424.03545
                  22629618.2114                                   22629614.4534
                                                                        47.2504
        35.7504
 09 10 22 23 42  0.0000000  0  8G02G04G05G10G13G23G25G29
    249240.71548    233378.98847
                  20615438.3984                                   20615432.0274
                                                                        52.0004
        42.7504
   5283789.31648   4124350.18845
                  22438953.9614                                   22438950.1134
                                                                        48.0004
        35.2504
  -6592545.27747  -5065413.98846
                  22726555.9774                                   22726552.5314
                                                                        47.5004
        37.7504
  -6126345.47748  -4699538.73846
                  21886404.3204                                   21886400.5274
                                                                        50.0004
        37.5004
   -705776.72348   -507557.30546
                  21329300.1254                                   21329295.2584
                                                                        51.0004
        37.0004
   4267263.18447   3340023.99244
                  23046198.3284                                   23046191.4064
                                                                        44.7504
        28.0004
  -3228857.21947  -2495473.33644
                  23510475.5704                                   23510470.8484
                                                                        42.5004
        27.2504
  -4412617.83247  -3372972.50846
                  22600667.1414                                   22600663.6374
                                                                        47.5004
        36.0004
 09 10 22 23 42 30.0000000  0  8G02G04G05G10G13G23G25G29
    174296.02748    174980.55147
                  20601176.6174                                   20601170.2034
                                                                        52.0004
        42.5004
   5280742.12948   4121975.77745
                  22438374.1564                                   22438370.1764
                                                                        48.7504
        33.5004
  -6785781.64547  -5215987.72746
                  22689783.9614                                   22689780.3634
                                                                        47.5004
        36.7504
  -6308775.17248  -4841691.70746
                  21851688.8204                                   21851685.1414
                                                                        49.7504
        38.0004
   -792977.01248   -575505.65246
                  21312706.3134                                   21312701.3244
                                                                        51.5004
        36.2504
   4251889.40247   3328044.47344
                  23043272.7194                                   23043266.5824
                                                                        43.7504
        28.0004
  -3395693.69946  -2625475.75044
                  23478727.2734                                   23478723.1134
                                                                        41.7504
        26.5004
  -4564207.44147  -3491094.19546
                  22571820.2584                                   22571817.2424
                                                                        47.5004
        36.5004
 09 10 22 23 43  0.0000000  0  8G02G04G05G10G13G23G25G29
     99964.44148    117059.82447
                  20587031.8054                                   20587025.4844
                                                                        52.2504
        42.5004
   5278047.62947   4119876.23445
                  22437861.8284                                   22437857.5004
                                                                        47.0004
        34.0004
  -6978695.54348  -5366310.18446
                  22653073.8054                                   22653069.5704
                                                                        48.5004
        37.5004
  -6490775.17248  -4983509.86746
                  21817055.4614                                   21817051.5274
                                                                        50.0004
        37.7504
   -879479.50848   -642910.20746
                  21296245.3984                                   21296240.6484
                                                                        51.2504
        36.2504
   4236972.75847   3316421.11344
                  23040434.5234                                   23040427.5824
                                                                        45.2504
        26.5004
  -3562075.39846  -2755123.87944
                  23447065.8204                                   23447062.0634
                                                                        41.7504
        28.0004
  -4715244.75447  -3608785.54746
                  22543078.6804                                   22543075.6374
                                                                        47.5004
        36.2504
 09 10 22 23 43 30.0000000  0  8G02G04G05G10G13G23G25G29
     26246.82448     59617.53947
                  20573003.7584                                   20572997.6524
                                                                        52.0004
        43.0004
   5275704.95348   4118050.79345
                  22437415.5394                                   22437411.5594
                                                                        48.2504
        34.7504
  -7171284.80148  -5516379.69146
                  22616425.2114                                   22616420.7114
                                                                        48.5004
        36.0004
  -6672342.65648  -5124991.02046
                  21782504.4924                                   21782500.5944
                                                                        49.5004
        37.7504
   -965283.02348   -709770.03946
                  21279917.7584                                   21279912.6604
                                                                        51.2504
        36.5004
   4222512.09447   3305153.12144
                  23037683.0864                                   23037676.0314
                                                                        46.2504
        29.5004
  -3727997.87146  -2884414.11744
                  23415491.6414                                   23415487.5824
                                                                        40.5004
        25.7504
  -4865727.62947  -3726044.91446
                  22514442.9064                                   22514439.5394
                                                                        47.5004
        36.0004
 09 10 22 23 44  0.0000000  0  8G02G04G05G10G13G23G25G29
    -46864.12948      2647.93847
                  20559091.3054                                   20559085.2814
                                                                        52.0004
        42.5004
   5273705.32448   4116492.68045
                  22437034.8674                                   22437031.3874
                                                                        48.7504
        34.7504
  -7363554.01647  -5666199.84846
                  22579838.0784                                   22579833.6524
                                                                        47.5004
        36.7504
  -6853482.15648  -5266138.67246
                  21748034.8134                                   21748030.8524
                                                                        50.0004
        38.2504
  -1050395.43448   -776091.39546
                  21263721.1484                                   21263716.5084
                                                                        50.7504
        36.2504
   4208497.86747   3294233.02344
                  23035016.3284                                   23035009.4494
                                                                        45.5004
        29.2504
  -3893465.91846  -3013350.21944
                  23384003.9384                                   23383999.9384
                                                                        41.2504
        24.7504
  -5015660.28947  -3842875.54345
                  22485911.7664                                   22485907.5354
                                                                        46.7504
        35.5004
 09 10 22 23 44 30.0000000  0  8G02G04G05G10G13G23G25G29
   -119364.52748    -53845.89547
                  20545294.8594                                   20545288.7074
                                                                        52.5004
        43.0004
   5272051.00048   4115203.64545
                  22436720.2974                                   22436716.5664
                                                                        48.2504
        34.5004
  -7555496.23448  -5815765.18046
                  22543312.1804                                   22543307.8834
                                                                        49.2504
        37.2504
  -7034186.84848  -5406947.49646
                  21713647.6804                                   21713643.9964
                                                                        49.5004
        38.2504
  -1134812.66048   -841871.07846
                  21247657.0314                                   21247652.0634
                                                                        51.0004
        36.5004
   4194932.00447   3283662.22344
                  23032434.9384                                   23032428.0004
                                                                        45.5004
        29.2504
  -4058472.76246  -3141926.98444
                  23352604.1954                                   23352599.4494
                                                                        40.7504
        25.2504
  -5165036.00047  -3959272.10545
                  22457486.5164                                   22457482.3284
                                                                        47.0004
        35.5004
 09 10 22 23 45  0.0000000  0  8G02G04G05G10G13G23G25G29
   -191254.42248   -109864.01647
                  20531614.5554                                   20531608.3284
                                                                        53.0004
        42.5004
   5270739.91847   4114182.05145
                  22436470.7584                                   22436466.9774
                                                                        47.0004
        35.0004
  -7747109.81648  -5965074.44546
                  22506849.2974                                   22506845.5784
                                                                        49.7504
        37.0004
  -7214454.91448  -5547416.09046
                  21679343.8594                                   21679340.0124
                                                                        49.5004
        38.2504
  -1218535.24248   -907109.41046
                  21231725.3524                                   21231720.2384
                                                                        51.0004
        36.2504
   4181811.65247   3273438.42244
                  23029937.9224                                   23029931.5044
                                                                        44.5004
        27.7504
  -4223015.99647  -3270142.43044
                  23321292.9844                                   23321288.6294
                                                                        42.2504
        26.0004
  -5313853.89847  -4075234.08646
                  22429167.2504                                   22429163.2624
                                                                        47.7504
        36.2504
 09 10 22 23 45 30.0000000  0  8G02G04G05G10G13G23G25G29
   -262534.44148   -165406.91047
                  20518050.6724                                   20518044.5664
                                                                        52.5004
        42.7504
   5269770.02047   4113426.32445
                  22436286.0944                                   22436282.1134
                                                                        46.5004
        34.5004
  -7938392.73448  -6114126.05146
                  22470449.8984                                   22470445.5234
                                                                        48.5004
        37.5004
  -7394284.88348  -5687543.34446
                  21645123.2504                                   21645118.8634
                                                                        49.2504
        38.2504
  -1301563.99648   -971807.11746
                  21215925.4534                                   21215920.6524
                                                                        51.0004
        36.5004
   4169134.96147   3263560.47344
                  23027525.6884                                   23027519.4774
                                                                        42.7504
        27.0004
  -4387093.52747  -3397995.08244
                  23290070.5704                                   23290065.4534
                                                                        43.0004
        26.2504
  -5462111.24648  -4190759.27746
                  22400954.8594                                   22400950.8594
                                                                        48.0004
        36.0004
 09 10 22 23 46  0.0000000  0  8G02G04G05G10G13G23G25G29
   -333205.15648   -220474.99647
                  20504602.4694                                   20504596.1724
                                                                        52.2504
        42.7504
   5269139.28947   4112934.87945
                  22436165.6564                                   22436162.2304
                                                                        46.5004
        34.5004
  -8129343.26648  -6262918.67646
                  22434112.8984                                   22434108.6294
                                                                        48.5004
        37.7504
  -7573674.15648  -5827327.19146
                  21610986.7194                                   21610982.8874
                                                                        50.2504
        38.0004
  -1383899.57448  -1035964.78146
                  21200257.5784                                   21200252.3014
                                                                        51.0004
        36.5004
   4156899.40247   3254026.24244
                  23025197.3754                                   23025191.1454
                                                                        43.2504
        27.0004
  -4550702.53146  -3525482.66844
                  23258936.4614                                   23258932.3014
                                                                        41.5004
        28.0004
  -5609807.03148  -4305846.87146
                  22372849.3444                                   22372845.3164
                                                                        48.5004
        36.5004
 09 10 22 23 46 30.0000000  0  8G02G04G05G10G13G23G25G29
   -403270.04348   -275070.98047
                  20491269.5474                                   20491263.2234
                                                                        52.5004
        43.0004
   5268842.35947   4112703.55545
                  22436109.4304                                   22436105.6644
                                                                        47.2504
        33.0004
  -8319962.42648  -6411453.07046
                  22397839.0944                                   22397835.1254
                                                                        48.5004
        38.2504
  -7752624.04348  -5966768.68746
                  21576934.0554                                   21576929.5084
                                                                        49.5004
        38.5004
  -1465545.56648  -1099585.05546
                  21184720.6094                                   21184716.1214
                                                                        50.0004
        36.2504
   4145098.89847   3244831.04744
                  23022951.1414                                   23022944.9614
                                                                        43.5004
        25.0004
  -4713844.50446  -3652606.37144
                  23227891.5554                                   23227886.9694
                                                                        41.2504
        27.5004
  -5756941.62947  -4420497.17246
                  22344850.6484                                   22344846.6054
                                                                        47.5004
        36.0004
 09 10 22 23 47  0.0000000  0  8G02G04G05G10G13G23G25G29
   -472726.36748   -329192.73847
                  20478052.2274                                   20478045.9414
                                                                        52.2504
        42.5004
   5268881.03547   4112733.72745
                  22436116.6484                                   22436112.9414
                                                                        47.5004
        33.7504
  -8510244.92648  -6559725.11346
                  22361629.9844                                   22361625.5784
                                                                        49.2504
        38.5004
  -7931129.47748  -6105863.87146
                  21542965.1804                                   21542961.0944
                                                                        49.5004
        38.2504
  -1546498.84848  -1162665.53545
                  21169315.7194                                   21169310.9384
                                                                        50.5004
        35.7504
   4133734.49247   3235975.67244
                  23020789.4774                                   23020782.2734
                                                                        44.2504
        25.7504
  -4876512.71646  -3779360.81144
                  23196937.1414                                   23196932.2774
                                                                        41.5004
        27.5004
  -5903510.70347  -4534706.82846
                  22316959.2504                                   22316955.5394
                                                                        46.5004
        36.5004
 09 10 22 23 47 30.0000000  0  8G02G04G05G10G13G23G25G29
   -541573.95348   -382840.14847
                  20464950.9924                                   20464944.8634
                                                                        52.0004
        42.2504
   5269253.30547   4113023.84045
                  22436188.1254                                   22436184.0744
                                                                        47.5004
        34.2504
  -8700188.27348  -6707732.92246
                  22325484.3834                                   22325480.2074
                                                                        48.5004
        37.5004
  -8109187.84848  -6244610.63746
                  21509082.0314                                   21509078.2114
                                                                        50.0004
        38.2504
  -1626760.30948  -1225206.89846
                  21154042.3674                                   21154037.8244
                                                                        50.0004
        36.0004
   4122804.29747   3227458.68844
                  23018709.2504                                   23018701.6024
                                                                        42.7504
        26.5004
  -5038704.71147  -3905744.18444
                  23166072.6884                                   23166067.9104
                                                                        42.0004
        26.0004
  -6049511.69548  -4648473.77346
                  22289176.0394                                   22289172.3554
                                                                        48.2504
        37.2504
 09 10 22 23 48  0.0000000  0  8G02G04G05G10G13G23G25G29
   -609820.07848   -436018.90247
                  20451964.6954                                   20451957.9344
                                                                        52.2504
        42.0004
   5269950.53947   4113567.15645
                  22436320.3524                                   22436316.6804
                                                                        47.2504
        33.5004
  -8889796.14848  -6855479.32446
                  22289403.3834                                   22289399.0664
                                                                        48.7504
        37.2504
  -8286803.32448  -6383012.26646
                  21475282.3204                                   21475278.9064
                                                                        49.0004
        39.5004
  -1706337.21948  -1287214.85945
                  21138899.6644                                   21138894.4454
                                                                        50.2504
        35.7504
   4112299.04347   3219272.83644
                  23016710.1724                                   23016703.2034
                                                                        45.0004
        27.0004
  -5200425.11346  -4031760.03144
                  23135298.1564                                   23135294.2774
                                                                        41.5004
        26.5004
  -6194948.85247  -4761801.34446
                  22261500.3134                                   22261496.9924
                                                                        47.5004
        36.5004
 09 10 22 23 48 30.0000000  0  8G02G04G05G10G13G23G25G29
   -677462.20348   -488726.99247
                  20439092.2274                                   20439085.8714
                                                                        51.7504
        42.0004
   5270973.93447   4114364.60245
                  22436515.0944                                   22436511.3244
                                                                        46.5004
        33.5004
  -9079064.47747  -7002961.11746
                  22253386.8524                                   22253382.7074
                                                                        47.5004
        37.5004
  -8463971.00448  -6521064.94546
                  21441568.9924                                   21441565.1174
                                                                        49.7504
        39.0004
  -1785226.68448  -1348687.17646
                  21123887.2424                                   21123882.4964
                                                                        50.5004
        36.2504
   4102219.32847   3211418.48844
                  23014792.3914                                   23014785.0984
                                                                        43.7504
        26.5004
  -5361668.14847  -4157403.90244
                  23104613.9614                                   23104610.2504
                                                                        42.0004
        26.5004
  -6339817.44148  -4874685.79346
                  22233932.6024                                   22233928.9534
                                                                        48.0004
        36.0004
 09 10 22 23 49  0.0000000  0  8G02G04G05G10G13G23G25G29
    830920.02748    686635.81347
                  20726127.8364                                   20726121.5044
                                                                        51.5004
        42.2504
   6847740.22347   5343013.66845
                  22736563.2034                                   22736559.6954
                                                                        46.5004
        34.0004
  -7692566.64148  -5922573.15246
                  22517228.9064                                   22517224.5744
                                                                        48.2504
        37.5004
  -7065264.94148  -5431164.08246
                  21707733.3914                                   21707729.6134
                                                                        50.0004
        38.5004
   -288008.50848   -182023.66446
                  21408798.8984                                   21408793.8284
                                                                        50.5004
        36.2504
   5667981.77047   4431493.06344
                  23312746.8204                                   23312740.0704
                                                                        43.5004
        27.0004
  -3947007.27047  -3055070.67644
                  23373815.1564                                   23373811.4224
                                                                        42.7504
        27.7504
  -4908692.97748  -3759523.72346
                  22506266.2664                                   22506262.0394
                                                                        48.5004
        36.2504
 09 10 22 23 49 30.0000000  0  8G02G04G05G10G13G23G25G29
    764478.91848    634863.54347
                  20713484.4454                                   20713478.1254
                                                                        51.5004
        42.2504
   6849404.47747   5344310.49645
                  22736880.5704                                   22736876.5664
                                                                        47.2504
        33.5004
  -7881155.40247  -6069525.38346
                  22481341.3984                                   22481337.1684
                                                                        47.5004
        38.5004
  -7241537.06648  -5568518.91446
                  21674189.7504                                   21674186.2074
                                                                        50.5004
        38.5004
   -365531.27348   -242431.02346
                  21394046.3914                                   21394041.6524
                                                                        50.0004
        36.2504
   5658740.29347   4424291.86744
                  23310987.7734                                   23310982.0664
                                                                        42.5004
        25.5004
  -4107294.25447  -3179969.59444
                  23343314.1414                                   23343309.9184
                                                                        43.0004
        26.0004
  -5052425.79748  -3871523.17246
                  22478914.5704                                   22478910.8984
                                                                        49.0004
        36.5004
 09 10 22 23 50  0.0000000  0  8G02G04G05G10G13G23G25G29
    698636.56348    583557.79347
                  20700955.2584                                   20700948.6214
                                                                        51.2504
        42.7504
   6851385.05547   5345853.78145
                  22737257.2584                                   22737253.1684
                                                                        47.0004
        33.5004
  -8069402.14848  -6216211.16046
                  22445519.1254                                   22445514.6804
                                                                        48.5004
        38.2504
  -7417359.02348  -5705522.95346
                  21640732.4844                                   21640728.3204
                                                                        49.7504
        39.2504
   -442372.76648   -302307.52346
                  21379424.1564                                   21379419.1804
                                                                        50.5004
        36.0004
   5649913.43847   4417413.78144
                  23309308.3284                                   23309302.2234
                                                                        42.7504
        27.5004
  -4267100.69947  -3304494.10244
                  23312903.9924                                   23312899.5514
                                                                        44.2504
        28.5004
  -5195588.59448  -3983078.52746
                  22451671.8754                                   22451667.7704
                                                                        48.7504
        36.5004
 09 10 22 23 50 30.0000000  0  9G02G04G05G10G13G23G25G29G16
    633393.71148    532719.16847
                  20688539.9774                                   20688533.4024
                                                                        51.0004
        42.2504
   6853681.46547   5347643.21145
                  22737694.4224                                   22737690.6684
                                                                        47.5004
        33.2504
  -8257303.58247  -6362627.83646
                  22409762.7814                                   22409758.4304
                                                                        47.2504
        38.2504
  -7592727.87948  -5842173.95746
                  21607360.8834                                   21607356.6214
                                                                        50.0004
        38.7504
   -518532.74248   -361652.94946
                  21364931.1174                                   21364926.3444
                                                                        50.7504
        36.7504
   5641499.83647   4410857.69544
                  23307707.5394                                   23307701.0204
                                                                        44.2504
        27.2504
  -4426422.75847  -3428641.18744
                  23282586.4844                                   23282581.6484
                                                                        45.5004
        29.2504
  -5338178.12548  -4094187.17246
                  22424537.8594                                   22424533.8204
                                                                        49.2504
        36.5004
   7636358.61756   5985586.49252
                  24437643.0944                                   24437638.4774
                                                                        38.0004
        16.7504
 09 10 22 23 51  0.0000000  0  9G02G04G05G10G13G23G25G29G16
    568744.41448    482343.06347
                  20676237.6094                                   20676231.3754
                                                                        51.5004
        42.2504
   6856286.25047   5349672.93445
                  22738189.9304                                   22738185.9574
                                                                        47.5004
        33.2504
  -8444862.88348  -6508777.88746
                  22374071.2274                                   22374066.6884
                                                                        48.2504
        38.0004
  -7767647.03148  -5978474.56646
                  21574074.6024                                   21574070.4384
                                                                        49.0004
        38.2504
   -594016.85548   -420471.71146
                  21350567.3594                                   21350561.9884
                                                                        50.2504
        36.5004
   5633491.47347   4404617.38344
                  23306183.3674                                   23306176.5554
                                                                        44.2504
        27.2504
  -4585263.74647  -3552413.39544
                  23252359.3914                                   23252355.2274
                                                                        45.0004
        28.0004
  -5480198.25848  -4204852.15246
                  22397512.2734                                   22397508.4344
                                                                        48.5004
        37.0004
   7472063.98446   5857564.69143
                  24406379.6884                                   24406375.1414
                                                                        39.5004
        19.0004
 09 10 22 23 51 30.0000000  0  9G02G04G05G10G13G23G25G29G16
    504680.12548    432422.82846
                  20664046.5704                                   20664040.1334
                                                                        51.7504
        41.7504
   6859189.15647   5351934.93845
                  22738742.2344                                   22738738.2034
                                                                        47.2504
        33.2504
  -8632085.84848  -6654665.85946
                  22338443.5784                                   22338439.6804
                                                                        49.5004
        38.5004
  -7942122.31648  -6114429.28946
                  21540872.7734                                   21540869.1954
                                                                        50.5004
        38.7504
   -668834.16848   -478770.89546
                  21336329.8594                                   21336325.1294
                                                                        51.0004
        36.5004
   5625877.68447   4398684.52744
                  23304735.2034                                   23304728.1024
                                                                        44.2504
        28.0004
  -4743629.63747  -3675815.39844
                  23222223.4224                                   23222218.8244
                                                                        43.7504
        25.7504
  -5621655.30548  -4315078.36746
                  22370593.6334                                   22370590.0124
                                                                        49.0004
        36.5004
   7308244.95746   5729913.44543
                  24375205.9304                                   24375200.8054
                                                                        40.5004
        20.2504
 09 10 22 23 52  0.0000000  0  9G02G04G05G10G13G23G25G29G16
    441199.93448    382957.73847
                  20651966.5314                                   20651960.1954
                                                                        51.5004
        42.2504
   6862388.13748   5354427.63345
                  22739350.9924                                   22739346.7624
                                                                        48.0004
        32.5004
  -8818971.06248  -6800290.68446
                  22302880.7734                                   22302876.8834
                                                                        49.0004
        38.2504
  -8116151.74648  -6250036.59446
                  21507756.2664                                   21507752.2544
                                                                        51.0004
        39.0004
   -742985.47348   -536551.12146
                  21322219.3754                                   21322214.4804
                                                                        51.0004
        36.2504
   5618656.66847   4393057.73844
                  23303360.3754                                   23303353.2384
                                                                        44.5004
        24.2504
  -4901517.68047  -3798845.03944
                  23192178.0474                                   23192173.5554
                                                                        43.5004
        25.5004
  -5762547.28948  -4424864.28946
                  22343782.7344                                   22343779.0274
                                                                        48.7504
        36.7504
   7144904.21547   5602634.88343
                  24344123.4844                                   24344118.8054
                                                                        42.5004
        21.7504
 09 10 22 23 52 30.0000000  0  9G02G04G05G10G13G23G25G29G16
    378309.40648    333952.14147
                  20639999.2114                                   20639992.8284
                                                                        52.7504
        42.5004
   6865887.60547   5357154.46545
                  22740017.1414                                   22740012.8874
                                                                        47.5004
        32.5004
  -9005510.52348  -6945646.12946
                  22267383.7114                                   22267379.5274
                                                                        49.5004
        38.7504
  -8289727.32848  -6385290.35246
                  21474726.1954                                   21474722.1954
                                                                        50.7504
        39.2504
   -816465.98048   -593808.64146
                  21308236.6334                                   21308231.3984
                                                                        51.0004
        36.2504
   5611831.43847   4387739.38744
                  23302061.5784                                   23302054.7934
                                                                        44.7504
        25.7504
  -5058919.84047  -3921496.05144
                  23162225.3284                                   23162220.8324
                                                                        43.5004
        24.2504
  -5902867.43048  -4534204.63746
                  22317080.8834                                   22317077.0634
                                                                        49.0004
        37.0004
   6982049.66847   5475735.25043
                  24313133.4774                                   24313128.7894
                                                                        43.5004
        22.5004
 09 10 22 23 53  0.0000000  0  9G02G04G05G10G13G23G25G29G16
    316009.04748    285406.42647
                  20628143.6094                                   20628137.0704
                                                                        52.2504
        42.2504
   6869686.34047   5360114.45345
                  22740740.2664                                   22740736.5474
                                                                        46.7504
        31.7504
  -9191700.80548  -7090729.48446
                  22231952.7034                                   22231948.3484
                                                                        50.5004
        38.5004
  -8462846.44948  -6520188.45746
                  21441782.7274                                   21441778.8484
                                                                        50.2504
        39.0004
   -889275.08648   -650542.99645
                  21294381.5704                                   21294376.0124
                                                                        50.7504
        35.5004
   5605400.85247   4382728.57044
                  23300838.2664                                   23300831.5004
                                                                        44.5004
        25.5004
  -5215832.57847  -4043765.77044
                  23132365.9924                                   23132361.6844
                                                                        44.5004
        26.7504
  -6042612.14848  -4643096.62146
                  22290488.2344                                   22290484.4304
                                                                        49.5004
        37.2504
   6819685.19147   5349217.40643
                  24282236.2814                                   24282231.9534
                                                                        42.5004
        22.5004
 09 10 22 23 53 30.0000000  0  9G02G04G05G10G13G23G25G29G16
    254302.43848    237323.37947
                  20616401.3054                                   20616395.0474
                                                                        52.2504
        42.7504
   6873786.43047   5363309.25845
                  22741519.9064                                   22741516.5354
                                                                        47.0004
        33.0004
  -9377535.22748  -7235535.57046
                  22196589.7344                                   22196585.3284
                                                                        50.0004
        39.0004
  -8635502.14548  -6654725.45346
                  21408927.2974                                   21408923.2274
                                                                        50.7504
        39.2504
   -961409.72748   -706751.78146
                  21280654.6484                                   21280649.8444
                                                                        51.5004
        36.0004
   5599366.53947   4378026.57844
                  23299689.7584                                   23299683.3754
                                                                        44.2504
        26.7504
  -5372249.78547  -4165649.27344
                  23102601.0784                                   23102596.5744
                                                                        44.2504
        27.7504
  -6181775.08648  -4751535.25046
                  22264006.2194                                   22264002.2464
                                                                        49.2504
        37.2504
   6657817.62147   5223086.78543
                  24251434.0234                                   24251429.2704
                                                                        42.7504
        22.7504
 09 10 22 23 54  0.0000000  0  9G02G04G05G10G13G23G25G29G16
    193191.06648    189704.12947
                  20604772.2814                                   20604765.5474
                                                                        53.0004
        42.5004
   6878188.37147   5366739.29745
                  22742358.1484                                   22742354.1174
                                                                        47.2504
        32.0004
  -9563010.41448  -7380061.73446
                  22161294.6024                                   22161290.8914
                                                                        50.7504
        39.0004
  -8807690.68048  -6788898.39846
                  21376161.0704                                   21376157.0904
                                                                        50.7504
        39.0004
  -1032868.33648   -762433.76646
                  21267056.4304                                   21267051.7114
                                                                        51.5004
        36.0004
   5593728.15247   4373633.12944
                  23298616.8594                                   23298610.4534
                                                                        45.0004
        25.7504
  -5528166.69147  -4287142.93744
                  23072931.0234                                   23072927.2854
                                                                        45.0004
        28.2504
  -6320353.21948  -4859518.16846
                  22237636.0314                                   22237631.9534
                                                                        49.5004
        37.5004
   6496451.47346   5097346.96143
                  24220726.3054                                   24220722.0434
                                                                        40.0004
        20.5004
 09 10 22 23 54 30.0000000  0  9G02G04G05G10G13G23G25G29G16
    132672.58248    142546.88346
                  20593255.7424                                   20593249.3794
                                                                        53.0004
        41.7504
   6882888.88747   5370402.01645
                  22743252.7194                                   22743248.9924
                                                                        47.7504
        33.0004
  -9748125.63348  -7524307.34446
                  22126068.5164                                   22126064.4344
                                                                        50.5004
        38.5004
  -8979411.83248  -6922707.03146
                  21343483.3914                                   21343479.6454
                                                                        51.0004
        39.5004
  -1103653.79348   -817591.23846
                  21253586.4064                                   21253581.4344
                                                                        51.0004
        36.0004
   5588481.51247   4369544.91044
                  23297618.2114                                   23297611.8444
                                                                        45.0004
        27.5004
  -5683582.62547  -4408246.23444
                  23043356.3834                                   23043352.5394
                                                                        45.7504
        29.0004
  -6458346.35548  -4967045.24646
                  22211376.6174                                   22211372.4384
                                                                        49.2504
        37.5004
   6335587.51646   4971998.44943
                  24190115.4064                                   24190110.8284
                                                                        40.2504
        21.5004
 09 10 22 23 55  0.0000000  0  9G02G04G05G10G13G23G25G29G16
     72749.78948     95853.78547
                  20581853.0394                                   20581846.6454
                                                                        52.7504
        42.2504
   6887888.63347   5374297.87145
                  22744204.0164                                   22744200.1414
                                                                        47.2504
        32.7504
  -9932874.79748  -7668267.73046
                  22090911.9384                                   22090907.8164
                                                                        50.5004
        38.5004
  -9150659.57448  -7056146.82846
                  21310895.9614                                   21310892.2584
                                                                        50.5004
        39.5004
  -1173763.79748   -872222.44946
                  21240245.0554                                   21240240.2384
                                                                        51.5004
        37.0004
   5583627.41847   4365762.44544
                  23296694.4924                                   23296687.5474
                                                                        45.2504
        26.5004
  -5838492.39547  -4528955.12544
                  23013877.8204                                   23013873.5164
                                                                        45.7504
        28.7504
  -6595748.59448  -5074111.85246
                  22185229.9304                                   22185226.0664
                                                                        48.2504
        36.5004
   6175231.79746   4847045.92243
                  24159600.3284                                   24159596.0864
                                                                        41.2504
        22.0004
 09 10 22 23 55 30.0000000  0 10G02G04G05G10G13G23G25G29G16G07
     13416.19548     49619.81647
                  20570562.1484                                   20570555.6024
                                                                        52.7504
        42.0004
   6893180.52347   5378421.36745
                  22745211.1254                                   22745207.6954
                                                                        47.7504
        32.7504
 -10117262.26248  -7811946.32046
                  22055824.2274                                   22055819.7424
                                                                        50.7504
        38.2504
  -9321438.28548  -7189221.12946
                  21278397.9774                                   21278394.1914
                                                                        50.5004
        39.2504
  -1243204.43448   -926332.05545
                  21227030.7974                                   21227025.8164
                                                                        51.0004
        35.5004
   5579157.88747   4362279.73044
                  23295843.5554                                   23295837.2464
                                                                        44.7504
        26.0004
  -5992899.03147  -4649271.99644
                  22984495.3524                                   22984491.5474
                                                                        45.0004
        28.0004
  -6732565.02748  -5180721.94946
                  22159194.2034                                   22159190.6054
                                                                        48.5004
        36.7504
   6015380.85546   4722486.76243
                  24129182.3134                                   24129176.9304
                                                                        41.2504
        21.5004
   7591690.39156   5930836.74653
                  24348900.2274                                   24348896.7234
                                                                        41.2504
        22.5004
 09 10 22 23 56  0.0000000  0 10G02G04G05G10G13G23G25G29G16G07
    -45333.60948      3840.73047
                  20559382.5554                                   20559376.4224
                                                                        52.5004
        42.5004
   6898757.59847   5382767.09445
                  22746272.4614                                   22746268.6024
                                                                        46.5004
        31.2504
 -10301290.85948  -7955345.22746
                  22020804.6884                                   22020800.1844
                                                                        50.2504
        39.0004
  -9491750.98848  -7321932.28946
                  21245988.5164                                   21245984.5704
                                                                        50.5004
        39.5004
  -1311981.88748   -979924.92645
                  21213943.1484                                   21213938.3364
                                                                        51.5004
        35.5004
   5575065.47347   4359090.84844
                  23295065.5474                                   23295058.5044
                                                                        44.5004
        26.0004
  -6146805.04747  -4769198.57044
                  22955207.5084                                   22955203.5274
                                                                        45.0004
        28.0004
  -6868798.29748  -5286877.64546
                  22133270.0634                                   22133266.2344
                                                                        48.7504
        37.2504
   5856032.29346   4598319.03543
                  24098858.6804                                   24098854.2854
                                                                        40.5004
        20.7504
   7396639.41446   5778848.93043
                  24311783.5394                                   24311779.3404
                                                                        41.5004
        22.0004
 09 10 22 23 56 30.0000000  0 10G02G04G05G10G13G23G25G29G16G07
   -103505.41048    -41487.98047
                  20548312.6334                                   20548306.1024
                                                                        52.0004
        42.2504
   6904613.00047   5387329.67245
                  22747386.5634                                   22747383.0204
                                                                        44.5004
        31.0004
 -10484963.84848  -8098467.01646
                  21985853.0084                                   21985848.8244
                                                                        50.5004
        39.0004
  -9661600.57848  -7454282.66046
                  21213667.2894                                   21213663.3674
                                                                        51.2504
        39.5004
  -1380101.62548  -1033005.26645
                  21200980.1484                                   21200975.5044
                                                                        49.7504
        35.5004
   5571343.42647   4356190.66844
                  23294357.2344                                   23294349.5434
                                                                        45.0004
        25.7504
  -6300213.35547  -4888737.49844
                  22926015.1884                                   22926010.6954
                                                                        45.0004
        28.0004
  -7004452.69148  -5392582.32446
                  22107456.0164                                   22107451.7934
                                                                        49.5004
        36.7504
   5697183.40246   4474540.69543
                  24068630.5314                                   24068626.6724
                                                                        39.5004
        19.5004
   7201853.43946   5627067.76843
                  24274716.7344                                   24274712.8594
                                                                        40.5004
        22.7504
 09 10 22 23 57  0.0000000  0 10G02G04G05G10G13G23G25G29G16G07
   -161098.55548    -86365.77047
                  20537353.0164                                   20537346.7704
                                                                        52.5004
        42.0004
   6910745.50447   5392108.19945
                  22748553.3524                                   22748550.0204
                                                                        46.0004
        31.0004
 -10668276.42248  -8241307.91846
                  21950969.8524                                   21950965.2424
                                                                        50.2504
        39.0004
  -9830982.29748  -7586268.35246
                  21181434.9694                                   21181430.7304
                                                                        50.7504
        39.7504
  -1447564.35548  -1085573.63745
                  21188142.0234                                   21188137.5824
                                                                        50.5004
        35.2504
   5567989.66047   4353577.37144
                  23293718.8914                                   23293711.5514
                                                                        43.5004
        25.2504
  -6453121.48847  -5007886.82044
                  22896918.1954                                   22896913.1214
                                                                        45.5004
        28.0004
  -7139523.25048  -5497832.04346
                  22081753.0554                                   22081748.8914
                                                                        49.7504
        37.0004
   5538838.47746   4351155.01243
                  24038498.9614                                   24038494.6094
                                                                        40.2504
        20.2504
   7007335.66947   5475495.60343
                  24237701.0554                                   24237697.6684
                                                                        42.0004
        22.7504
 09 10 22 23 57 30.0000000  0 10G02G04G05G10G13G23G25G29G16G07
   1357312.73848   1096811.87947
                  20826297.3594                                   20826290.9454
                                                                        52.0004
        42.7504
   8492578.18847   6624705.05945
                  23049566.3674                                   23049562.5084
                                                                        45.0004
        31.0004
  -9275797.46548  -7156259.30146
                  22215949.6884                                   22215945.5354
                                                                        50.2504
        39.2504
  -8424465.56248  -6490281.21146
                  21449086.2734                                   21449082.0204
                                                                        51.5004
        39.7504
     61056.50448     89975.09846
                  21475223.4064                                   21475218.3364
                                                                        50.0004
        36.0004
   7140426.43846   5578852.71143
                  23592942.1484                                   23592936.2814
                                                                        41.7504
        23.2504
  -5030096.15647  -3899035.83644
                  23167710.3204                                   23167705.6994
                                                                        44.5004
        26.0004
  -5698581.39548  -4375020.16446
                  22355954.9064                                   22355950.8404
                                                                        49.7504
        38.0004
   6956429.16046   5455771.08643
                  24308257.0944                                   24308253.0004
                                                                        40.5004
        20.5004
   8388521.36747   6551744.32844
                  24500531.8674                                   24500528.4264
                                                                        42.0004
        25.5004
 09 10 22 23 58  0.0000000  0 10G02G04G05G10G13G23G25G29G16G07
   1300885.36748   1052842.50046
                  20815559.2274                                   20815552.9064
                                                                        52.7504
        41.7504
   8499271.30547   6629920.45745
                  23050839.8134                                   23050836.0634
                                                                        46.7504
        30.7504
  -9458374.14848  -7298526.78946
                  22181206.4224                                   22181202.1684
                                                                        50.7504
        40.0004
  -8592897.22748  -6621526.57846
                  21417034.3284                                   21417030.5234
                                                                        51.2504
        39.2504
     -5082.87548     38437.95745
                  21462637.5864                                   21462632.6454
                                                                        50.0004
        35.2504
   7137813.52347   5576816.61344
                  23592446.6334                                   23592439.6414
                                                                        44.2504
        27.0004
  -5181983.90647  -4017389.82844
                  23138806.8984                                   23138802.0784
                                                                        44.0004
        26.5004
  -5832471.24248  -4479349.89146
                  22330476.7424                                   22330472.3984
                                                                        49.2504
        37.2504
   6799109.94146   5333184.63743
                  24278321.0314                                   24278315.9384
                                                                        40.7504
        21.5004
   8194562.16447   6400607.37144
                  24463623.0944                                   24463618.5474
                                                                        43.0004
        25.7504
 09 10 22 23 58 30.0000000  0 10G02G04G05G10G13G23G25G29G16G07
   1245045.41848   1009330.85246
                  20804933.2894                                   20804927.0904
                                                                        52.5004
        41.7504
   8506247.12147   6635356.14845
                  23052167.9844                                   23052163.5554
                                                                        46.0004
        32.0004
  -9640574.78948  -7440501.27746
                  22146534.9694                                   22146530.3484
                                                                        50.0004
        39.5004
  -8760846.31648  -6752395.94946
                  21385075.1484                                   21385071.0864
                                                                        51.2504
        39.5004
    -70556.95748    -12580.75446
                  21450177.8914                                   21450172.9344
                                                                        49.7504
        36.0004
   7135572.75847   5575070.60244
                  23592020.4224                                   23592013.3954
                                                                        44.2504
        28.0004
  -5333353.00847  -4135339.65644
                  23110001.7114                                   23109997.7934
                                                                        43.2504
        26.2504
  -5965763.73048  -4583214.15646
                  22305111.5234                                   22305107.2464
                                                                        49.5004
        37.0004
   6642312.06346   5211004.44543
                  24248482.8284                                   24248478.6844
                                                                        41.5004
        22.0004
   8000892.32447   6249695.84044
                  24426768.9614                                   24426764.4414
                                                                        43.0004
        24.7504
 09 10 22 23 59  0.0000000  0 10G02G04G05G10G13G23G25G29G16G07
   1189790.43448    966274.99247
                  20794418.8284                                   20794412.3284
                                                                        52.0004
        42.0004
   8513502.03147   6641009.32845
                  23053548.1024                                   23053544.3404
                                                                        45.7504
        31.5004
  -9822398.25448  -7582181.91846
                  22111934.9534                                   22111930.4384
                                                                        49.5004
        39.0004
  -8928311.15648  -6882888.05546
                  21353207.4924                                   21353203.3444
                                                                        52.0004
        40.2504
   -135368.61348    -63083.33646
                  21437844.5234                                   21437840.0664
                                                                        48.7504
        36.0004
   7133700.12147   5573611.35244
                  23591663.7194                                   23591656.7304
                                                                        42.5004
        27.0004
  -5484203.41047  -4252885.42644
                  23081296.6954                                   23081292.1564
                                                                        43.2504
        26.2504
  -6098457.52348  -4686611.91446
                  22279861.1024                                   22279856.7154
                                                                        49.5004
        37.2504
   6486036.75447   5089231.43043
                  24218745.4304                                   24218740.1414
                                                                        43.0004
        22.0004
   7807513.23446   6099010.92643
                  24389970.2034                                   24389965.8834
                                                                        40.2504
        23.7504
 09 10 22 23 59 30.0000000  0 10G02G04G05G10G13G23G25G29G16G07
   1135120.91448    923675.38347
                  20784015.5084                                   20784009.2194
                                                                        52.7504
        42.2504
   8521035.78547   6646879.76645
                  23054981.7974                                   23054977.9734
                                                                        46.0004
        31.7504
 -10003841.69548  -7723566.48446
                  22077407.2894                                   22077402.8754
                                                                        49.5004
        39.7504
  -9095289.28948  -7013000.93046
                  21321432.4144                                   21321428.3714
                                                                        50.5004
        39.5004
   -199517.00848   -113069.09445
                  21425638.0164                                   21425633.3634
                                                                        49.5004
        35.5004
   7132194.65247   5572438.19544
                  23591377.1564                                   23591370.6844
                                                                        42.0004
        25.5004
  -5634530.94547  -4370023.82444
                  23052690.3134                                   23052685.4414
                                                                        44.2504
        28.0004
  -6230550.80148  -4789541.71946
                  22254723.9454                                   22254720.0594
                                                                        49.2504
        37.2504
   6330287.67646   4967868.48443
                  24189107.1334                                   24189102.0164
                                                                        41.5004
        22.7504
   7614429.93446   5948556.51243
                  24353226.5864                                   24353223.5084
                                                                        40.0004
        23.0004
