     2.11           OBSERVATION DATA    G (GPS)             RINEX VERSION / TYPE
teqc  2019Feb25                         20221121 12:28:54UTCPGM / RUN BY / DATE
OSX ker:10.11.6|Core i5|gcc 4.3 -m64|OSX ker:10.10+|=+      COMMENT
BIT 2 OF LLI FLAGS DATA COLLECTED UNDER A/S CONDITION       COMMENT
04713040                                                    MARKER NAME
3040                                                        MARKER NUMBER
-Unknown-           -Unknown-                               OBSERVER / AGENCY
0220400471          TRIMBLE R7          2.30                REC # / TYPE / VERS
-Unknown-           TRM39105.00     NONE                    ANT # / TYPE
  1449459.2512 -1709243.7259  5952443.9075                  APPROX POSITION XYZ
        0.0000        0.0000        0.0000                  ANTENNA: DELTA H/E/N
     1     1                                                WAVELENGTH FACT L1/2
    20    L1    L2    L5    L6    L7    L8    C1    P1    C2# / TYPES OF OBSERV
          P2    C5    C6    C7    C8    S1    S2    S5    S6# / TYPES OF OBSERV
          S7    S8                                          # / TYPES OF OBSERV
    30.0000                                                 INTERVAL
    15                                                      LEAP SECONDS
Forced Modulo Decimation to 30 seconds                      COMMENT
 SNR is mapped to RINEX snr flag value [0-9]                COMMENT
  L1 & L2: min(max(int(snr_dBHz/6), 0), 9)                  COMMENT
teqc edited: Beidou # 1 - 37 excluded                       COMMENT
  2009    10    31     0     0    0.0000000     GPS         TIME OF FIRST OBS
                                                            END OF HEADER
 09 10 31  0  0  0.0000000  0  8G02G04G05G10G13G16G29G07
  -3459468.67248  -2682336.10546
                  21397976.6024                                   21397970.2934
                                                                        51.5004
        40.0004
   1722766.37947   1342174.00044
                  24370040.3364                                   24370037.2304
                                                                        43.2504
        24.0004
 -15307318.00048 -11890418.77347
                  21022688.9454                                   21022684.4454
                                                                        51.0004
        42.0004
 -13625906.61748 -10584625.12146
                  20480377.9384                                   20480373.7464
                                                                        52.2504
        41.2504
  -4148275.05948  -3219070.86345
                  21967134.5394                                   21967129.3284
                                                                        48.0004
        31.2504
 -11652894.21947  -9045481.20344
                  23539854.3284                                   23539849.0594
                                                                        43.2504
        26.0004
 -10354978.08248  -8040083.61346
                  21924707.5084                                   21924703.6684
                                                                        48.7504
        38.5004
 -13141072.94147 -10201742.47745
                  23141952.6954                                   23141947.7304
                                                                        44.5004
        31.7504
 09 10 31  0  0 30.0000000  0  8G02G04G05G10G13G16G29G07
  -3468075.18748  -2689042.48446
                  21396338.5634                                   21396332.1564
                                                                        51.5004
        39.7504
   1754473.24647   1366880.60244
                  24376073.4534                                   24376070.9454
                                                                        42.7504
        25.2504
 -15448388.99648 -12000344.23846
                  20995844.4924                                   20995839.9774
                                                                        51.0004
        41.5004
 -13744056.63748 -10676690.05546
                  20457894.4224                                   20457890.1334
                                                                        52.2504
        41.5004
  -4161556.73047  -3229420.24245
                  21964607.1174                                   21964602.3244
                                                                        47.7504
        31.7504
 -11758827.98047  -9128026.99244
                  23519695.5704                                   23519690.2734
                                                                        42.5004
        24.5004
 -10433752.42248  -8101466.21146
                  21909717.3834                                   21909713.6994
                                                                        49.7504
        38.0004
 -13297412.55947 -10323565.52345
                  23112201.6094                                   23112197.0474
                                                                        45.2504
        31.2504
 09 10 31  0  1  0.0000000  0  8G02G04G05G10G13G16G29G07
  -3476175.91448  -2695354.73846
                  21394797.2584                                   21394790.5944
                                                                        51.2504
        39.7504
   1786333.38747   1391706.64144
                  24382136.6564                                   24382133.5164
                                                                        43.5004
        25.5004
 -15588941.82848 -12109865.90646
                  20969097.6254                                   20969093.5664
                                                                        51.0004
        41.2504
 -13861600.52048 -10768282.68446
                  20435526.5704                                   20435522.1604
                                                                        52.5004
        40.7504
  -4174288.14847  -3239340.81245
                  21962183.9844                                   21962179.1684
                                                                        47.2504
        31.2504
 -11864107.97747  -9210063.36343
                  23499661.3754                                   23499655.6804
                                                                        42.5004
        23.7504
 -10511861.31248  -8162330.28546
                  21894853.5634                                   21894849.5664
                                                                        48.5004
        37.5004
 -13453242.41447 -10444991.35545
                  23082548.6094                                   23082543.3874
                                                                        44.7504
        30.7504
 09 10 31  0  1 30.0000000  0  8G02G04G05G10G13G16G29G07
  -3483775.82448  -2701276.75046
                  21393350.7034                                   21393344.5784
                                                                        50.7504
        39.7504
   1818341.97347   1416648.33643
                  24388227.9614                                   24388225.2154
                                                                        42.5004
        23.5004
 -15728977.83248 -12218984.86746
                  20942449.9224                                   20942445.6054
                                                                        51.0004
        41.5004
 -13978540.95748 -10859405.10246
                  20413273.8284                                   20413269.4264
                                                                        52.5004
        41.2504
  -4186474.55147  -3248836.70345
                  21959865.3594                                   21959860.4454
                                                                        47.2504
        30.7504
 -11968736.43047  -9291592.03544
                  23479751.6094                                   23479746.1764
                                                                        42.5004
        24.0004
 -10589307.79748  -8222678.19946
                  21880116.2664                                   21880112.1524
                                                                        49.5004
        38.0004
 -13608562.92247 -10566020.31245
                  23052992.1254                                   23052986.5864
                                                                        45.0004
        30.5004
 09 10 31  0  2  0.0000000  0  8G02G04G05G10G13G16G29G07
  -3490875.80148  -2706809.20346
                  21391999.6414                                   21391993.6254
                                                                        50.5004
        39.0004
   1850497.76246   1441704.78543
                  24394346.3134                                   24394343.3324
                                                                        41.5004
        22.2504
 -15868495.16848 -12327699.67247
                  20915900.5474                                   20915896.3674
                                                                        51.0004
        42.0004
 -14094875.82048 -10950055.64546
                  20391135.9384                                   20391131.8594
                                                                        51.7504
        41.5004
  -4198117.57047  -3257909.18045
                  21957649.7034                                   21957644.7894
                                                                        47.5004
        31.5004
 -12072711.58246  -9372611.61744
                  23459965.8204                                   23459960.4534
                                                                        41.2504
        24.0004
 -10666090.99248  -8282509.26246
                  21865504.8054                                   21865500.7344
                                                                        48.2504
        38.2504
 -13763370.71547 -10686649.77745
                  23023532.9384                                   23023527.8484
                                                                        44.5004
        31.0004
 09 10 31  0  2 30.0000000  0  8G02G04G05G10G13G16G29G07
  -3497477.39148  -2711953.30946
                  21390743.8914                                   21390737.2384
                                                                        50.5004
        39.0004
   1882799.68446   1466875.13743
                  24400493.8284                                   24400490.2774
                                                                        41.7504
        21.5004
 -16007491.72348 -12436008.66047
                  20889450.4614                                   20889445.7034
                                                                        51.5004
        42.0004
 -14210603.40248 -11040232.98046
                  20369113.8834                                   20369109.6134
                                                                        52.5004
        41.2504
  -4209219.36347  -3266559.94545
                  21955536.5704                                   21955532.2424
                                                                        47.0004
        31.0004
 -12176031.86347  -9453120.93443
                  23440304.8284                                   23440299.0904
                                                                        42.5004
        22.5004
 -10742210.53948  -8341823.18746
                  21851019.8204                                   21851015.6174
                                                                        49.5004
        38.2504
 -13917662.73447 -10806877.41845
                  22994172.3914                                   22994167.0824
                                                                        44.5004
        30.0004
 09 10 31  0  3  0.0000000  0  8G02G04G05G10G13G16G29G07
  -3503582.26648  -2716710.35546
                  21389581.8834                                   21389575.5204
                                                                        51.0004
        39.2504
   1915245.57846   1492157.66043
                  24406668.1644                                   24406664.8284
                                                                        40.7504
        22.2504
 -16145966.19948 -12543910.84047
                  20863099.5784                                   20863095.5204
                                                                        51.7504
        42.0004
 -14325723.47348 -11129936.94146
                  20347207.1804                                   20347203.0554
                                                                        52.5004
        41.5004
  -4219781.58647  -3274790.26245
                  21953527.3054                                   21953522.3794
                                                                        47.5004
        30.7504
 -12278696.38347  -9533119.25043
                  23420768.2504                                   23420762.1454
                                                                        42.0004
        22.7504
 -10817666.51648  -8400620.05946
                  21836660.8594                                   21836656.7034
                                                                        48.7504
        37.7504
 -14071436.21547 -10926700.97745
                  22964909.6024                                   22964905.2704
                                                                        43.5004
        30.2504
 09 10 31  0  3 30.0000000  0  8G02G04G05G10G13G16G29G07
  -1933773.55948  -1493482.79746
                  21688306.2424                                   21688300.1804
                                                                        50.0004
        38.7504
   3523251.19146   2745148.98843
                  24712661.3284                                   24712657.4774
                                                                        41.5004
        22.7504
 -14708493.77048 -11423802.44547
                  21136641.7034                                   21136637.3444
                                                                        51.7504
        42.0004
 -12864812.36348  -9991564.64846
                  20625209.2814                                   20625205.3794
                                                                        52.5004
        41.5004
  -2654387.87147  -2055002.94945
                  22251411.9064                                   22251407.0634
                                                                        46.5004
        31.0004
 -10805282.71947  -8385004.72743
                  23701149.3754                                   23701143.9534
                                                                        42.7504
        22.5004
  -9317038.21148  -7231299.27346
                  22122221.3284                                   22122216.6604
                                                                        48.5004
        38.0004
 -12649265.07847  -9818515.77045
                  23235540.2504                                   23235535.6334
                                                                        43.2504
        30.0004
 09 10 31  0  4  0.0000000  0  8G02G04G05G10G13G16G29G07
  -1938897.00048  -1497475.07446
                  21687331.6484                                   21687325.1054
                                                                        50.7504
        39.0004
   3555972.59447   2770645.98444
                  24718887.8204                                   24718884.7544
                                                                        42.7504
        24.5004
 -14845926.02348 -11530892.50446
                  21110489.4774                                   21110484.7304
                                                                        51.7504
        41.5004
 -12978720.73848 -10080324.41046
                  20603533.2584                                   20603529.1764
                                                                        52.0004
        41.7504
  -2663885.25847  -2062403.50445
                  22249604.3204                                   22249600.0944
                                                                        46.7504
        31.2504
 -10906640.28946  -8463984.64143
                  23681861.8914                                   23681856.1764
                                                                        41.2504
        23.0004
  -9391174.07448  -7289067.47746
                  22108113.6484                                   22108109.5204
                                                                        49.0004
        38.0004
 -12802000.53147  -9937530.59044
                  23206475.6094                                   23206471.5274
                                                                        43.0004
        29.5004
 09 10 31  0  4 30.0000000  0  8G02G04G05G10G13G16G29G07
  -1943534.70748  -1501088.86746
                  21686448.6564                                   21686442.1684
                                                                        50.0004
        39.0004
   3588827.09047   2796246.73844
                  24725140.0314                                   24725136.9574
                                                                        43.5004
        25.5004
 -14982837.18048 -11637576.53147
                  21084435.8134                                   21084431.5124
                                                                        52.0004
        42.0004
 -13092023.90648 -10168612.58646
                  20581972.3444                                   20581968.2274
                                                                        52.0004
        41.5004
  -2672855.84447  -2069393.57845
                  22247897.7274                                   22247892.8954
                                                                        46.5004
        32.0004
 -11007345.02747  -8542455.86344
                  23662697.8674                                   23662692.4924
                                                                        43.0004
        25.0004
  -9464652.51648  -7346323.40246
                  22094130.9614                                   22094126.7774
                                                                        49.5004
        38.7504
 -12954214.76247 -10056139.18445
                  23177510.5004                                   23177505.9024
                                                                        44.5004
        31.0004
 09 10 31  0  5  0.0000000  0  8G02G04G05G10G13G16G29G07
  -1947689.95748  -1504326.73846
                  21685658.0234                                   21685651.6214
                                                                        49.5004
        39.0004
   3621811.69147   2821949.00044
                  24731416.8444                                   24731414.5164
                                                                        43.2504
        24.2504
 -15119226.93748 -11743854.25847
                  21058481.6564                                   21058477.0664
                                                                        52.0004
        42.5004
 -13204722.64848 -10256429.77346
                  20560526.2274                                   20560522.0744
                                                                        51.7504
        41.2504
  -2681303.46547  -2075976.15245
                  22246289.7734                                   22246285.5824
                                                                        47.0004
        31.5004
 -11107397.70347  -8620418.96943
                  23643658.5164                                   23643653.3444
                                                                        42.5004
        23.7504
  -9537475.05548  -7403068.24246
                  22080273.5004                                   22080269.1724
                                                                        49.0004
        37.7504
 -13105906.88347 -10174340.93045
                  23148644.4774                                   23148640.0664
                                                                        45.5004
        32.5004
 09 10 31  0  5 30.0000000  0  8G02G04G05G10G13G16G29G07
  -1951363.55148  -1507189.28546
                  21684959.0314                                   21684953.2664
                                                                        50.0004
        38.5004
   3654925.52347   2847752.00443
                  24737717.9694                                   24737715.2034
                                                                        42.5004
        22.0004
 -15255092.54348 -11849723.57047
                  21032627.2034                                   21032623.0784
                                                                        51.5004
        42.2504
 -13316814.92648 -10343774.39546
                  20539196.0864                                   20539191.8954
                                                                        53.0004
        41.5004
  -2689229.28147  -2082152.12145
                  22244781.5004                                   22244776.5434
                                                                        45.5004
        31.2504
 -11206796.39547  -8697872.50444
                  23624743.8834                                   23624738.2194
                                                                        42.7504
        25.5004
  -9609640.76248  -7459301.26646
                  22066540.8284                                   22066536.2034
                                                                        48.7504
        38.2504
 -13257073.25847 -10292133.05545
                  23119878.4614                                   23119874.2344
                                                                        44.0004
        32.2504
 09 10 31  0  6  0.0000000  0  7G02G05G10G13G16G29G07
  -1954558.94948  -1509679.22746
                  21684351.2274                                   21684344.8324
                                                                        50.5004
        39.0004
 -15390434.96948 -11955185.18747
                  21006872.5084                                   21006868.1804
                                                                        51.7504
        42.0004
 -13428302.03948 -10430647.47347
                  20517980.5864                                   20517976.7544
                                                                        53.0004
        42.0004
  -2696637.47747  -2087924.75845
                  22243372.2274                                   22243366.8364
                                                                        46.5004
        30.2504
 -11305542.28947  -8774817.36744
                  23605953.4844                                   23605948.0204
                                                                        43.0004
        24.5004
  -9681151.32448  -7515023.78146
                  22052932.2974                                   22052928.3204
                                                                        49.5004
        37.7504
 -13407712.52047 -10409514.21145
                  23091212.9774                                   23091208.6954
                                                                        45.2504
        31.5004
 09 10 31  0  6 30.0000000  0  7G02G05G10G13G16G29G07
  -1957283.02748  -1511801.90246
                  21683832.8054                                   21683826.4734
                                                                        50.5004
        39.0004
 -15525257.28148 -12060241.54747
                  20981216.5394                                   20981212.0274
                                                                        52.0004
        42.2504
 -13539187.29748 -10517051.56246
                  20496879.7974                                   20496875.8794
                                                                        52.5004
        41.2504
  -2703535.25447  -2093299.67244
                  22242059.2734                                   22242054.2584
                                                                        46.5004
        29.7504
 -11403639.29347  -8851256.59843
                  23587285.9694                                   23587280.6334
                                                                        42.2504
        23.2504
  -9752011.93748  -7570239.84846
                  22039447.9384                                   22039443.8754
                                                                        48.7504
        37.7504
 -13557827.31247 -10526486.73445
                  23062647.1174                                   23062642.4804
                                                                        45.0004
        32.5004
 09 10 31  0  7  0.0000000  0  7G02G05G10G13G16G29G07
  -1959533.32048  -1513555.39546
                  21683404.6174                                   21683398.2034
                                                                        50.2504
        38.2504
 -15659553.64148 -12164888.07447
                  20955660.6804                                   20955656.7544
                                                                        51.7504
        42.2504
 -13649465.95748 -10602983.01246
                  20475894.5474                                   20475890.5434
                                                                        52.7504
        41.5004
  -2709920.53947  -2098275.23045
                  22240844.1254                                   22240839.2234
                                                                        46.5004
        30.2504
 -11501082.69147  -8927186.50444
                  23568742.5004                                   23568737.4694
                                                                        42.7504
        24.5004
  -9822218.68048  -7624946.41046
                  22026088.3594                                   22026084.0474
                                                                        49.0004
        38.2504
 -13707411.04347 -10643045.47745
                  23034182.3834                                   23034177.2544
                                                                        45.2504
        30.7504
 09 10 31  0  7 30.0000000  0  7G02G05G10G13G16G29G07
  -1961309.75048  -1514939.63346
                  21683066.5704                                   21683060.4224
                                                                        50.0004
        39.0004
 -15793320.80148 -12269122.21547
                  20930205.5784                                   20930201.3364
                                                                        52.5004
        42.7504
 -13759135.33248 -10688439.68446
                  20455025.1334                                   20455021.5164
                                                                        52.7504
        41.7504
  -2715793.98447  -2102851.97345
                  22239726.6094                                   22239721.8874
                                                                        45.0004
        31.2504
 -11597869.60947  -9002604.90244
                  23550325.1564                                   23550319.4184
                                                                        42.5004
        25.0004
  -9891770.14848  -7679142.35946
                  22012853.2194                                   22012849.1294
                                                                        49.5004
        37.5004
 -13856459.62947 -10759187.17645
                  23005819.0394                                   23005814.1884
                                                                        43.7504
        30.5004
 09 10 31  0  8  0.0000000  0  7G02G05G10G13G16G29G07
  -1962617.80548  -1515958.89846
                  21682817.6484                                   21682811.1414
                                                                        49.7504
        39.2504
 -15926560.87548 -12372945.64847
                  20904851.1254                                   20904846.3484
                                                                        52.2504
        42.0004
 -13868198.24248 -10773423.75847
                  20434271.1334                                   20434267.1914
                                                                        52.7504
        42.0004
  -2721161.93447  -2107034.84044
                  22238705.0164                                   22238700.4064
                                                                        46.0004
        29.5004
 -11694003.25847  -9077514.23843
                  23532031.4844                                   23532025.9844
                                                                        42.7504
        22.5004
  -9960669.98848  -7732830.55146
                  21999741.8594                                   21999737.5904
                                                                        49.5004
        38.0004
 -14004973.53147 -10874912.26645
                  22977557.6024                                   22977552.9694
                                                                        45.0004
        30.2504
 09 10 31  0  8 30.0000000  0  7G02G05G10G13G16G29G07
  -1963461.94148  -1516616.68046
                  21682657.0084                                   21682650.9694
                                                                        49.5004
        38.7504
 -16059275.26648 -12476359.45347
                  20879596.0234                                   20879591.7154
                                                                        52.0004
        42.5004
 -13976656.52748 -10857936.69146
                  20413632.4384                                   20413628.3524
                                                                        52.5004
        41.5004
  -2726028.51247  -2110826.96544
                  22237778.8284                                   22237774.7734
                                                                        45.7504
        29.7504
 -11789485.56247  -9151916.03144
                  23513861.6334                                   23513856.1994
                                                                        42.5004
        25.2504
 -10028921.03948  -7786013.18446
                  21986754.4694                                   21986750.1054
                                                                        50.0004
        38.2504
 -14152953.16447 -10990221.39545
                  22949398.4454                                   22949393.5944
                                                                        44.5004
        30.0004
 09 10 31  0  9  0.0000000  0  7G02G05G10G13G16G29G07
  -1963847.78148  -1516917.33646
                  21682583.3204                                   21682577.2304
                                                                        49.2504
        38.0004
 -16191466.08648 -12579365.28946
                  20854441.3984                                   20854437.3134
                                                                        52.5004
        41.7504
 -14084513.12948 -10941980.79746
                  20393107.8524                                   20393103.9224
                                                                        52.0004
        41.5004
  -2730400.18747  -2114233.46545
                  22236947.0474                                   22236942.4654
                                                                        45.5004
        30.2504
 -11884319.38347  -9225812.52744
                  23495815.5634                                   23495809.8874
                                                                        42.0004
        24.2504
 -10096527.67648  -7838693.68446
                  21973889.2274                                   21973885.0434
                                                                        49.5004
        38.0004
 -14300399.27347 -11105114.52045
                  22921341.0004                                   22921336.2034
                                                                        45.0004
        30.7504
 09 10 31  0  9 30.0000000  0  7G02G05G10G13G16G29G07
  -1963781.74248  -1516865.89846
                  21682595.8364                                   21682589.7894
                                                                        49.7504
        38.2504
 -16323136.12548 -12681965.32047
                  20829385.5634                                   20829380.8094
                                                                        52.5004
        42.7504
 -14191771.68448 -11025558.87146
                  20372697.1884                                   20372692.8754
                                                                        52.5004
        41.2504
  -2734284.15647  -2117259.96144
                  22236207.8674                                   22236203.4654
                                                                        46.0004
        29.7504
 -11978508.84847  -9299206.90243
                  23477892.1094                                   23477886.0824
                                                                        42.5004
        22.7504
 -10163494.58648  -7890875.68446
                  21961145.6094                                   21961141.8714
                                                                        49.2504
        37.7504
 -14447313.93747 -11219593.38745
                  22893383.3754                                   22893378.7664
                                                                        44.0004
        31.2504
 09 10 31  0 10  0.0000000  0  7G02G05G10G13G16G29G07
  -1963266.17248  -1516464.15246
                  21682694.0784                                   21682688.3554
                                                                        49.7504
        38.2504
 -16454284.98448 -12784159.23847
                  20804428.4224                                   20804424.1254
                                                                        52.5004
        42.2504
 -14298432.31248 -11108671.03546
                  20352400.4144                                   20352396.2624
                                                                        52.5004
        41.7504
  -2737683.14547  -2119908.56245
                  22235561.6254                                   22235556.7974
                                                                        45.0004
        30.2504
 -12072053.72347  -9372099.02343
                  23460090.7814                                   23460085.6564
                                                                        43.0004
        23.5004
 -10229822.85948  -7942560.05146
                  21948523.5704                                   21948519.8094
                                                                        49.5004
        38.0004
 -14593695.37147 -11333656.72345
                  22865527.9224                                   22865523.1374
                                                                        44.7504
        31.0004
 09 10 31  0 10 30.0000000  0  7G02G05G10G13G16G29G07
  -1962304.54748  -1515714.84846
                  21682877.2344                                   21682870.9454
                                                                        48.0004
        38.5004
 -16584912.37948 -12885946.82847
                  20779571.0864                                   20779566.3714
                                                                        52.7504
        42.0004
 -14404495.55948 -11191317.72746
                  20332217.2034                                   20332213.0704
                                                                        52.7504
        41.2504
  -2740601.07847  -2122182.30544
                  22235005.9534                                   22235001.4494
                                                                        43.5004
        29.5004
 -12164954.75046  -9444489.43443
                  23442412.8284                                   23442406.6024
                                                                        40.7504
        23.5004
 -10295514.01248  -7993747.96146
                  21936023.1724                                   21936018.9574
                                                                        48.2504
        37.2504
 -14739543.04747 -11447304.33645
                  22837773.5944                                   22837769.3794
                                                                        45.2504
        31.0004
 09 10 31  0 11  0.0000000  0  7G02G05G10G13G16G29G07
  -1960900.94548  -1514621.16046
                  21683144.5394                                   21683137.9534
                                                                        49.5004
        38.5004
 -16715019.29748 -12987328.83247
                  20754812.5234                                   20754808.0514
                                                                        52.0004
        42.5004
 -14509962.47748 -11273499.73846
                  20312147.5394                                   20312143.5314
                                                                        52.0004
        41.5004
  -2743042.20747  -2124084.53145
                  22234541.3444                                   22234537.0204
                                                                        44.5004
        30.2504
 -12257213.78947  -9516379.58644
                  23424856.4224                                   23424850.3484
                                                                        43.0004
        24.5004
 -10360570.63748  -8044441.42646
                  21923643.1884                                   21923639.3054
                                                                        49.0004
        37.5004
 -14884856.04747 -11560535.44545
                  22810121.6884                                   22810117.5594
                                                                        45.5004
        31.5004
 09 10 31  0 11 30.0000000  0  7G02G05G10G13G16G29G07
  -1959053.38748  -1513181.49246
                  21683495.7974                                   21683489.8364
                                                                        49.5004
        38.5004
 -16844600.80548 -13088301.43747
                  20730153.9454                                   20730149.0514
                                                                        52.5004
        43.0004
 -14614828.99648 -11355213.88746
                  20292192.1644                                   20292187.7344
                                                                        52.5004
        41.2504
  -2745005.28147  -2125614.21944
                  22234168.0784                                   22234163.1884
                                                                        45.0004
        29.5004
 -12348826.63347  -9587766.22744
                  23407422.4144                                   23407416.7774
                                                                        43.0004
        25.5004
 -10424989.70348  -8094638.09846
                  21911384.8594                                   21911380.7034
                                                                        49.2504
        38.0004
 -15029628.18747 -11673345.01645
                  22782572.8134                                   22782568.6484
                                                                        46.0004
        32.0004
 09 10 31  0 12  0.0000000  0  7G02G05G10G13G16G29G07
  -1956766.85948  -1511399.80146
                  21683931.1954                                   21683925.1094
                                                                        49.2504
        37.5004
 -16973657.81248 -13188865.33647
                  20705594.9924                                   20705590.6844
                                                                        52.5004
        43.0004
 -14719096.91848 -11436461.61746
                  20272350.5164                                   20272346.3054
                                                                        52.7504
        41.7504
  -2746495.40647  -2126775.36744
                  22233884.3444                                   22233879.7304
                                                                        45.2504
        29.2504
 -12439795.42646  -9658651.02744
                  23390112.1094                                   23390106.2234
                                                                        41.2504
        24.0004
 -10488774.12148  -8144340.22746
                  21899246.9694                                   21899243.0554
                                                                        49.5004
        37.7504
 -15173859.52347 -11785732.95745
                  22755126.3134                                   22755122.5474
                                                                        45.0004
        32.5004
 09 10 31  0 12 30.0000000  0  7G02G05G10G13G16G29G07
  -1954045.46148  -1509279.24646
                  21684449.0554                                   21684442.7194
                                                                        48.2504
        38.2504
 -17102191.71548 -13289021.62147
                  20681135.9924                                   20681131.4144
                                                                        52.2504
        42.5004
 -14822768.41048 -11517244.58246
                  20252622.4064                                   20252618.3054
                                                                        52.5004
        41.5004
  -2747517.78147  -2127572.11344
                  22233689.8834                                   22233684.8914
                                                                        44.0004
        28.0004
 -12530122.12547  -9729035.46544
                  23372923.1884                                   23372917.8634
                                                                        42.0004
        26.5004
 -10551926.98448  -8193550.24646
                  21887229.2194                                   21887225.5744
                                                                        48.2504
        38.0004
 -15317550.54747 -11897699.94145
                  22727783.1024                                   22727778.3444
                                                                        46.2504
        32.2504
 09 10 31  0 13  0.0000000  0  7G02G05G10G13G16G29G07
   -375472.18048   -279222.15646
                  21984841.3834                                   21984835.0824
                                                                        49.2504
        37.5004
 -15654777.73048 -12161166.57047
                  20956569.7664                                   20956565.3984
                                                                        53.0004
        43.0004
 -13350419.86748 -10369960.00046
                  20532801.2274                                   20532796.9964
                                                                        52.7504
        41.5004
  -1172655.35247   -900406.62544
                  22533376.1254                                   22533371.4184
                                                                        44.7504
        27.7504
 -11044384.40247  -8571317.75044
                  23655649.9774                                   23655644.2814
                                                                        42.5004
        26.5004
  -9039027.63748  -7014667.64146
                  22175124.8204                                   22175120.7384
                                                                        48.7504
        37.2504
 -13885274.91047 -10781641.03945
                  23000335.7274                                   23000331.4414
                                                                        46.2504
        32.0004
 09 10 31  0 13 30.0000000  0  7G02G05G10G13G16G29G07
   -371889.18448   -276430.21946
                  21985523.2034                                   21985516.9104
                                                                        49.0004
        37.7504
 -15782263.55948 -12260506.16447
                  20932310.2424                                   20932305.7704
                                                                        52.7504
        42.5004
 -13452898.57848 -10449813.53546
                  20513300.0704                                   20513296.0864
                                                                        52.7504
        41.5004
  -1172751.37147   -900481.43744
                  22533357.3674                                   22533352.9574
                                                                        44.5004
        29.2504
 -11133427.95747  -8640702.34044
                  23638705.7274                                   23638700.0824
                                                                        42.0004
        25.7504
  -9100921.34048  -7062896.50046
                  22163346.6024                                   22163342.6954
                                                                        48.7504
        36.7504
 -14027879.74647 -10892761.56245
                  22973198.9384                                   22973194.4964
                                                                        45.5004
        32.2504
 09 10 31  0 14  0.0000000  0  7G02G05G10G13G16G29G07
   -367879.50048   -273305.80546
                  21986286.5554                                   21986280.3634
                                                                        49.5004
        38.0004
 -15909224.45348 -12359436.72747
                  20908149.9844                                   20908145.6644
                                                                        52.5004
        42.5004
 -13554781.06248 -10529202.50046
                  20493912.6094                                   20493908.3634
                                                                        52.2504
        41.5004
  -1172388.84847   -900198.94144
                  22533427.4614                                   22533422.2384
                                                                        45.2504
        28.2504
 -11221830.52047  -8709587.48044
                  23621883.1254                                   23621877.4804
                                                                        42.5004
        26.5004
  -9162187.52748  -7110636.38346
                  22151687.8364                                   22151684.2774
                                                                        49.7504
        37.5004
 -14169939.29347 -11003457.20745
                  22946165.7194                                   22946161.4454
                                                                        45.7504
        32.2504
 09 10 31  0 14 30.0000000  0  7G02G05G10G13G16G29G07
   -363445.14848   -269850.45346
                  21987130.6024                                   21987123.9454
                                                                        48.5004
        38.0004
 -16035658.98848 -12457957.14547
                  20884090.3674                                   20884086.1844
                                                                        52.5004
        43.0004
 -13656066.73848 -10608126.40246
                  20474638.6254                                   20474634.2854
                                                                        53.0004
        41.7504
  -1171570.42247   -899561.21944
                  22533583.0554                                   22533577.9534
                                                                        43.2504
        29.7504
 -11309591.69946  -8777972.80144
                  23605182.8204                                   23605177.5474
                                                                        41.5004
        25.5004
  -9222826.45348  -7157887.50046
                  22140148.8134                                   22140144.7624
                                                                        48.7504
        37.7504
 -14311451.59047 -11113726.52345
                  22919236.8674                                   22919232.6214
                                                                        46.0004
        31.2504
 09 10 31  0 15  0.0000000  0  7G02G05G10G13G16G29G07
   -358586.07048   -266064.14146
                  21988054.7274                                   21988048.1454
                                                                        49.0004
        37.5004
 -16161564.02348 -12556064.96547
                  20860131.4304                                   20860127.0984
                                                                        52.0004
        42.7504
 -13756753.10248 -10686583.31246
                  20455478.6024                                   20455474.0164
                                                                        52.2504
        41.5004
  -1170296.37947   -898568.46144
                  22533824.9774                                   22533820.9924
                                                                        45.2504
        28.7504
 -11396709.25046  -8845856.60944
                  23588604.5864                                   23588599.5514
                                                                        41.5004
        26.0004
  -9282836.95348  -7204648.92246
                  22128729.3524                                   22128725.4694
                                                                        49.2504
        38.2504
 -14452411.70347 -11223565.53945
                  22892413.1644                                   22892408.3834
                                                                        45.2504
        31.5004
 09 10 31  0 15 30.0000000  0  7G02G05G10G13G16G29G07
   -353303.14148   -261947.58246
                  21989060.1414                                   21989054.0514
                                                                        49.0004
        37.5004
 -16286937.30948 -12653758.42647
                  20836273.4694                                   20836269.3484
                                                                        52.2504
        42.7504
 -13856838.56248 -10764571.99246
                  20436432.9304                                   20436428.4844
                                                                        52.5004
        41.5004
  -1168568.13347   -897221.83244
                  22534154.5864                                   22534149.8324
                                                                        44.5004
        29.0004
 -11483181.83646  -8913237.84444
                  23572149.4614                                   23572144.4774
                                                                        41.7504
        25.7504
  -9342218.57048  -7250920.31646
                  22117429.1564                                   22117425.3554
                                                                        48.2504
        38.2504
 -14592816.35947 -11332971.72345
                  22865695.2974                                   22865690.1374
                                                                        46.7504
        31.5004
 09 10 31  0 16  0.0000000  0  7G02G05G10G13G16G29G07
   -347601.96148   -257505.10946
                  21990145.2424                                   21990138.9694
                                                                        49.0004
        37.2504
 -16411780.82048 -12751039.07447
                  20812517.0004                                   20812512.9264
                                                                        52.0004
        42.5004
 -13956325.83648 -10842094.54746
                  20417501.0864                                   20417497.0744
                                                                        52.0004
        41.2504
  -1166391.87547   -895526.09844
                  22534568.4844                                   22534563.5514
                                                                        44.5004
        28.2504
 -11569012.36747  -8980118.76644
                  23555817.0944                                   23555811.2154
                                                                        43.0004
        26.5004
  -9400975.18048  -7296704.68046
                  22106247.9384                                   22106244.3364
                                                                        49.5004
        37.2504
 -14732666.32447 -11441945.69545
                  22839082.6954                                   22839077.9064
                                                                        47.2504
        32.5004
 09 10 31  0 16 30.0000000  0  7G02G05G10G13G16G29G07
   -341487.78948   -252740.84446
                  21991308.5314                                   21991302.3404
                                                                        48.5004
        37.2504
 -16536097.02748 -12847908.84847
                  20788860.3834                                   20788855.8674
                                                                        52.2504
        42.7504
 -14055218.03948 -10919153.41446
                  20398682.4384                                   20398678.4344
                                                                        52.5004
        41.5004
  -1163773.34047   -893485.73044
                  22535066.5784                                   22535061.9884
                                                                        43.5004
        27.7504
 -11654204.25447  -9046502.07044
                  23539605.2894                                   23539600.4104
                                                                        42.2504
        27.2504
  -9459111.35948  -7342005.60246
                  22095185.2114                                   22095181.4384
                                                                        48.0004
        38.0004
 -14871963.35547 -11550488.79745
                  22812574.9694                                   22812570.6374
                                                                        47.0004
        32.2504
 09 10 31  0 17  0.0000000  0  7G02G05G10G13G16G29G07
   -334961.25848   -247655.25846
                  21992550.2274                                   21992544.2464
                                                                        49.2504
        37.2504
 -16659882.94548 -12944365.39547
                  20765304.6954                                   20765300.4734
                                                                        52.0004
        42.7504
 -14153513.12148 -10995746.99246
                  20379977.5784                                   20379973.5084
                                                                        52.0004
        41.2504
  -1160713.50847   -891101.52344
                  22535648.8134                                   22535644.5864
                                                                        44.5004
        27.7504
 -11738755.38747  -9112386.05544
                  23523515.1334                                   23523510.5474
                                                                        43.0004
        26.0004
  -9516625.97748  -7386822.18746
                  22084240.6564                                   22084236.9534
                                                                        48.7504
        37.7504
 -15010703.62547 -11658598.15245
                  22786173.6884                                   22786169.0434
                                                                        46.7504
        32.0004
 09 10 31  0 17 30.0000000  0  8G02G08G05G10G13G16G29G07
   -328022.82048   -242248.68746
                  21993870.7274                                   21993864.9694
                                                                        48.2504
        37.5004
   2914822.54756   2311111.43853
                  24626064.3914                                   24626061.9964
                                                                        41.2504
        20.0004
 -16783136.12548 -13040406.83247
                  20741850.3914                                   20741845.9804
                                                                        51.5004
        43.0004
 -14251209.17648 -11071873.78946
                  20361386.6954                                   20361382.1994
                                                                        51.2504
        40.5004
  -1157213.57447   -888374.41844
                  22536315.1484                                   22536310.6174
                                                                        43.2504
        28.0004
 -11822664.58646  -9177769.86744
                  23507548.2814                                   23507543.0634
                                                                        41.7504
        25.0004
  -9573518.56647  -7431154.07446
                  22073414.2194                                   22073410.5084
                                                                        47.5004
        38.0004
 -15148883.49247 -11766270.89845
                  22759879.7034                                   22759874.4614
                                                                        47.7504
        32.2504
 09 10 31  0 18  0.0000000  0  8G02G08G05G10G13G16G29G07
   -320678.92647   -236526.18746
                  21995268.6174                                   21995262.3524
                                                                        47.7504
        37.5004
   2723489.18446   2162020.57043
                  24589654.6724                                   24589652.1604
                                                                        41.0004
        20.2504
 -16905859.60548 -13136035.50447
                  20718496.6094                                   20718492.1724
                                                                        51.7504
        43.7504
 -14348310.18048 -11147536.91446
                  20342908.8834                                   20342904.6764
                                                                        52.0004
        41.5004
  -1153280.33647   -885309.78544
                  22537063.6644                                   22537058.9774
                                                                        42.7504
        27.0004
 -11905935.89146  -9242656.60244
                  23491701.8284                                   23491697.3794
                                                                        41.5004
        25.2504
  -9629793.92647  -7475004.99646
                  22062705.1804                                   22062701.4654
                                                                        47.5004
        37.5004
 -15286504.46947 -11873507.92245
                  22733690.7424                                   22733685.8284
                                                                        47.5004
        31.2504
 09 10 31  0 18 30.0000000  0  8G02G08G05G10G13G16G29G07
   -312935.25448   -230492.14846
                  21996741.8134                                   21996735.3754
                                                                        48.2504
        36.7504
   2532345.69946   2013077.69143
                  24553281.6644                                   24553278.6054
                                                                        41.5004
        21.0004
 -17028055.57448 -13231253.14547
                  20695243.7424                                   20695239.4884
                                                                        51.5004
        42.7504
 -14444819.14548 -11222738.70746
                  20324543.7584                                   20324539.4414
                                                                        52.0004
        41.5004
  -1148919.69147   -881912.09844
                  22537893.9534                                   22537889.0394
                                                                        43.2504
        28.0004
 -11988572.71147  -9307048.91444
                  23475976.3284                                   23475971.4494
                                                                        42.0004
        26.2504
  -9685456.62947  -7518378.53146
                  22052113.1024                                   22052109.0204
                                                                        46.5004
        37.2504
 -15423568.51248 -11980311.03545
                  22707607.7114                                   22707603.0514
                                                                        48.0004
        32.2504
 09 10 31  0 19  0.0000000  0  8G02G08G05G10G13G16G29G07
   -304792.77048   -224147.34046
                  21998291.1954                                   21998284.7974
                                                                        48.0004
        36.2504
   2341396.37547   1864286.08644
                  24516945.9144                                   24516942.0274
                                                                        44.0004
        24.5004
 -17149721.78548 -13326057.98047
                  20672091.0944                                   20672086.7894
                                                                        51.7504
        43.0004
 -14540734.47748 -11297477.91846
                  20306291.8914                                   20306287.3984
                                                                        52.0004
        41.5004
  -1144132.57847   -878181.94944
                  22538804.9614                                   22538799.8554
                                                                        45.0004
        27.5004
 -12070573.56247  -9370945.68744
                  23460373.1564                                   23460367.4964
                                                                        42.5004
        25.7504
  -9740506.10548  -7561274.21946
                  22041637.7894                                   22041633.7384
                                                                        48.0004
        37.5004
 -15560072.07847 -12086677.35245
                  22681632.2664                                   22681627.4924
                                                                        47.2504
        33.0004
 09 10 31  0 19 30.0000000  0  8G02G08G05G10G13G16G29G07
   -296248.27347   -217489.30946
                  21999917.2034                                   21999910.9534
                                                                        47.0004
        36.0004
   2150649.18447   1715651.91444
                  24480647.8284                                   24480644.1764
                                                                        45.0004
        24.7504
 -17270852.30548 -13420445.39847
                  20649040.7814                                   20649036.5474
                                                                        52.0004
        42.7504
 -14636050.55148 -11371750.18746
                  20288154.0554                                   20288149.6334
                                                                        52.0004
        41.2504
  -1138916.85247   -874117.68044
                  22539797.1724                                   22539792.5664
                                                                        45.0004
        28.2504
 -12151933.64547  -9434343.15244
                  23444890.0634                                   23444885.2734
                                                                        42.0004
        24.2504
  -9794938.63347  -7603689.16846
                  22031279.3754                                   22031275.4734
                                                                        47.5004
        37.5004
 -15696008.55547 -12192601.99645
                  22655764.2194                                   22655759.6684
                                                                        47.0004
        32.2504
 09 10 31  0 20  0.0000000  0  8G02G08G05G10G13G16G29G07
   -287303.66448   -210519.50846
                  22001619.3984                                   22001613.3094
                                                                        48.2504
        37.0004
   1960107.30547   1567177.62544
                  24444388.6644                                   24444386.0474
                                                                        44.5004
        26.0004
 -17391445.60548 -13514414.21547
                  20626093.0004                                   20626088.3324
                                                                        51.7504
        43.0004
 -14730766.93748 -11445555.15646
                  20270129.9614                                   20270125.3954
                                                                        51.5004
        41.0004
  -1133274.90647   -869721.24644
                  22540870.6884                                   22540865.6254
                                                                        45.5004
        27.2504
 -12232652.30947  -9497240.83644
                  23429529.6724                                   23429524.8594
                                                                        42.5004
        25.0004
  -9848754.37547  -7645623.53146
                  22021038.7424                                   22021034.8324
                                                                        47.5004
        37.5004
 -15831374.89547 -12298082.34445
                  22630005.4774                                   22630000.8094
                                                                        47.5004
        32.7504
 09 10 31  0 20 30.0000000  0  8G02G08G05G10G13G16G29G07
   -277959.14148   -203238.06246
                  22003398.0394                                   22003391.6214
                                                                        48.0004
        37.5004
   1769776.30947   1418867.80544
                  24408169.6174                                   24408167.0704
                                                                        43.5004
        24.7504
 -17511498.55948 -13607961.96547
                  20603247.6954                                   20603242.7974
                                                                        52.5004
        43.5004
 -14824881.51648 -11518891.17646
                  20252220.5394                                   20252216.0704
                                                                        52.5004
        41.2504
  -1127207.32047   -864993.29744
                  22542025.5234                                   22542020.6134
                                                                        42.5004
        28.2504
 -12312728.02746  -9559637.48044
                  23414291.6174                                   23414286.4454
                                                                        41.5004
        26.0004
  -9901952.45347  -7687076.57446
                  22010915.0864                                   22010911.2274
                                                                        47.5004
        37.0004
 -15966167.37147 -12403115.63745
                  22604355.1094                                   22604351.0634
                                                                        47.0004
        32.2504
 09 10 31  0 21  0.0000000  0  8G02G08G05G10G13G16G29G07
   -268215.34448   -195645.48846
                  22005252.0394                                   22005246.0124
                                                                        48.0004
        37.0004
   1579660.54347   1270725.75443
                  24371991.8364                                   24371988.7234
                                                                        42.5004
        22.0004
 -17631008.44548 -13701086.54347
                  20580505.4694                                   20580500.8094
                                                                        52.5004
        42.5004
 -14918392.06248 -11591756.53546
                  20234426.0704                                   20234421.5634
                                                                        51.7504
        40.7504
  -1120714.74647   -859934.07444
                  22543261.0554                                   22543256.6334
                                                                        44.0004
        27.2504
 -12392158.92646  -9621531.68444
                  23399177.0474                                   23399172.0864
                                                                        41.5004
        26.0004
  -9954532.07447  -7728047.71546
                  22000909.9064                                   22000905.6134
                                                                        47.5004
        37.0004
 -16100381.94147 -12507698.58645
                  22578814.9924                                   22578810.5234
                                                                        46.7504
        32.5004
 09 10 31  0 21 30.0000000  0  8G02G08G05G10G13G16G29G07
   -258071.79348   -187741.41046
                  22007182.1724                                   22007175.6804
                                                                        48.5004
        36.7504
   1389765.43846   1122755.66443
                  24335856.2504                                   24335852.2424
                                                                        41.7504
        22.5004
 -17749971.92648 -13793785.36347
                  20557867.5234                                   20557863.2774
                                                                        52.0004
        43.0004
 -15011296.38348 -11664149.52046
                  20216746.9384                                   20216743.1954
                                                                        52.0004
        41.5004
  -1113797.84847   -854544.35544
                  22544577.4844                                   22544572.7034
                                                                        44.5004
        28.5004
 -12470942.80946  -9682921.72744
                  23384184.7814                                   23384179.7704
                                                                        41.5004
        26.0004
 -10006492.00847  -7768535.97746
                  21991022.2034                                   21991017.9694
                                                                        47.5004
        37.5004
 -16234013.59847 -12611826.87145
                  22553385.7504                                   22553381.2814
                                                                        47.2504
        32.0004
 09 10 31  0 22  0.0000000  0  8G02G08G05G10G13G16G29G07
   -247535.99648   -179531.72345
                  22009186.4454                                   22009180.4694
                                                                        48.0004
        35.2504
   1200088.75047    974955.66043
                  24299761.7424                                   24299758.3714
                                                                        42.5004
        21.5004
 -17868393.15248 -13886061.64147
                  20535332.6724                                   20535328.2234
                                                                        51.5004
        42.7504
 -15103599.12948 -11736073.74246
                  20199182.1564                                   20199178.4104
                                                                        51.7504
        41.2504
  -1106464.00847   -848829.66844
                  22545972.3914                                   22545968.1604
                                                                        44.0004
        28.5004
 -12549085.09447  -9743811.80144
                  23369314.7344                                   23369309.8714
                                                                        42.0004
        26.0004
 -10057838.33648  -7808546.10246
                  21981250.9454                                   21981247.3284
                                                                        48.0004
        37.5004
 -16367066.73847 -12715504.60245
                  22528066.3444                                   22528061.9344
                                                                        47.5004
        32.5004
 09 10 31  0 22 30.0000000  0  8G02G08G05G10G13G16G29G07
   1338811.05147   1056582.85945
                  22311058.9774                                   22311052.4384
                                                                        47.7504
        35.5004
   2586061.36746   2054934.32843
                  24563502.7194                                   24563499.5354
                                                                        41.7504
        20.5004
 -16410845.58248 -12750310.28147
                  20812694.4774                                   20812690.0904
                                                                        51.5004
        43.0004
 -13619875.38348 -10579925.36746
                  20481525.2424                                   20481521.1024
                                                                        52.0004
        41.5004
    476705.05147    384808.50044
                  22847239.4384                                   22847235.4844
                                                                        44.2504
        27.2504
 -11051161.44146  -8576598.57444
                  23654360.5164                                   23654355.7424
                                                                        41.5004
        25.0004
  -8533148.98447  -6620476.48046
                  22271390.0944                                   22271386.1724
                                                                        47.5004
        37.5004
 -14924113.43447 -11591125.54345
                  22802651.3984                                   22802647.1954
                                                                        47.2504
        32.7504
 09 10 31  0 23  0.0000000  0  8G02G08G05G10G13G16G29G07
   1350127.08248   1065400.54345
                  22313212.1174                                   22313205.7384
                                                                        48.5004
        35.5004
   2396832.96147   1907483.65643
                  24527494.2114                                   24527490.7974
                                                                        43.5004
        21.7504
 -16528177.11748 -12841737.44947
                  20790367.0634                                   20790363.0824
                                                                        50.2504
        43.0004
 -13710971.81648 -10650909.60246
                  20464190.2664                                   20464186.3794
                                                                        51.0004
        41.5004
    484866.63747    391168.19144
                  22848792.6564                                   22848788.3364
                                                                        45.0004
        28.5004
 -11128018.10547  -8636486.89144
                  23639734.6254                                   23639729.5904
                                                                        42.2504
        25.0004
  -8583269.27347  -6659531.25446
                  22261852.5234                                   22261848.4964
                                                                        47.5004
        37.5004
 -15056000.37948 -11693894.53945
                  22777554.2974                                   22777549.6564
                                                                        48.0004
        33.2504
 09 10 31  0 23 30.0000000  0  8G02G08G05G10G13G16G29G07
   1361826.79348   1074517.19145
                  22315438.3134                                   22315432.3524
                                                                        48.5004
        35.7504
   2207829.89147   1760208.53544
                  24491528.2274                                   24491525.1094
                                                                        43.2504
        25.0004
 -16644965.43048 -12932741.33647
                  20768143.4384                                   20768138.8554
                                                                        50.5004
        43.2504
 -13801468.32048 -10721426.35946
                  20446969.5634                                   20446965.2814
                                                                        52.0004
        41.5004
    493435.00447    397844.87544
                  22850423.5784                                   22850418.8204
                                                                        43.7504
        28.2504
 -11204235.66046  -8695877.19144
                  23625230.8984                                   23625225.8674
                                                                        41.5004
        25.5004
  -8632781.25447  -6698112.01646
                  22252430.9614                                   22252427.1604
                                                                        47.5004
        38.0004
 -15187304.88747 -11796209.77045
                  22752568.1884                                   22752563.1214
                                                                        47.0004
        32.7504
 09 10 31  0 24  0.0000000  0  8G02G08G05G10G13G16G29G07
   1373908.09448   1083931.17246
                  22317737.9384                                   22317731.6254
                                                                        49.7504
        36.7504
   2019055.22347   1613111.34844
                  24455605.2584                                   24455602.5744
                                                                        43.2504
        25.5004
 -16761209.54348 -13023321.16047
                  20746022.6644                                   20746018.2544
                                                                        51.0004
        43.2504
 -13891364.62148 -10791475.41846
                  20429862.7974                                   20429858.8524
                                                                        51.5004
        41.2504
    502407.62947    404836.52344
                  22852131.1804                                   22852126.0594
                                                                        43.7504
        27.2504
 -11279814.09846  -8754769.49244
                  23610848.7584                                   23610844.1294
                                                                        41.5004
        26.5004
  -8681686.02348  -6736219.63346
                  22243124.3914                                   22243120.4884
                                                                        48.2504
        37.5004
 -15318024.33647 -11898069.06245
                  22727692.8984                                   22727688.1564
                                                                        47.7504
        33.0004
 09 10 31  0 24 30.0000000  0  8G02G08G05G10G13G16G29G07
   1386371.56648   1093642.96146
                  22320109.5944                                   22320103.2624
                                                                        48.7504
        37.2504
   1830515.03547   1466196.86743
                  24419727.6724                                   24419724.9654
                                                                        42.0004
        23.5004
 -16876905.77748 -13113474.06647
                  20724006.4534                                   20724002.0864
                                                                        50.7504
        43.5004
 -13980657.70348 -10861054.43447
                  20412870.7584                                   20412866.7734
                                                                        52.0004
        42.0004
    511784.66847    412143.29344
                  22853915.2814                                   22853910.6134
                                                                        44.5004
        27.2504
 -11354750.83646  -8813161.77744
                  23596588.6094                                   23596583.9224
                                                                        41.2504
        25.2504
  -8729981.76648  -6773852.66846
                  22233934.3284                                   22233930.0904
                                                                        48.2504
        37.2504
 -15448154.27047 -11999468.93045
                  22702929.8444                                   22702924.8754
                                                                        47.7504
        33.0004
 09 10 31  0 25  0.0000000  0  8G02G08G05G10G13G16G29G07
   1399213.43448   1103649.60546
                  22322552.9454                                   22322547.0234
                                                                        49.2504
        37.0004
   1642210.58246   1319466.14844
                  24383894.4534                                   24383891.7544
                                                                        41.0004
        24.0004
 -16992054.61748 -13203200.42647
                  20702094.3054                                   20702089.9884
                                                                        51.0004
        43.2504
 -14069348.88348 -10930164.42246
                  20395993.7424                                   20395989.3014
                                                                        51.5004
        41.0004
    521561.73047    419761.65244
                  22855775.9064                                   22855771.2624
                                                                        43.0004
        26.2504
 -11429048.11347  -8871055.75044
                  23582450.6564                                   23582445.7274
                                                                        42.0004
        26.5004
  -8777671.38348  -6811013.39846
                  22224859.2734                                   22224855.2664
                                                                        49.2504
        37.0004
 -15577694.78147 -12100409.55145
                  22678278.9694                                   22678273.8484
                                                                        47.7504
        32.0004
 09 10 31  0 25 30.0000000  0  8G02G08G05G10G13G16G29G07
   1412428.62948   1113947.14845
                  22325067.6884                                   22325061.9224
                                                                        48.0004
        35.7504
   1454142.50446   1172919.71543
                  24348105.5474                                   24348103.3524
                                                                        41.7504
        22.5004
 -17106657.94148 -13292501.73847
                  20680286.1644                                   20680281.7274
                                                                        51.7504
        43.5004
 -14157440.60248 -10998807.31246
                  20379230.4694                                   20379226.0944
                                                                        52.0004
        41.0004
    531733.88346    427687.87144
                  22857711.5474                                   22857707.2074
                                                                        41.7504
        26.7504
 -11502708.68047  -8928453.59444
                  23568433.3364                                   23568428.8914
                                                                        42.5004
        24.0004
  -8824758.48448  -6847704.64546
                  22215898.6644                                   22215894.4884
                                                                        49.0004
        38.0004
 -15706646.39147 -12200891.34845
                  22653740.2974                                   22653735.5314
                                                                        47.5004
        32.2504
 09 10 31  0 26  0.0000000  0  8G02G08G05G10G13G16G29G07
   1426013.43048   1124532.69545
                  22327652.7974                                   22327646.7974
                                                                        48.2504
        35.5004
   1266312.11747   1026558.47344
                  24312362.7664                                   24312360.5084
                                                                        43.0004
        24.0004
 -17220716.43748 -13381378.48447
                  20658581.1884                                   20658577.3134
                                                                        50.5004
        43.2504
 -14244934.75048 -11066984.56646
                  20362580.4924                                   20362576.5944
                                                                        51.0004
        41.5004
    542297.05147    435918.90644
                  22859721.5864                                   22859717.8554
                                                                        42.7504
        27.5004
 -11575734.28546  -8985356.65644
                  23554537.4384                                   23554532.5664
                                                                        41.5004
        26.2504
  -8871245.95748  -6883928.64546
                  22207052.5234                                   22207048.4414
                                                                        48.7504
        37.5004
 -15835008.77048 -12300913.89545
                  22629314.1884                                   22629308.9694
                                                                        48.0004
        32.7504
 09 10 31  0 26 30.0000000  0  8G02G08G05G10G13G16G29G07
   1439965.68847   1135404.57445
                  22330307.6724                                   22330301.6484
                                                                        47.2504
        35.5004
   1078722.25047    880384.60543
                  24276666.0944                                   24276662.8714
                                                                        43.7504
        23.0004
 -17334229.11748 -13469829.92647
                  20636980.6094                                   20636976.5554
                                                                        51.0004
        43.5004
 -14331831.06648 -11134695.97746
                  20346044.9224                                   20346041.2274
                                                                        51.5004
        41.7504
    553247.84047    444451.84044
                  22861805.6884                                   22861802.0354
                                                                        42.5004
        27.7504
 -11648125.28147  -9041765.22744
                  23540761.5864                                   23540756.4224
                                                                        42.5004
        24.5004
  -8917135.32448  -6919686.59846
                  22198319.7274                                   22198315.9924
                                                                        50.0004
        37.2504
 -15962779.95347 -12400475.71145
                  22604999.6644                                   22604995.3484
                                                                        47.5004
        32.5004
 09 10 31  0 27  0.0000000  0  8G02G08G05G10G13G16G29G07
   1454283.13748   1146561.02345
                  22333032.5004                                   22333026.3164
                                                                        49.2504
        35.7504
    891376.10947    734400.62144
                  24241015.6254                                   24241011.9024
                                                                        43.7504
        25.2504
 -17447195.02748 -13557855.30947
                  20615483.8524                                   20615479.4344
                                                                        51.0004
        43.5004
 -14418129.54748 -11201941.53946
                  20329622.6954                                   20329618.9384
                                                                        51.7504
        41.0004
    564584.74647    453285.81344
                  22863963.4614                                   22863958.9804
                                                                        44.5004
        27.0004
 -11719881.99246  -9097679.55144
                  23527106.5944                                   23527101.8554
                                                                        41.2504
        25.2504
  -8962427.55148  -6954979.23846
                  22189701.0474                                   22189697.4804
                                                                        49.5004
        38.0004
 -16089958.43047 -12499575.79745
                  22580797.9384                                   22580793.8014
                                                                        47.0004
        33.0004
 09 10 31  0 27 30.0000000  0  8G02G08G05G10G13G16G29G07
   1468963.81648   1158000.50445
                  22335826.3984                                   22335820.1134
                                                                        48.5004
        35.5004
    704276.86747    588609.02744
                  24205411.3834                                   24205407.9844
                                                                        43.7504
        25.0004
 -17559613.25048 -13645453.92647
                  20594091.4384                                   20594087.2734
                                                                        51.0004
        43.2504
 -14503829.65648 -11268720.84446
                  20313314.5234                                   20313310.1724
                                                                        51.2504
        40.7504
    576304.82047    462418.38744
                  22866193.1644                                   22866189.5234
                                                                        44.2504
        28.0004
 -11791004.64547  -9153099.80144
                  23513572.7194                                   23513567.7584
                                                                        42.0004
        24.7504
  -9007123.64148  -6989807.36346
                  22181195.9064                                   22181191.8794
                                                                        48.7504
        37.5004
 -16216542.03947 -12598212.30145
                  22556710.4064                                   22556705.3484
                                                                        47.7504
        33.0004
 09 10 31  0 28  0.0000000  0  8G02G08G05G10G13G16G29G07
   1484005.16847   1169721.01645
                  22338688.2974                                   22338682.2234
                                                                        46.5004
        35.7504
    517427.44947    443012.13743
                  24169855.0474                                   24169851.4494
                                                                        42.2504
        23.5004
 -17671483.09448 -13732625.22347
                  20572803.4924                                   20572798.9734
                                                                        48.7504
        42.7504
 -14588932.03548 -11335034.38746
                  20297120.2194                                   20297115.5824
                                                                        49.0004
        41.5004
    588404.54746    471846.63344
                  22868495.7584                                   22868491.2774
                                                                        41.0004
        24.5004
 -11861493.90247  -9208026.50044
                  23500159.2274                                   23500154.1724
                                                                        42.5004
        26.2504
  -9051224.89848  -7024171.99646
                  22172803.0944                                   22172799.7194
                                                                        48.7504
        37.5004
 -16342529.66047 -12696384.52745
                  22532735.6174                                   22532730.8754
                                                                        47.7504
        33.5004
 09 10 31  0 28 30.0000000  0  8G02G08G05G10G13G16G29G07
   1499404.49248   1181720.45745
                  22341618.7584                                   22341613.0044
                                                                        48.5004
        35.5004
    330830.00046    297611.63743
                  24134345.9924                                   24134344.0234
                                                                        41.0004
        22.5004
 -17782804.40248 -13819369.10247
                  20551619.6174                                   20551615.0164
                                                                        50.0004
        43.5004
 -14673436.89848 -11400882.34046
                  20281039.2274                                   20281035.2384
                                                                        50.7504
        41.5004
    600881.29747    481568.75043
                  22870869.8524                                   22870865.3164
                                                                        42.5004
        22.5004
 -11931350.90247  -9262460.52344
                  23486865.5004                                   23486860.5984
                                                                        43.2504
        26.5004
  -9094733.79348  -7058075.03946
                  22164524.0234                                   22164520.1914
                                                                        49.0004
        37.5004
 -16467920.06647 -12794091.40245
                  22508874.5554                                   22508870.3874
                                                                        47.0004
        32.7504
 09 10 31  0 29  0.0000000  0  8G02G08G05G10G13G16G29G07
   1515158.82447   1193996.52745
                  22344616.8444                                   22344610.8674
                                                                        46.7504
        35.5004
    144487.15246    152409.57044
                  24098887.0004                                   24098884.0234
                                                                        41.5004
        25.0004
 -17893576.83648 -13905685.27047
                  20530540.2734                                   20530536.3134
                                                                        49.5004
        43.0004
 -14757344.82448 -11466265.13346
                  20265072.1564                                   20265068.0634
                                                                        49.5004
        40.7504
    613732.32047    491582.51244
                  22873315.5554                                   22873310.6524
                                                                        42.7504
        25.5004
 -12000576.52747  -9316402.56643
                  23473692.3984                                   23473687.2234
                                                                        42.2504
        23.2504
  -9137651.93748  -7091517.75046
                  22156357.1254                                   22156353.1374
                                                                        48.7504
        37.0004
 -16592711.53147 -12891331.39145
                  22485127.7114                                   22485123.0554
                                                                        47.2504
        33.0004
 09 10 31  0 29 30.0000000  0  8G02G08G05G10G13G16G29G07
   1531264.07447   1206546.03545
                  22347681.2504                                   22347675.5394
                                                                        46.0004
        35.0004
    -41600.07447      7406.62144
                  24063475.8674                                   24063472.4694
                                                                        42.0004
        25.5004
 -18003801.40248 -13991574.53947
                  20509565.0004                                   20509560.7074
                                                                        49.7504
        43.5004
 -14840657.82448 -11531184.35946
                  20249218.1414                                   20249214.1054
                                                                        50.5004
        41.0004
    626952.18847    501883.65244
                  22875831.0864                                   22875827.1884
                                                                        42.7504
        25.5004
 -12069173.28947  -9369854.58644
                  23460638.9844                                   23460633.8554
                                                                        43.0004
        24.0004
  -9179982.48048  -7124502.59846
                  22148301.8364                                   22148297.8164
                                                                        48.5004
        37.0004
 -16716904.65247 -12988105.19145
                  22461494.5784                                   22461489.6844
                                                                        47.2504
        33.5004
 09 10 31  0 30  0.0000000  0  8G02G08G05G10G13G16G29G07
   1547718.50047   1219367.62545
                  22350812.4614                                   22350806.5394
                                                                        45.7504
        34.7504
   -227428.19947   -137394.48044
                  24028113.5234                                   24028110.3484
                                                                        43.7504
        25.7504
 -18113476.91048 -14077035.97747
                  20488694.8204                                   20488690.2624
                                                                        51.2504
        43.2504
 -14923375.80948 -11595639.93446
                  20233477.6564                                   20233473.4104
                                                                        51.5004
        41.2504
    640539.28147    512471.02344
                  22878417.0704                                   22878412.7974
                                                                        44.0004
        27.5004
 -12137141.33247  -9422816.70744
                  23447704.6334                                   23447699.8204
                                                                        43.2504
        24.7504
  -9221726.16848  -7157030.15246
                  22140358.1724                                   22140354.0474
                                                                        48.0004
        36.5004
 -16840497.22348 -13084411.09445
                  22437975.6174                                   22437971.1294
                                                                        48.2504
        33.7504
 09 10 31  0 30 30.0000000  0  8G02G08G05G10G13G16G29G07
   1564519.14847   1232458.99645
                  22354009.8754                                   22354002.9844
                                                                        46.2504
        35.5004
   -412994.59847   -281991.66844
                  23992801.4924                                   23992798.2424
                                                                        44.0004
        24.2504
 -18222603.04348 -14162069.33247
                  20467928.8204                                   20467924.4964
                                                                        50.7504
        43.5004
 -15005499.08648 -11659632.08246
                  20217850.1804                                   20217846.0164
                                                                        50.5004
        41.2504
    654490.21947    523341.88344
                  22881071.7194                                   22881067.6524
                                                                        44.0004
        26.7504
 -12204481.44147  -9475289.50044
                  23434890.1334                                   23434885.8444
                                                                        43.0004
        24.5004
  -9262885.16447  -7189102.09846
                  22132525.9614                                   22132522.2384
                                                                        47.7504
        38.0004
 -16963488.03548 -13180248.06645
                  22414571.4304                                   22414566.7814
                                                                        48.0004
        33.7504
 09 10 31  0 31  0.0000000  0  8G02G08G05G10G13G16G29G07
   1581663.11347   1245817.87945
                  22357272.1724                                   22357266.2774
                                                                        46.5004
        34.5004
   -598296.92647   -426383.12144
                  23957539.6254                                   23957536.3134
                                                                        43.5004
        24.5004
 -18331179.87148 -14246674.64147
                  20447267.1414                                   20447262.5394
                                                                        50.7504
        43.7504
 -15087028.38748 -11723161.41046
                  20202335.4924                                   20202331.4104
                                                                        50.0004
        41.2504
    668801.89847    534493.95744
                  22883795.4384                                   22883791.2344
                                                                        43.7504
        27.5004
 -12271194.99247  -9527274.07844
                  23422196.0084                                   23422190.4654
                                                                        43.0004
        25.0004
  -9303461.61348  -7220720.10246
                  22124804.0164                                   22124800.4924
                                                                        48.5004
        37.5004
 -17085876.36747 -13275615.58245
                  22391281.3524                                   22391277.0514
                                                                        47.0004
        33.5004
 09 10 31  0 31 30.0000000  0  9G02G08G05G10G13G16G21G29G07
   1599149.25847   1259443.42245
                  22360599.5084                                   22360593.6134
                                                                        46.5004
        34.7504
   -783331.25447   -570565.71544
                  23922329.1094                                   23922325.4884
                                                                        43.5004
        24.5004
 -18439205.71548 -14330850.62147
                  20426710.6884                                   20426706.1724
                                                                        50.7504
        43.5004
 -15167963.17248 -11786227.46546
                  20186934.0084                                   20186929.8914
                                                                        52.0004
        41.0004
    683472.44546    545925.69144
                  22886586.8054                                   22886582.7464
                                                                        41.5004
        25.2504
 -12337281.62147  -9578770.16443
                  23409620.3054                                   23409614.8364
                                                                        43.5004
        23.0004
   4494646.08256   3541375.05553
                  24634776.8834                                   24634770.8874
                                                                        41.5004
        22.0004
  -9343455.91048  -7251884.48446
                  22117193.3594                                   22117189.7974
                                                                        49.0004
        37.0004
 -17207659.41448 -13370511.33245
                  22368106.9454                                   22368102.2974
                                                                        48.0004
        34.0004
 09 10 31  0 32  0.0000000  0  9G02G08G05G10G13G16G21G29G07
   3192389.57847   2500929.35945
                  22663783.0634                                   22663777.4924
                                                                        45.7504
        34.2504
    607326.61346    513063.83244
                  24186961.7114                                   24186958.7274
                                                                        41.5004
        24.5004
 -16971261.02748 -13186997.58647
                  20706051.1564                                   20706046.9304
                                                                        49.5004
        43.5004
 -13672885.42648 -10621231.81246
                  20471437.9534                                   20471433.8014
                                                                        48.7504
        41.2504
   2273913.76246   1785230.65644
                  23189236.8914                                   23189233.2114
                                                                        41.5004
        25.0004
 -10827324.65247  -8402180.31244
                  23696955.0394                                   23696949.8984
                                                                        44.7504
        25.5004
   5882324.13746   4622682.62543
                  24898842.7034                                   24898837.7504
                                                                        40.0004
        22.2504
  -7807453.19148  -6054999.25446
                  22409485.5864                                   22409481.4104
                                                                        48.0004
        37.2504
 -15753416.83648 -12237335.31645
                  22644839.9924                                   22644835.4924
                                                                        48.5004
        34.0004
 09 10 31  0 32 30.0000000  0  9G02G08G05G10G13G16G21G29G07
   3210538.77747   2515071.55545
                  22667237.1254                                   22667231.2234
                                                                        46.7504
        34.5004
    422823.14547    369294.90644
                  24151851.8754                                   24151848.9804
                                                                        42.5004
        24.5004
 -17078196.30948 -13270323.78547
                  20685702.2664                                   20685697.8914
                                                                        49.7504
        43.2504
 -13752644.77048 -10683381.94546
                  20456260.3204                                   20456256.0554
                                                                        50.2504
        41.5004
   2289279.25047   1797203.38744
                  23192162.1484                                   23192157.2234
                                                                        42.0004
        25.0004
 -10892173.33647  -8452711.75844
                  23684614.7974                                   23684609.8324
                                                                        43.7504
        26.2504
   5694706.30146   4476486.96943
                  24863140.4694                                   24863134.8954
                                                                        40.0004
        22.0004
  -7846301.61348  -6085270.75046
                  22402092.8054                                   22402088.8244
                                                                        49.0004
        37.2504
 -15873999.16847 -12331295.64845
                  22621894.1024                                   22621889.2074
                                                                        47.7504
        33.5004
 09 10 31  0 33  0.0000000  0  9G02G08G05G10G13G16G21G29G07
   3229014.98847   2529468.58245
                  22670753.0084                                   22670747.2424
                                                                        47.2504
        34.0004
    238588.57047    225735.57044
                  24116793.5784                                   24116790.3404
                                                                        42.2504
        24.5004
 -17184586.56248 -13353225.27747
                  20665456.7974                                   20665452.4534
                                                                        50.7504
        43.7504
 -13831818.03948 -10745075.38346
                  20441194.1254                                   20441190.0004
                                                                        49.7504
        41.2504
   2304987.32447   1809443.19144
                  23195151.0394                                   23195146.8324
                                                                        42.7504
        25.5004
 -10956405.25847  -8502762.60244
                  23672391.6334                                   23672386.4264
                                                                        43.7504
        24.0004
   5507221.41846   4330394.90643
                  24827462.7194                                   24827457.7854
                                                                        39.0004
        20.2504
  -7884580.37548  -6115098.35546
                  22394808.6484                                   22394804.5824
                                                                        48.7504
        37.2504
 -15993980.10247 -12424787.34045
                  22599062.1884                                   22599057.5164
                                                                        47.7504
        34.0004
 09 10 31  0 33 30.0000000  0  9G02G08G05G10G13G16G21G29G07
   3247819.34047   2544121.27745
                  22674331.7194                                   22674325.3094
                                                                        46.5004
        34.0004
     54629.28547     82390.66444
                  24081787.0634                                   24081783.9574
                                                                        43.7504
        25.7504
 -17290427.74248 -13435698.91847
                  20645315.8134                                   20645311.6454
                                                                        49.0004
        44.0004
 -13910401.79348 -10806309.46546
                  20426240.1484                                   20426235.6604
                                                                        49.2504
        41.5004
   2321039.18047   1821951.01244
                  23198206.5554                                   23198201.6054
                                                                        43.5004
        26.0004
 -11020017.72347  -8552330.74644
                  23660286.4924                                   23660281.7464
                                                                        43.0004
        24.7504
   5319875.41846   4184411.10943
                  24791811.7114                                   24791807.2154
                                                                        39.2504
        20.2504
  -7922287.77748  -6144480.77346
                  22387633.2344                                   22387629.3754
                                                                        48.0004
        36.5004
 -16113354.45747 -12517806.31645
                  22576345.8834                                   22576341.5274
                                                                        47.2504
        33.7504
 09 10 31  0 34  0.0000000  0  9G02G08G05G10G13G16G21G29G07
   3266953.12947   2559030.68445
                  22677972.5864                                   22677966.5904
                                                                        45.0004
        34.7504
   -129048.05947    -60734.55144
                  24046835.0634                                   24046831.8634
                                                                        43.5004
        26.0004
 -17395715.35948 -13517741.20747
                  20625280.5704                                   20625276.0474
                                                                        51.2504
        43.7504
 -13988392.74248 -10867081.63346
                  20411398.6334                                   20411394.6524
                                                                        51.7504
        41.7504
   2337435.37146   1834726.98444
                  23201326.3524                                   23201321.7274
                                                                        41.5004
        26.5004
 -11083007.62947  -8601413.79344
                  23648300.0784                                   23648294.8444
                                                                        42.7504
        24.5004
   5132674.02746   4038539.93843
                  24756188.5554                                   24756183.6134
                                                                        41.2504
        21.2504
  -7959421.37148  -6173416.05146
                  22380566.9844                                   22380563.2154
                                                                        48.7504
        37.0004
 -16232117.19948 -12610348.81645
                  22553746.3204                                   22553741.9384
                                                                        48.5004
        33.5004
 09 10 31  0 34 30.0000000  0  9G02G08G05G10G13G16G21G29G07
   3286411.52047   2574193.02745
                  22681675.3524                                   22681669.3014
                                                                        47.0004
        34.2504
   -312443.14547   -203639.84044
                  24011936.1174                                   24011932.4144
                                                                        43.5004
        26.7504
 -17500451.38748 -13599353.70347
                  20605349.5394                                   20605345.3364
                                                                        51.5004
        43.7504
 -14065793.34048 -10927393.79346
                  20396670.1484                                   20396666.0594
                                                                        51.2504
        40.7504
   2354171.48847   1847768.14844
                  23204510.8984                                   23204506.8914
                                                                        42.0004
        26.5004
 -11145378.46947  -8650014.45744
                  23636431.3204                                   23636426.3324
                                                                        43.0004
        26.2504
   4945617.02747   3892781.26243
                  24720592.9064                                   24720588.1564
                                                                        42.0004
        22.0004
  -7995985.73048  -6201907.77746
                  22373609.1484                                   22373605.3364
                                                                        48.0004
        37.2504
 -16350268.99648 -12702415.09845
                  22531262.8204                                   22531258.0904
                                                                        48.2504
        33.5004
 09 10 31  0 35  0.0000000  0  9G02G08G05G10G13G16G21G29G07
   3306196.09047   2589609.52345
                  22685439.7894                                   22685434.2544
                                                                        46.2504
        33.5004
   -495549.07047   -346319.78144
                  23977092.0944                                   23977088.3634
                                                                        42.0004
        27.2504
 -17604631.51248 -13680533.01247
                  20585524.8754                                   20585520.4964
                                                                        49.7504
        43.7504
 -14142600.50448 -10987243.51646
                  20382053.8054                                   20382049.9884
                                                                        49.0004
        41.5004
   2371247.63346   1861074.03144
                  23207760.0234                                   23207756.6844
                                                                        41.5004
        25.2504
 -11207127.23847  -8698130.37944
                  23624680.8134                                   23624675.5314
                                                                        43.7504
        24.5004
   4758709.87147   3747139.31643
                  24685025.6564                                   24685021.1414
                                                                        42.7504
        22.7504
  -8031978.20748  -6229953.87146
                  22366759.6334                                   22366756.4064
                                                                        48.7504
        37.0004
 -16467805.18048 -12794001.77345
                  22508896.2424                                   22508891.3714
                                                                        48.0004
        32.7504
 09 10 31  0 35 30.0000000  0  9G02G08G05G10G13G16G21G29G07
   3326302.04747   2605276.46945
                  22689266.2584                                   22689260.3554
                                                                        46.2504
        34.2504
   -678365.14546   -488773.87144
                  23942303.2734                                   23942299.7424
                                                                        41.2504
        26.2504
 -17708257.15248 -13761280.26247
                  20565805.3054                                   20565801.0164
                                                                        51.0004
        44.0004
 -14218816.62948 -11046632.71947
                  20367550.4144                                   20367546.4734
                                                                        51.0004
        42.0004
   2388659.68047   1874641.91444
                  23211072.9454                                   23211070.2424
                                                                        42.0004
        24.7504
 -11268257.01247  -8745763.96944
                  23613048.3834                                   23613043.1374
                                                                        44.2504
        24.7504
   4571952.45746   3601614.03143
                  24649487.1804                                   24649481.5594
                                                                        41.5004
        21.5004
  -8067402.75048  -6257557.41846
                  22360019.1644                                   22360014.8594
                                                                        48.7504
        37.0004
 -16584726.12547 -12885108.96145
                  22486647.1334                                   22486642.4384
                                                                        46.7504
        33.0004
 09 10 31  0 36  0.0000000  0  9G02G08G05G10G13G16G21G29G07
   3346726.46547   2621191.60245
                  22693152.9774                                   22693146.9884
                                                                        46.0004
        34.5004
   -860888.96946   -631000.14144
                  23907570.0474                                   23907566.3834
                                                                        41.7504
        25.2504
 -17811328.67248 -13841595.72347
                  20546191.4694                                   20546187.4964
                                                                        48.5004
        43.7504
 -14294442.87948 -11105562.25847
                  20353159.3444                                   20353155.3914
                                                                        48.2504
        42.0004
   2406403.14147   1888467.81344
                  23214450.7584                                   23214446.6724
                                                                        43.0004
        25.2504
 -11328769.21547  -8792916.32444
                  23601533.1334                                   23601527.8484
                                                                        44.7504
        25.0004
   4385346.28146   3456206.62943
                  24613976.9614                                   24613971.5394
                                                                        41.5004
        20.5004
  -8102261.82848  -6284720.34046
                  22353385.4924                                   22353381.1334
                                                                        48.5004
        37.2504
 -16701031.68047 -12975736.56245
                  22464515.0164                                   22464509.9264
                                                                        47.7504
        33.0004
 09 10 31  0 36 30.0000000  0  9G02G08G05G10G13G16G21G29G07
   3367467.19147   2637353.11345
                  22697099.7424                                   22697093.8244
                                                                        45.5004
        34.0004
  -1043117.35546   -772996.24644
                  23872892.7274                                   23872889.3914
                                                                        41.2504
        26.0004
 -17913844.98048 -13921478.56247
                  20526683.2114                                   20526678.7664
                                                                        50.2504
        43.5004
 -14369478.84048 -11164031.82846
                  20338880.4844                                   20338876.5744
                                                                        49.7504
        41.0004
   2424476.79347   1902551.31643
                  23217889.7734                                   23217885.5084
                                                                        43.2504
        23.0004
 -11388664.37147  -8839587.88344
                  23590135.8204                                   23590130.5274
                                                                        43.7504
        24.2504
   4198893.82846   3310919.00043
                  24578495.8054                                   24578491.1454
                                                                        38.5004
        20.5004
  -8136556.57448  -6311443.53146
                  22346859.0554                                   22346855.1914
                                                                        48.0004
        37.5004
 -16816720.13748 -13065883.38745
                  22442499.6414                                   22442495.2114
                                                                        48.0004
        33.2504
 09 10 31  0 37  0.0000000  0  9G02G08G05G10G13G16G21G29G07
   3388519.42247   2653757.39845
                  22701106.4534                                   22701100.2154
                                                                        47.0004
        34.0004
  -1225049.85947   -914761.85544
                  23838272.5004                                   23838268.4694
                                                                        43.5004
        25.5004
 -18015808.05948 -14000930.30147
                  20507280.4774                                   20507275.8204
                                                                        51.0004
        43.5004
 -14443927.41848 -11222043.71146
                  20324713.5634                                   20324709.5904
                                                                        51.0004
        41.7504
   2442874.75847   1916887.41843
                  23221390.2584                                   23221386.3714
                                                                        42.0004
        22.5004
 -11447945.98447  -8885781.34044
                  23578854.9694                                   23578849.6094
                                                                        44.0004
        25.5004
   4012594.64546   3165750.86343
                  24543043.9064                                   24543039.9144
                                                                        37.7504
        21.5004
  -8170291.77748  -6337730.70346
                  22340439.5004                                   22340435.7544
                                                                        48.2504
        36.7504
 -16931792.30548 -13155550.03145
                  22420602.2194                                   22420597.6374
                                                                        48.0004
        33.5004
 09 10 31  0 37 30.0000000  0  9G02G08G05G10G13G16G21G29G07
   3409881.50047   2670403.10945
                  22705171.1644                                   22705165.0164
                                                                        47.0004
        34.0004
  -1406682.90247  -1056294.09444
                  23803708.8914                                   23803705.3324
                                                                        42.2504
        26.2504
 -18117216.88748 -14079950.15247
                  20487982.9224                                   20487978.2704
                                                                        50.7504
        43.5004
 -14517788.20748 -11279597.57446
                  20310658.2734                                   20310654.5084
                                                                        51.2504
        41.2504
   2461595.25447   1931474.85243
                  23224953.0234                                   23224948.2774
                                                                        42.0004
        23.0004
 -11506614.34047  -8931496.94144
                  23567690.2114                                   23567685.1914
                                                                        43.5004
        24.0004
   3826451.35946   3020704.21943
                  24507622.6884                                   24507618.2854
                                                                        40.0004
        22.7504
  -8203467.98448  -6363582.29746
                  22334126.5944                                   22334122.6604
                                                                        48.0004
        36.5004
 -17046246.60548 -13244735.37145
                  22398822.2894                                   22398817.6374
                                                                        48.2504
        33.5004
 09 10 31  0 38  0.0000000  0  9G02G08G05G10G13G16G21G29G07
   3431550.80947   2687288.21545
                  22709294.6334                                   22709288.7114
                                                                        45.7504
        33.0004
  -1588013.61347  -1197590.76644
                  23769202.9774                                   23769198.8054
                                                                        42.5004
        26.7504
 -18218070.59048 -14158537.43747
                  20468791.1254                                   20468786.8054
                                                                        50.5004
        43.5004
 -14591061.81248 -11336693.87946
                  20296714.6024                                   20296710.7624
                                                                        50.7504
        41.7504
   2480635.50446   1946311.54343
                  23228576.1414                                   23228571.8054
                                                                        41.7504
        22.2504
 -11564670.49647  -8976735.50444
                  23556642.5704                                   23556638.0084
                                                                        43.2504
        24.0004
   3640466.08646   2875780.65643
                  24472231.0944                                   24472226.0474
                                                                        40.7504
        22.7504
  -8236086.98448  -6388999.70746
                  22327919.1644                                   22327915.5824
                                                                        48.0004
        36.5004
 -17160081.57448 -13333438.00445
                  22377160.8204                                   22377156.0274
                                                                        48.0004
        34.0004
 09 10 31  0 38 30.0000000  0  9G02G08G05G10G13G16G21G29G07
   3453522.16047   2704408.69945
                  22713475.8984                                   22713469.8054
                                                                        45.0004
        33.2504
  -1769042.14847  -1338651.98844
                  23734754.0164                                   23734750.7274
                                                                        43.7504
        27.7504
 -18318372.19948 -14236694.52347
                  20449704.0474                                   20449699.9844
                                                                        51.0004
        43.2504
 -14663752.06648 -11393335.64146
                  20282881.9614                                   20282878.2234
                                                                        51.0004
        41.5004
   2499989.97746   1961393.23844
                  23232259.0944                                   23232254.8014
                                                                        40.7504
        24.0004
 -11622118.66447  -9021500.30144
                  23545710.6954                                   23545705.1844
                                                                        43.5004
        26.5004
   3454637.76646   2730979.35543
                  24436868.9534                                   24436864.0474
                                                                        41.7504
        22.7504
  -8268153.67248  -6413986.73046
                  22321817.1334                                   22321813.1764
                                                                        48.7504
        37.0004
 -17273299.55947 -13421659.95345
                  22355616.1564                                   22355611.4144
                                                                        47.7504
        33.0004
 09 10 31  0 39  0.0000000  0  9G02G08G05G10G13G16G21G29G07
   3475790.37147   2721760.45345
                  22717713.5164                                   22717707.3324
                                                                        45.2504
        31.7504
  -1949767.97747  -1479477.27344
                  23700362.7344                                   23700360.2974
                                                                        43.2504
        28.0004
 -18418123.78548 -14314423.02747
                  20430721.9614                                   20430717.7114
                                                                        50.0004
        43.0004
 -14735861.48448 -11449524.80547
                  20269160.3594                                   20269156.0824
                                                                        50.5004
        42.0004
   2519651.50846   1976713.30543
                  23236000.5084                                   23235997.1254
                                                                        40.5004
        22.7504
 -11678961.69947  -9065793.57043
                  23534893.7894                                   23534888.4694
                                                                        43.5004
        22.7504
   3268966.06646   2586300.13343
                  24401536.9384                                   24401531.6884
                                                                        40.5004
        22.0004
  -8299672.52748  -6438546.88746
                  22315818.8674                                   22315815.4614
                                                                        48.2504
        36.5004
 -17385901.02347 -13509401.21945
                  22334188.5314                                   22334184.0354
                                                                        47.5004
        33.5004
 09 10 31  0 39 30.0000000  0  9G02G08G05G10G13G16G21G29G07
   3498355.71947   2739343.79345
                  22722007.3674                                   22722001.1484
                                                                        44.7504
        33.2504
  -2130185.72747  -1620062.46944
                  23666030.5394                                   23666027.7934
                                                                        43.5004
        27.2504
 -18517322.40248 -14391720.64847
                  20411845.3984                                   20411840.8094
                                                                        50.2504
        43.5004
 -14807388.32448 -11505259.99246
                  20255549.0784                                   20255545.0594
                                                                        50.0004
        41.0004
   2539622.19946   1992274.66844
                  23239800.9064                                   23239797.5664
                                                                        39.2504
        26.0004
 -11735198.98047  -9109614.82844
                  23524192.2424                                   23524186.9144
                                                                        44.0004
        24.7504
   3083455.37146   2441746.34443
                  24366234.9454                                   24366229.3674
                                                                        41.0004
        21.0004
  -8330642.66048  -6462679.44946
                  22309925.6414                                   22309921.8634
                                                                        48.0004
        36.5004
 -17497882.54348 -13596659.34045
                  22312879.0394                                   22312874.7814
                                                                        48.0004
        33.7504
 09 10 31  0 40  0.0000000  0  9G02G08G05G10G13G16G21G29G07
   3521212.25847   2757154.08245
                  22726356.7194                                   22726350.8094
                                                                        44.7504
        32.5004
  -2310296.33647  -1760408.53544
                  23631757.1724                                   23631753.4384
                                                                        42.7504
        26.5004
 -18615970.80148 -14468589.53547
                  20393072.9454                                   20393068.5514
                                                                        50.0004
        44.0004
 -14878336.34848 -11560544.16846
                  20242048.2344                                   20242044.0704
                                                                        50.0004
        41.5004
   2559895.87146   2008072.46944
                  23243659.6414                                   23243655.3634
                                                                        40.0004
        25.2504
 -11790834.60547  -9152967.25844
                  23513604.5314                                   23513599.6764
                                                                        43.7504
        24.2504
   2898104.62946   2297317.21943
                  24330963.8524                                   24330958.7974
                                                                        40.2504
        21.2504
  -8361069.52348  -6486388.69546
                  22304135.6334                                   22304131.9844
                                                                        48.5004
        36.7504
 -17609246.92648 -13683436.68745
                  22291687.3674                                   22291682.3364
                                                                        48.2504
        33.7504
 09 10 31  0 40 30.0000000  0  9G02G08G05G10G13G16G21G29G07
   3544358.26247   2775189.96945
                  22730761.1804                                   22730755.3874
                                                                        46.0004
        33.0004
  -2490095.57847  -1900511.80544
                  23597542.8984                                   23597538.8324
                                                                        44.7504
        27.2504
 -18714068.17648 -14545029.04347
                  20374406.0554                                   20374401.3324
                                                                        50.2504
        44.0004
 -14948705.30148 -11615377.10946
                  20228657.3834                                   20228653.4654
                                                                        50.2504
        41.2504
   2580468.79747   2024103.08244
                  23247574.1724                                   23247570.5784
                                                                        43.0004
        24.5004
 -11845869.22747  -9195851.38743
                  23503132.5474                                   23503126.9494
                                                                        43.7504
        23.2504
   2712916.86346   2153015.10943
                  24295723.9774                                   24295719.0634
                                                                        41.2504
        22.5004
  -8390954.07448  -6509675.35546
                  22298448.5944                                   22298444.7664
                                                                        48.0004
        36.2504
 -17719992.11748 -13769731.65245
                  22270612.7114                                   22270608.6054
                                                                        48.2504
        33.7504
 09 10 31  0 41  0.0000000  0  9G02G08G05G10G13G16G21G29G07
   3567790.07447   2793448.49645
                  22735219.8914                                   22735214.4104
                                                                        45.2504
        32.5004
  -2669581.69147  -2040370.96144
                  23563387.6724                                   23563384.0984
                                                                        44.7504
        28.5004
 -18811615.12148 -14621039.65647
                  20355843.7344                                   20355838.8754
                                                                        50.0004
        43.7504
 -15018496.68048 -11669759.99646
                  20215376.4774                                   20215372.5474
                                                                        50.5004
        41.5004
   2601338.85947   2040365.57443
                  23251545.0944                                   23251541.5634
                                                                        42.0004
        23.5004
 -11900304.91847  -9238268.79744
                  23492773.4774                                   23492768.0434
                                                                        43.0004
        24.5004
   2527892.30546   2008840.11343
                  24260515.5944                                   24260510.0124
                                                                        40.7504
        22.7504
  -8420299.48048  -6532541.88346
                  22292864.6024                                   22292860.4494
                                                                        48.7504
        36.5004
 -17830118.47748 -13855544.50445
                  22249656.7584                                   22249652.4344
                                                                        48.5004
        34.0004
 09 10 31  0 41 30.0000000  0  9G02G08G05G10G13G16G21G29G07
   5166923.59447   4039526.59845
                  23039525.2034                                   23039519.3554
                                                                        45.5004
        33.2504
  -1273327.13347   -952380.28944
                  23829085.5554                                   23829082.0664
                                                                        44.7504
        27.7504
 -17333188.88748 -13469019.21147
                  20637178.5314                                   20637173.9924
                                                                        50.0004
        43.2504
 -13512289.84448 -10496092.33246
                  20501998.4694                                   20501994.3244
                                                                        50.0004
        41.7504
   4197921.52346   3284456.26243
                  23555364.8674                                   23555361.1914
                                                                        41.5004
        22.5004
 -10378722.23047  -8052619.93744
                  23782320.9774                                   23782316.1214
                                                                        43.2504
        24.0004
   3918458.67646   3092398.39143
                  24525131.1724                                   24525125.9614
                                                                        39.7504
        23.2504
  -6873687.60548  -5327389.76646
                  22587175.0164                                   22587170.9654
                                                                        48.2504
        36.0004
 -16364202.04348 -12713271.95745
                  22528611.2734                                   22528606.9184
                                                                        48.2504
        34.7504
 09 10 31  0 42  0.0000000  0  9G02G08G05G10G13G16G21G29G07
   5190918.28547   4058223.65645
                  23044091.2274                                   23044085.5434
                                                                        46.0004
        32.5004
  -1452180.57847  -1091746.53144
                  23795050.8984                                   23795047.6054
                                                                        44.5004
        27.0004
 -17429635.45748 -13544172.37947
                  20618825.3674                                   20618820.9884
                                                                        50.2504
        43.5004
 -13580929.70748 -10549577.93446
                  20488936.4844                                   20488932.6524
                                                                        49.7504
        41.5004
   4219375.15646   3301173.74643
                  23559447.2114                                   23559442.8874
                                                                        40.5004
        22.0004
 -10431965.27047  -8094108.02343
                  23772189.0394                                   23772183.9064
                                                                        42.5004
        22.5004
   3733765.81646   2948481.87943
                  24489985.1174                                   24489980.1684
                                                                        41.0004
        23.0004
  -6901961.78148  -5349421.59846
                  22581794.5474                                   22581791.1914
                                                                        48.2504
        36.7504
 -16473087.80948 -12798117.94145
                  22507890.8754                                   22507886.5124
                                                                        48.7504
        34.5004
 09 10 31  0 42 30.0000000  0  9G02G08G05G10G13G16G21G29G07
   5215190.66847   4077137.12145
                  23048709.9534                                   23048704.4064
                                                                        45.2504
        32.2504
  -1630713.59047  -1230863.16844
                  23761077.3594                                   23761073.2424
                                                                        45.0004
        26.7504
 -17525531.38748 -13618896.47747
                  20600576.9534                                   20600572.5474
                                                                        49.5004
        43.7504
 -13648994.64848 -10602615.54346
                  20475984.3054                                   20475980.2734
                                                                        49.0004
        41.0004
   4241115.39546   3318114.19943
                  23563583.9224                                   23563579.6214
                                                                        39.7504
        21.5004
 -10484613.87147  -8135132.91043
                  23762170.3134                                   23762165.3984
                                                                        42.5004
        22.7504
   3549242.23846   2804697.30143
                  24454871.2974                                   24454866.6414
                                                                        41.0004
        22.7504
  -6929703.49248  -5371038.51246
                  22576515.3594                                   22576511.8914
                                                                        49.0004
        36.2504
 -16581352.65248 -12882480.17245
                  22487288.9924                                   22487284.3164
                                                                        48.0004
        34.2504
 09 10 31  0 43  0.0000000  0  9G02G08G05G10G13G16G21G29G07
   5239737.03547   4096263.91445
                  23053381.8754                                   23053375.8204
                                                                        45.0004
        32.7504
  -1808924.04747  -1369728.49644
                  23727164.9614                                   23727161.0744
                                                                        44.5004
        26.7504
 -17620877.34048 -13693192.02347
                  20582433.1254                                   20582428.8524
                                                                        50.2504
        43.5004
 -13716486.39848 -10655206.51646
                  20463140.8204                                   20463137.0904
                                                                        49.7504
        41.5004
   4263138.69946   3335274.87543
                  23567774.7734                                   23567771.3054
                                                                        39.5004
        22.0004
 -10536670.13747  -8175696.25444
                  23752263.9304                                   23752259.1174
                                                                        42.5004
        24.0004
   3364888.60946   2661045.16843
                  24419790.1174                                   24419785.2234
                                                                        40.7504
        22.7504
  -6956915.45347  -5392242.63746
                  22571337.0784                                   22571333.7974
                                                                        47.5004
        36.0004
 -16688996.67248 -12966358.77045
                  22466804.8834                                   22466800.3794
                                                                        48.5004
        33.5004
 09 10 31  0 43 30.0000000  0  9G02G08G05G10G13G16G21G29G07
   5264553.06647   4115601.01245
                  23058104.2034                                   23058097.7424
                                                                        45.5004
        31.5004
  -1986811.28547  -1508341.89544
                  23693314.0784                                   23693310.6024
                                                                        44.5004
        27.2504
 -17715675.32848 -13767060.58247
                  20564393.9774                                   20564389.5394
                                                                        50.7504
        43.7504
 -13783407.55148 -10707352.86346
                  20450406.0394                                   20450401.8324
                                                                        50.2504
        41.2504
   4285441.00846   3352653.18844
                  23572020.0394                                   23572015.8324
                                                                        40.7504
        24.2504
 -10588137.73447  -8215800.88743
                  23742470.7274                                   23742465.6764
                                                                        42.5004
        23.2504
   3180705.13746   2517525.62143
                  24384741.1724                                   24384735.9534
                                                                        41.5004
        22.0004
  -6983601.65247  -5413037.07446
                  22566259.0234                                   22566255.4144
                                                                        47.5004
        36.7504
 -16796019.77348 -13049753.32045
                  22446439.0084                                   22446434.7114
                                                                        48.2504
        33.7504
 09 10 31  0 44  0.0000000  0  9G02G08G05G10G13G16G21G29G07
   5289636.23047   4135146.41045
                  23062877.0394                                   23062871.1334
                                                                        45.5004
        31.7504
  -2164373.26247  -1646702.05144
                  23659524.6024                                   23659521.6134
                                                                        43.5004
        27.7504
 -17809925.51648 -13840502.27347
                  20546458.7584                                   20546454.4774
                                                                        48.7504
        43.5004
 -13849759.53948 -10759055.70746
                  20437779.8054                                   20437775.6844
                                                                        48.7504
        40.5004
   4308019.43847   3370247.01643
                  23576315.7344                                   23576312.5004
                                                                        42.0004
        22.7504
 -10639018.34847  -8255448.11743
                  23732788.1884                                   23732783.2584
                                                                        43.0004
        22.7504
   2996692.88746   2374139.47343
                  24349725.2974                                   24349719.3594
                                                                        41.2504
        22.2504
  -7009764.98448  -5433424.08646
                  22561280.4064                                   22561276.5594
                                                                        48.0004
        36.2504
 -16902422.46548 -13132664.46945
                  22426191.5554                                   22426187.4924
                                                                        48.2504
        34.7504
 09 10 31  0 44 30.0000000  0  9G02G08G05G10G13G16G21G29G07
   5314983.64547   4154897.64845
                  23067700.3364                                   23067694.7974
                                                                        44.5004
        32.2504
  -2341606.35547  -1784805.73844
                  23625798.7504                                   23625795.4804
                                                                        43.5004
        27.0004
 -17903627.45748 -13913516.78147
                  20528627.4304                                   20528623.2584
                                                                        49.5004
        43.5004
 -13915542.34048 -10810315.02746
                  20425261.7034                                   20425257.4574
                                                                        49.2504
        41.5004
   4330870.75046   3388053.41043
                  23580664.2034                                   23580660.1954
                                                                        40.2504
        22.7504
 -10689313.09847  -8294638.84843
                  23723216.9924                                   23723212.6254
                                                                        43.0004
        22.0004
   2812854.47746   2230888.73443
                  24314741.5554                                   24314735.0314
                                                                        41.7504
        22.7504
  -7035407.38348  -5453405.18746
                  22556401.0864                                   22556397.0704
                                                                        48.5004
        37.0004
 -17008203.22348 -13215090.91445
                  22406061.8364                                   22406057.1254
                                                                        48.0004
        35.0004
 09 10 31  0 45  0.0000000  0  9G02G08G05G10G13G16G21G29G07
   5340593.09447   4174853.02745
                  23072573.6254                                   23072568.1684
                                                                        44.2504
        31.7504
  -2518508.14147  -1922651.48044
                  23592135.4064                                   23592132.0864
                                                                        44.0004
        28.0004
 -17996780.66048 -13986103.67247
                  20510901.4774                                   20510896.7544
                                                                        51.0004
        43.5004
 -13980756.67648 -10861131.38746
                  20412851.8204                                   20412847.8204
                                                                        51.0004
        41.2504
   4353992.04346   3406069.86743
                  23585063.5784                                   23585059.8834
                                                                        39.0004
        22.2504
 -10739023.21147  -8333373.96944
                  23713758.2034                                   23713753.2584
                                                                        43.0004
        24.5004
   2629192.43446   2087775.47343
                  24279791.5234                                   24279786.3284
                                                                        40.7504
        22.5004
  -7060530.29348  -5472981.47346
                  22551620.1884                                   22551616.4924
                                                                        48.0004
        36.0004
 -17113361.55548 -13297032.43745
                  22386050.6174                                   22386046.6174
                                                                        48.0004
        34.5004
 09 10 31  0 45 30.0000000  0  9G02G08G05G10G13G16G21G29G07
   5366461.09447   4195009.73845
                  23077496.9614                                   23077490.9924
                                                                        44.5004
        31.5004
  -2695075.77047  -2060236.60944
                  23558535.8134                                   23558532.2234
                                                                        43.7504
        27.7504
 -18089385.85948 -14058263.56647
                  20493278.9614                                   20493274.7624
                                                                        50.0004
        43.0004
 -14045404.14148 -10911506.03146
                  20400549.5634                                   20400545.7934
                                                                        50.5004
        40.7504
   4377380.17646   3424294.19943
                  23589515.0944                                   23589510.3244
                                                                        40.5004
        21.2504
 -10788150.75047  -8371655.17644
                  23704409.4774                                   23704404.5824
                                                                        43.2504
        25.2504
   2445707.93046   1944800.57444
                  24244875.7424                                   24244870.7114
                                                                        41.5004
        25.0004
  -7085136.85247  -5492155.43445
                  22546937.1094                                   22546933.4104
                                                                        47.0004
        35.7504
 -17217897.07047 -13378488.61745
                  22366158.4774                                   22366153.8714
                                                                        47.7504
        35.0004
 09 10 31  0 46  0.0000000  0 10G02G08G05G10G13G16G21G29G07G15
   5392582.67647   4215364.32445
                  23082467.1024                                   23082461.6724
                                                                        43.7504
        30.7504
  -2871310.27047  -2197562.12544
                  23524999.6094                                   23524995.4774
                                                                        44.7504
        27.7504
 -18181445.84048 -14129998.61747
                  20475760.6024                                   20475756.1414
                                                                        50.5004
        43.7504
 -14109488.64148 -10961442.00446
                  20388354.9224                                   20388350.9224
                                                                        50.2504
        41.0004
   4401029.27046   3442722.15643
                  23594014.6724                                   23594010.4924
                                                                        39.2504
        20.5004
 -10836700.34447  -8409486.02744
                  23695170.7274                                   23695166.0434
                                                                        43.5004
        24.0004
   2262399.47347   1801962.82043
                  24209993.6954                                   24209988.3094
                                                                        43.0004
        23.2504
  -7109232.38747  -5510931.19146
                  22542352.3594                                   22542348.9844
                                                                        46.7504
        36.0004
 -17321812.55148 -13459461.71145
                  22346383.7424                                   22346379.4024
                                                                        48.5004
        34.5004
   7631169.59457   5960789.90654
                  24396787.5554                                   24396784.5984
                                                                        44.2504
        28.2504
 09 10 31  0 46 30.0000000  0 10G02G08G05G10G13G16G21G29G07G15
   5418951.19947   4235911.35945
                  23087485.2974                                   23087478.9924
                                                                        43.5004
        31.5004
  -3047212.75447  -2334629.05544
                  23491526.6254                                   23491522.7814
                                                                        44.2504
        27.5004
 -18272964.44148 -14201311.80547
                  20458345.1954                                   20458340.7424
                                                                        50.5004
        44.0004
 -14173014.55148 -11010942.72346
                  20376266.1174                                   20376262.3834
                                                                        51.0004
        41.5004
   4424932.78146   3461348.49643
                  23598563.4924                                   23598559.4414
                                                                        41.7504
        22.7504
 -10884677.19147  -8446870.57044
                  23686041.3284                                   23686036.5784
                                                                        44.0004
        25.0004
   2079265.51647   1659261.03544
                  24175143.9384                                   24175139.0744
                                                                        42.0004
        26.2504
  -7132822.32447  -5529312.97746
                  22537863.5314                                   22537859.7304
                                                                        46.5004
        36.2504
 -17425111.12148 -13539954.28945
                  22326726.8834                                   22326722.4264
                                                                        48.5004
        34.2504
   7432988.96947   5806363.79344
                  24359074.8984                                   24359071.3014
                                                                        43.0004
        28.2504
 09 10 31  0 47  0.0000000  0 10G02G08G05G10G13G16G21G29G07G15
   5445562.55947   4256647.60245
                  23092548.5864                                   23092543.3914
                                                                        44.0004
        30.5004
  -3222781.43747  -2471435.88744
                  23458116.7274                                   23458113.0784
                                                                        45.0004
        27.7504
 -18363942.81248 -14272204.04347
                  20441032.5314                                   20441028.3014
                                                                        51.2504
        43.2504
 -14235984.39148 -11060010.14146
                  20364283.5634                                   20364279.6024
                                                                        51.7504
        41.2504
   4449086.24646   3480169.43043
                  23603159.5084                                   23603155.3714
                                                                        41.7504
        22.2504
 -10932084.02747  -8483810.96944
                  23677019.2034                                   23677014.7584
                                                                        43.5004
        24.5004
   1896306.89846   1516695.89844
                  24140328.3364                                   24140323.1914
                                                                        41.2504
        24.0004
  -7155910.49647  -5547303.76646
                  22533470.2114                                   22533466.1214
                                                                        47.2504
        36.2504
 -17527792.93448 -13619966.07445
                  22307187.2504                                   22307182.9574
                                                                        48.5004
        35.0004
   7234926.21946   5652029.56344
                  24321383.9064                                   24321381.1994
                                                                        41.5004
        26.5004
 09 10 31  0 47 30.0000000  0 10G02G08G05G10G13G16G21G29G07G15
   5472413.70747   4277570.60945
                  23097658.5164                                   23097652.5474
                                                                        45.5004
        31.7504
  -3398014.57447  -2607981.46144
                  23424771.0944                                   23424767.6134
                                                                        44.5004
        26.7504
 -18454381.56648 -14342675.79747
                  20423822.5704                                   20423818.4184
                                                                        51.0004
        44.5004
 -14298399.16048 -11108645.01646
                  20352406.2504                                   20352402.1484
                                                                        51.2504
        41.5004
   4473486.98446   3499183.05143
                  23607802.8984                                   23607798.8714
                                                                        41.5004
        22.0004
 -10978923.27047  -8520309.10544
                  23668106.3054                                   23668101.4614
                                                                        43.7504
        24.7504
   1713525.08647   1374268.54344
                  24105546.2734                                   24105540.8954
                                                                        42.0004
        25.0004
  -7178499.74248  -5564905.77046
                  22529171.3054                                   22529167.2854
                                                                        48.2504
        36.5004
 -17629857.68048 -13699497.12545
                  22287765.0944                                   22287760.6804
                                                                        48.5004
        34.2504
   7036982.76247   5497788.01644
                  24283717.1414                                   24283713.3404
                                                                        43.5004
        26.0004
 09 10 31  0 48  0.0000000  0 10G02G08G05G10G13G16G21G29G07G15
   5499505.64147   4298681.10945
                  23102813.6804                                   23102807.9224
                                                                        45.7504
        30.5004
  -3572904.20347  -2744258.89844
                  23391490.7034                                   23391486.8284
                                                                        43.7504
        27.7504
 -18544276.53948 -14412723.82447
                  20406716.2114                                   20406711.6954
                                                                        50.2504
        44.0004
 -14360256.10948 -11156845.23446
                  20340635.3984                                   20340631.4104
                                                                        49.5004
        40.7504
   4498135.41046   3518389.68043
                  23612493.5314                                   23612489.6374
                                                                        40.7504
        22.5004
 -11025192.27047  -8556362.87944
                  23659302.0084                                   23659297.1564
                                                                        44.2504
        27.0004
   1530925.99246   1231983.54344
                  24070798.6094                                   24070793.7074
                                                                        40.7504
        24.5004
  -7200588.48847  -5582117.78945
                  22524968.0864                                   22524963.9734
                                                                        47.5004
        35.5004
 -17731301.04348 -13778543.92645
                  22268461.0234                                   22268456.4384
                                                                        48.7504
        34.0004
   6839164.73847   5343644.09444
                  24246074.1644                                   24246070.0004
                                                                        44.5004
        26.0004
 09 10 31  0 48 30.0000000  0 10G02G08G05G10G13G16G21G29G07G15
   5526839.44547   4319980.12945
                  23108014.9304                                   23108008.8164
                                                                        44.0004
        30.0004
  -3747445.79747  -2880265.28544
                  23358276.3524                                   23358272.9454
                                                                        43.7504
        28.0004
 -18633624.33248 -14482345.47747
                  20389713.6804                                   20389709.0394
                                                                        50.0004
        43.5004
 -14421552.53548 -11204608.70746
                  20328971.3914                                   20328967.2464
                                                                        50.0004
        41.2504
   4523032.19146   3537789.85943
                  23617231.3054                                   23617226.5234
                                                                        41.2504
        21.2504
 -11070889.34847  -8591971.00044
                  23650605.9064                                   23650601.6684
                                                                        43.7504
        26.2504
   1348514.50847   1089844.72743
                  24036086.5164                                   24036081.2504
                                                                        42.0004
        22.5004
  -7222175.57047  -5598938.89845
                  22520860.0474                                   22520856.7074
                                                                        47.2504
        35.2504
 -17832118.87148 -13857103.22345
                  22249276.3834                                   22249271.3984
                                                                        49.0004
        34.0004
   6641477.67247   5189602.25044
                  24208455.3444                                   24208450.8834
                                                                        45.5004
        27.7504
 09 10 31  0 49  0.0000000  0 10G02G08G05G10G13G16G21G29G07G15
   5554413.85947   4341466.61345
                  23113262.8524                                   23113256.4734
                                                                        43.7504
        31.2504
  -3921635.01247  -3015997.23444
                  23325129.4144                                   23325126.2114
                                                                        44.0004
        28.5004
 -18722423.83648 -14551539.89147
                  20372815.6094                                   20372811.4104
                                                                        50.0004
        43.5004
 -14482288.23448 -11251935.23046
                  20317413.6094                                   20317409.6054
                                                                        50.0004
        41.5004
   4548176.22346   3557382.75043
                  23622015.7734                                   23622011.9574
                                                                        39.5004
        20.7504
 -11116014.72747  -8627133.64544
                  23642019.2034                                   23642014.2384
                                                                        43.7504
        24.5004
   1166294.54346    947855.16443
                  24001411.6954                                   24001405.8874
                                                                        41.5004
        23.5004
  -7243261.83647  -5615369.75446
                  22516847.4924                                   22516843.6454
                                                                        47.0004
        36.0004
 -17932309.96148 -13935174.27045
                  22230210.2734                                   22230205.8754
                                                                        48.2504
        34.5004
   6443924.91447   5035665.08244
                  24170862.2894                                   24170857.8404
                                                                        44.2504
        26.5004
 09 10 31  0 49 30.0000000  0 10G02G08G05G10G13G16G21G29G07G15
   5582228.08647   4363140.00845
                  23118555.7274                                   23118549.8754
                                                                        44.0004
        31.2504
  -4095467.04747  -3151450.72344
                  23292050.7974                                   23292047.5004
                                                                        44.7504
        29.5004
 -18810673.35948 -14620305.75847
                  20356022.4774                                   20356018.2664
                                                                        50.0004
        44.0004
 -14542462.37148 -11298824.21546
                  20305962.7664                                   20305958.7344
                                                                        50.0004
        41.5004
   4573566.13747   3577167.19543
                  23626846.8984                                   23626842.8134
                                                                        42.5004
        21.0004
 -11160568.69547  -8661851.03144
                  23633540.3754                                   23633535.8484
                                                                        44.5004
        26.0004
    984269.80547    806017.70744
                  23966773.1484                                   23966768.1174
                                                                        43.0004
        24.0004
  -7263847.43747  -5631410.49246
                  22512929.8914                                   22512926.6334
                                                                        47.0004
        36.0004
 -18031871.37548 -14012754.53545
                  22211264.4924                                   22211259.9144
                                                                        48.7504
        34.7504
   6246510.09447   4881835.41044
                  24133294.8284                                   24133291.4414
                                                                        42.7504
        27.2504
 09 10 31  0 50  0.0000000  0 10G02G08G05G10G13G16G21G29G07G15
   5610281.05147   4384999.47745
                  23123893.7974                                   23123887.9304
                                                                        43.5004
        30.5004
  -4268938.15247  -3286623.04745
                  23259039.8284                                   23259037.3524
                                                                        44.5004
        30.0004
 -18898371.25848 -14688641.78147
                  20339334.0944                                   20339329.6254
                                                                        50.7504
        44.0004
 -14602074.22348 -11345275.07046
                  20294619.1414                                   20294615.1024
                                                                        50.2504
        41.2504
   4599200.50847   3597142.27043
                  23631724.3594                                   23631720.4064
                                                                        43.2504
        21.5004
 -11204551.24647  -8696123.14144
                  23625171.2344                                   23625166.3914
                                                                        44.2504
        25.7504
    802443.69147    664335.02744
                  23932172.6174                                   23932167.1884
                                                                        42.0004
        24.2504
  -7283933.70747  -5647062.14145
                  22509107.8834                                   22509104.3364
                                                                        47.0004
        35.5004
 -18130801.91048 -14089843.40245
                  22192438.8284                                   22192434.2814
                                                                        48.7504
        34.5004
   6049236.75846   4728116.03144
                  24095754.9304                                   24095751.9614
                                                                        41.0004
        27.0004
 09 10 31  0 50 30.0000000  0 10G02G08G05G10G13G16G21G29G07G15
   5638567.44947   4407040.79345
                  23129276.2664                                   23129270.9184
                                                                        44.5004
        30.0004
  -4442048.07847  -3421513.94944
                  23226098.4454                                   23226095.5204
                                                                        44.5004
        29.0004
 -18985520.18048 -14756550.02747
                  20322750.1724                                   20322745.7544
                                                                        50.5004
        44.0004
 -14661127.28948 -11391290.45746
                  20283381.8284                                   20283377.7814
                                                                        50.5004
        41.5004
   4625073.85946   3617303.60243
                  23636648.6024                                   23636643.4414
                                                                        41.0004
        21.0004
 -11247966.58647  -8729953.27344
                  23616909.3984                                   23616904.3674
                                                                        44.2504
        24.7504
    620815.36747    522806.46944
                  23897610.0554                                   23897605.2464
                                                                        43.5004
        25.5004
  -7303526.02347  -5662328.89145
                  22505380.0004                                   22505375.9964
                                                                        47.0004
        35.5004
 -18229103.29348 -14166441.91845
                  22173732.1644                                   22173727.8094
                                                                        48.5004
        34.0004
   5852104.38746   4574506.44944
                  24058241.4224                                   24058238.8054
                                                                        41.5004
        28.2504
 09 10 31  0 51  0.0000000  0 10G02G08G05G10G13G16G21G29G07G15
   7242504.43847   5656861.80945
                  23434495.5784                                   23434489.8794
                                                                        44.0004
        30.2504
  -3039367.78547  -2328516.46144
                  23493019.1804                                   23493016.0234
                                                                        44.0004
        28.5004
 -17496696.81648 -13596427.99647
                  20606064.0164                                   20606059.4224
                                                                        50.7504
        43.2504
 -13144200.12548 -10209269.30546
                  20572043.4694                                   20572039.8204
                                                                        49.7504
        41.5004
   6226603.46146   4865248.95743
                  23941409.1024                                   23941404.2424
                                                                        40.7504
        19.7504
  -9715394.50047  -7535741.25844
                  23908547.8524                                   23908543.1214
                                                                        44.2504
        26.0004
   2014813.82447   1609039.03944
                  24162879.6254                                   24162874.4694
                                                                        43.0004
        25.2504
  -5747204.75048  -4449611.02045
                  22801537.9224                                   22801533.9774
                                                                        48.0004
        35.7504
 -16751350.40648 -13014946.06645
                  22454939.6644                                   22454935.1844
                                                                        49.5004
        34.5004
   7230542.43447   5648614.14544
                  24320550.2894                                   24320546.5634
                                                                        43.0004
        29.2504
 09 10 31  0 51 30.0000000  0 10G02G08G05G10G13G16G21G29G07G15
   7271250.21147   5679261.13744
                  23439965.4844                                   23439959.7154
                                                                        44.7504
        29.5004
  -3211746.48447  -2462837.42244
                  23460216.8204                                   23460213.3874
                                                                        43.7504
        28.7504
 -17582747.91048 -13663480.82447
                  20589688.8204                                   20589685.2194
                                                                        50.2504
        44.0004
 -13202138.54748 -10254416.13746
                  20561018.2344                                   20561014.2584
                                                                        49.5004
        41.2504
   6252946.96946   4885776.54343
                  23946422.1804                                   23946417.7464
                                                                        40.0004
        20.0004
  -9757680.32447  -7568691.23443
                  23900501.5314                                   23900496.4804
                                                                        45.0004
        23.5004
   1833588.19947   1467824.27344
                  24128393.1174                                   24128387.8754
                                                                        43.0004
        25.7504
  -5765814.48047  -4464112.10545
                  22797996.7114                                   22797992.8054
                                                                        47.5004
        35.7504
 -16848391.00848 -13090562.02045
                  22436473.3054                                   22436468.6804
                                                                        48.7504
        34.5004
   7033698.62547   5495229.44144
                  24283092.1564                                   24283087.9694
                                                                        43.7504
        29.5004
 09 10 31  0 52  0.0000000  0 10G02G08G05G10G13G16G21G29G07G15
   7300219.28947   5701834.53944
                  23445478.1884                                   23445471.7274
                                                                        45.0004
        29.2504
  -3383758.29747  -2596872.56244
                  23427483.7034                                   23427480.3094
                                                                        44.0004
        27.0004
 -17668252.44548 -13730107.78147
                  20573418.1334                                   20573414.0784
                                                                        49.7504
        43.7504
 -13259523.46148 -10299131.66846
                  20550098.2274                                   20550094.0044
                                                                        50.0004
        41.0004
   6279518.64146   4906481.79343
                  23951478.5554                                   23951473.8834
                                                                        40.5004
        22.0004
  -9799406.13747  -7601204.84443
                  23892561.3754                                   23892556.1214
                                                                        43.5004
        22.7504
   1652564.48047   1326766.85244
                  24093945.1804                                   24093940.3244
                                                                        42.0004
        25.0004
  -5783938.88747  -4478235.02745
                  22794547.4224                                   22794543.7814
                                                                        47.0004
        35.5004
 -16944803.28148 -13165688.36745
                  22418126.8204                                   22418122.0744
                                                                        49.0004
        34.2504
   6836999.67647   5341957.67644
                  24245661.4224                                   24245656.7664
                                                                        42.7504
        27.7504
 09 10 31  0 52 30.0000000  0 10G02G08G05G10G13G16G21G29G07G15
   7329405.33647   5724576.97744
                  23451031.4454                                   23451026.4064
                                                                        45.0004
        29.0004
  -3555404.72347  -2730623.23844
                  23394820.8594                                   23394817.2734
                                                                        44.2504
        27.7504
 -17753214.13748 -13796311.68047
                  20557250.2274                                   20557245.9694
                                                                        50.7504
        43.7504
 -13316359.70348 -10343419.72346
                  20539282.5394                                   20539278.5354
                                                                        50.0004
        41.2504
   6306311.90646   4927359.55943
                  23956577.0394                                   23956572.7544
                                                                        40.5004
        22.0004
  -9840577.67247  -7633286.55943
                  23884726.8984                                   23884721.7624
                                                                        44.2504
        22.7504
   1471740.74247   1185865.26644
                  24059535.1414                                   24059530.7624
                                                                        43.5004
        24.2504
  -5801584.32047  -4491984.71945
                  22791189.6174                                   22791185.9024
                                                                        47.2504
        35.5004
 -17040590.69148 -13240327.87945
                  22399898.9064                                   22399894.0784
                                                                        48.5004
        34.5004
   6640443.89147   5188797.33644
                  24208257.7504                                   24208253.9844
                                                                        42.2504
        26.5004
 09 10 31  0 53  0.0000000  0 10G02G08G05G10G13G16G21G29G07G15
   7358805.00047   5747485.73044
                  23456626.7274                                   23456620.8134
                                                                        45.5004
        29.7504
  -3726682.82047  -2864086.72344
                  23362228.1254                                   23362224.3794
                                                                        44.2504
        28.5004
 -17837634.33648 -13862093.70747
                  20541185.8054                                   20541181.6374
                                                                        52.0004
        44.0004
 -13372648.91448 -10387281.47746
                  20528570.9384                                   20528567.0474
                                                                        51.5004
        41.5004
   6333324.03546   4948408.00043
                  23961716.9454                                   23961712.8054
                                                                        40.0004
        21.2504
  -9881197.53147  -7664938.38343
                  23876996.7974                                   23876991.1724
                                                                        44.0004
        21.7504
   1291118.49647   1045120.68444
                  24025164.6804                                   24025159.2704
                                                                        44.0004
        24.5004
  -5818753.71147  -4505363.46145
                  22787922.5084                                   22787918.2344
                                                                        47.2504
        34.7504
 -17135753.55948 -13314480.74645
                  22381789.6174                                   22381784.9414
                                                                        48.5004
        33.7504
   6444032.64847   5035749.67644
                  24170881.8674                                   24170878.0274
                                                                        43.2504
        27.5004
 09 10 31  0 53 30.0000000  0 10G02G08G05G10G13G16G21G29G07G15
   7388416.38347   5770559.41044
                  23462262.0084                                   23462256.0474
                                                                        45.7504
        29.5004
  -3897589.66047  -2997260.74244
                  23329705.5314                                   23329702.2234
                                                                        45.0004
        29.7504
 -17921512.16048 -13927453.18747
                  20525224.5554                                   20525220.3444
                                                                        51.0004
        43.5004
 -13428391.28148 -10430717.03546
                  20517963.5314                                   20517959.5744
                                                                        50.5004
        41.5004
   6360552.40246   4969624.90243
                  23966898.9534                                   23966894.3164
                                                                        40.7504
        22.0004
  -9921266.77747  -7696161.17243
                  23869371.9304                                   23869366.6644
                                                                        43.0004
        22.7504
   1110700.52747    904535.26244
                  23990832.0784                                   23990826.6454
                                                                        44.7504
        25.5004
  -5835448.78947  -4518372.61745
                  22784745.5394                                   22784741.3164
                                                                        47.0004
        35.0004
 -17230290.60248 -13388145.93445
                  22363800.0314                                   22363795.2894
                                                                        48.0004
        34.2504
   6247768.82047   4882816.90644
                  24133533.7814                                   24133530.1564
                                                                        44.2504
        28.2504
 09 10 31  0 54  0.0000000  0 10G02G08G05G10G13G16G21G29G07G15
   7418235.83247   5793795.45344
                  23467936.2034                                   23467929.9144
                                                                        45.5004
        29.2504
  -4068124.57847  -3130145.17244
                  23297253.6334                                   23297250.4384
                                                                        44.2504
        29.2504
 -18004848.99648 -13992390.87147
                  20509365.7734                                   20509361.7194
                                                                        48.7504
        43.5004
 -13483589.87548 -10473728.89546
                  20507459.6174                                   20507455.4574
                                                                        49.0004
        41.5004
   6387992.03146   4991006.38743
                  23972120.4774                                   23972115.9024
                                                                        38.5004
        21.5004
  -9960788.78547  -7726957.53943
                  23861850.9224                                   23861845.6884
                                                                        43.0004
        22.5004
    930487.41847    764109.45344
                  23956538.7114                                   23956533.2304
                                                                        45.0004
        24.5004
  -5851673.74247  -4531015.43445
                  22781657.8524                                   22781653.9614
                                                                        47.7504
        34.5004
 -17324204.53548 -13461326.10945
                  22345929.2974                                   22345924.6524
                                                                        48.0004
        34.7504
   6051652.55547   4729999.11744
                  24096214.3984                                   24096210.4924
                                                                        44.0004
        27.7504
 09 10 31  0 54 30.0000000  0 10G02G08G05G10G13G16G21G29G07G15
   7448259.80147   5817190.87544
                  23473649.4614                                   23473643.5474
                                                                        44.5004
        28.7504
  -4238284.89147  -3262737.58244
                  23264873.0864                                   23264869.7934
                                                                        44.2504
        29.0004
 -18087646.01648 -14056908.00047
                  20493609.9454                                   20493606.0004
                                                                        50.0004
        43.2504
 -13538246.30548 -10516318.40246
                  20497058.8674                                   20497054.6644
                                                                        50.5004
        41.0004
   6415640.07846   5012550.28143
                  23977381.4844                                   23977376.9064
                                                                        38.7504
        20.0004
  -9999766.02047  -7757329.40243
                  23854433.6254                                   23854429.0044
                                                                        43.0004
        22.7504
    750480.50847    623844.34444
                  23922284.7734                                   23922279.0984
                                                                        45.5004
        25.7504
  -5867431.49247  -4543294.21545
                  22778659.4304                                   22778655.6844
                                                                        47.0004
        35.0004
 -17417493.79748 -13534019.08245
                  22328177.0394                                   22328172.4804
                                                                        48.5004
        34.2504
   5855685.59847   4577297.67644
                  24058922.7974                                   24058919.3134
                                                                        44.0004
        28.7504
 09 10 31  0 55  0.0000000  0 10G02G08G05G10G13G16G21G29G07G15
   7478481.69947   5840740.46944
                  23479400.0084                                   23479394.0164
                                                                        45.2504
        28.5004
  -4408072.85947  -3395040.26244
                  23232563.6804                                   23232560.4264
                                                                        43.7504
        29.5004
 -18169907.34448 -14121007.75047
                  20477956.3834                                   20477952.2234
                                                                        50.2504
        43.5004
 -13592365.08248 -10558488.93746
                  20486760.3834                                   20486756.6724
                                                                        50.5004
        40.7504
   6443489.58246   5034250.35243
                  23982681.7424                                   23982676.9144
                                                                        40.2504
        19.5004
 -10038204.37547  -7787281.36743
                  23847118.6564                                   23847113.9144
                                                                        43.0004
        22.7504
    570678.02747    483738.51244
                  23888069.5704                                   23888063.9304
                                                                        43.7504
        26.0004
  -5882728.02747  -4555213.59045
                  22775748.7974                                   22775744.9414
                                                                        47.5004
        35.0004
 -17510162.23447 -13606228.18745
                  22310542.4924                                   22310537.6914
                                                                        47.7504
        34.2504
   5659866.23847   4424711.23045
                  24021660.1564                                   24021656.2274
                                                                        45.0004
        31.0004
 09 10 31  0 55 30.0000000  0 10G02G08G05G10G13G16G21G29G07G15
   7508900.47747   5864443.40245
                  23485188.7734                                   23485182.8094
                                                                        44.0004
        30.0004
  -4577482.52047  -3527047.59844
                  23200325.8444                                   23200322.8524
                                                                        45.0004
        29.7504
 -18251631.23848 -14184688.80547
                  20462404.7894                                   20462400.6334
                                                                        51.2504
        43.0004
 -13645945.96148 -10600240.23846
                  20476564.3914                                   20476560.3954
                                                                        51.0004
        41.2504
   6471542.22746   5056109.92643
                  23988019.3444                                   23988015.9264
                                                                        38.0004
        19.5004
 -10076103.75447  -7816813.33643
                  23839907.2584                                   23839902.1994
                                                                        43.0004
        22.5004
    391083.69947    343794.90244
                  23853893.5634                                   23853888.1724
                                                                        43.2504
        25.2504
  -5897564.53947  -4566774.50045
                  22772925.2894                                   22772921.2814
                                                                        47.2504
        35.5004
 -17602207.92248 -13677952.13345
                  22293026.7734                                   22293022.5784
                                                                        48.7504
        34.0004
   5464197.90247   4272242.41845
                  23984425.8134                                   23984421.4384
                                                                        44.2504
        30.0004
 09 10 31  0 56  0.0000000  0 10G02G08G05G10G13G16G21G29G07G15
   7539511.93847   5888296.32044
                  23491014.2504                                   23491008.2584
                                                                        44.5004
        27.7504
  -4746512.93447  -3658759.09045
                  23168160.2734                                   23168156.9734
                                                                        45.2504
        30.2504
 -18332819.41848 -14247952.25847
                  20446955.4454                                   20446950.8324
                                                                        50.0004
        43.7504
 -13698992.07848 -10641574.91846
                  20466470.2584                                   20466466.0474
                                                                        50.5004
        41.0004
   6499790.38346   5078121.62543
                  23993394.6334                                   23993390.6684
                                                                        39.0004
        20.0004
 -10113467.60547  -7845928.04743
                  23832797.2584                                   23832792.7894
                                                                        43.0004
        22.7504
    211697.76247    204013.67644
                  23819757.2894                                   23819752.2734
                                                                        43.2504
        25.5004
  -5911944.69947  -4577979.80945
                  22770188.8914                                   22770184.6604
                                                                        47.5004
        35.2504
 -17693632.46547 -13749192.00445
                  22275629.5634                                   22275624.8524
                                                                        47.5004
        34.0004
   5268680.91047   4119891.50845
                  23947219.7734                                   23947216.2854
                                                                        43.2504
        30.0004
 09 10 31  0 56 30.0000000  0 10G02G08G05G10G13G16G21G29G07G15
   7570315.25447   5912298.80944
                  23496876.2194                                   23496870.1684
                                                                        44.5004
        28.5004
  -4915162.21147  -3790174.33244
                  23136067.7424                                   23136064.3284
                                                                        44.0004
        29.0004
 -18413470.63748 -14310797.37947
                  20431608.0234                                   20431603.7074
                                                                        50.2504
        43.2504
 -13751502.33648 -10682492.04346
                  20456478.1094                                   20456474.0124
                                                                        50.5004
        41.2504
   6528234.46946   5100285.79743
                  23998807.4224                                   23998803.4304
                                                                        40.2504
        20.5004
 -10150296.42647  -7874625.83244
                  23825789.4454                                   23825784.4844
                                                                        43.2504
        26.0004
     32524.25847     64397.98044
                  23785661.6804                                   23785656.9064
                                                                        43.2504
        26.0004
  -5925869.69547  -4588830.45345
                  22767539.1484                                   22767535.4534
                                                                        46.7504
        35.0004
 -17784434.81647 -13819947.32845
                  22258350.0944                                   22258345.9694
                                                                        47.5004
        34.7504
   5073319.21547   3967661.62144
                  23910043.4844                                   23910039.8984
                                                                        42.0004
        29.5004
 09 10 31  0 57  0.0000000  0 10G02G08G05G10G13G16G21G29G07G15
   7601307.80547   5936448.81644
                  23502773.8834                                   23502767.9924
                                                                        44.7504
        29.5004
  -5083427.02047  -3921290.23044
                  23104047.8594                                   23104045.0004
                                                                        44.0004
        28.7504
 -18493585.39848 -14373224.50847
                  20416362.5704                                   20416358.5634
                                                                        50.0004
        43.5004
 -13803477.95348 -10722992.57846
                  20446587.3674                                   20446583.0864
                                                                        50.0004
        41.5004
   6556869.71946   5122598.93043
                  24004257.0474                                   24004252.8674
                                                                        41.5004
        21.7504
 -10186591.96547  -7902908.08243
                  23818882.4304                                   23818877.2814
                                                                        43.2504
        23.5004
   -146435.01247    -75050.76644
                  23751607.4304                                   23751602.3674
                                                                        44.5004
        26.7504
  -5939341.92647  -4599328.29345
                  22764975.0004                                   22764971.4964
                                                                        47.5004
        35.5004
 -17874613.14547 -13890215.90645
                  22241190.0864                                   22241185.4224
                                                                        47.5004
        35.0004
   4878114.73046   3815554.22744
                  23872897.1884                                   23872893.4344
                                                                        41.2504
        28.5004
 09 10 31  0 57 30.0000000  0 10G02G08G05G10G13G16G21G29G07G15
   7632486.16847   5960743.62144
                  23508706.2974                                   23508701.0904
                                                                        44.5004
        28.0004
  -5251304.66447  -4052104.37544
                  23072102.1484                                   23072099.3714
                                                                        44.5004
        29.5004
 -18573164.38748 -14435234.07447
                  20401219.2814                                   20401214.6054
                                                                        49.0004
        43.5004
 -13854921.01248 -10763078.04746
                  20436797.9924                                   20436793.9774
                                                                        49.2504
        41.0004
   6585693.14847   5145058.07843
                  24009742.1804                                   24009737.8954
                                                                        42.0004
        22.0004
 -10222357.32447  -7930777.18744
                  23812076.5864                                   23812071.9774
                                                                        44.0004
        24.2504
   -325179.05147   -214331.82044
                  23717593.2734                                   23717588.2384
                                                                        45.5004
        27.7504
  -5952365.00447  -4609476.16445
                  22762497.0084                                   22762493.8244
                                                                        47.0004
        35.0004
 -17964169.70748 -13960000.25045
                  22224147.4454                                   22224142.9804
                                                                        48.0004
        34.5004
   4683068.82446   3663570.45744
                  23835781.2274                                   23835777.3014
                                                                        41.7504
        27.5004
 09 10 31  0 58  0.0000000  0 10G02G08G05G10G13G16G21G29G07G15
   7663845.07447   5985179.09844
                  23514673.7894                                   23514667.8364
                                                                        45.5004
        28.2504
  -5418794.34447  -4182615.66445
                  23040230.1174                                   23040227.2934
                                                                        44.2504
        30.7504
 -18652210.96948 -14496828.89847
                  20386177.1414                                   20386172.9024
                                                                        50.2504
        43.5004
 -13905835.47748 -10802751.69546
                  20427109.5944                                   20427105.3634
                                                                        51.0004
        41.0004
   6614701.34046   5167661.63743
                  24015263.2114                                   24015258.5784
                                                                        40.0004
        20.7504
 -10257597.02747  -7958236.69544
                  23805371.1414                                   23805365.6844
                                                                        44.7504
        25.2504
   -503707.95347   -353445.23044
                  23683620.1254                                   23683615.1254
                                                                        45.7504
        27.7504
  -5964943.74647  -4619277.77045
                  22760103.4064                                   22760099.6414
                                                                        47.5004
        35.0004
 -18053106.96947 -14029301.93045
                  22207223.3204                                   22207218.8874
                                                                        47.7504
        34.0004
   4488181.02347   3511709.90644
                  23798695.7114                                   23798691.1954
                                                                        43.0004
        28.7504
 09 10 31  0 58 30.0000000  0 10G02G08G05G10G13G16G21G29G07G15
   7695382.62547   6009753.72344
                  23520675.7114                                   23520670.0514
                                                                        44.2504
        27.7504
  -5585893.90247  -4312823.05145
                  23008432.3204                                   23008428.4064
                                                                        44.5004
        30.5004
 -18730723.97348 -14558007.83647
                  20371236.5474                                   20371232.2894
                                                                        51.0004
        43.5004
 -13956221.72348 -10842013.75846
                  20417521.2504                                   20417516.8954
                                                                        50.5004
        40.5004
   6643893.33646   5190409.28943
                  24020817.3364                                   24020813.7974
                                                                        38.7504
        18.2504
 -10292312.28947  -7985287.54744
                  23798764.2114                                   23798759.3794
                                                                        44.5004
        24.5004
   -682018.96147   -492388.85544
                  23649689.2034                                   23649684.0124
                                                                        45.2504
        28.5004
  -5977080.07847  -4628734.62945
                  22757794.3524                                   22757789.8634
                                                                        47.0004
        34.5004
 -18141423.21148 -14098119.67245
                  22190417.4064                                   22190413.0394
                                                                        48.2504
        34.7504
   4293453.89147   3359974.50845
                  23761640.4224                                   23761635.9304
                                                                        45.0004
        30.5004
 09 10 31  0 59  0.0000000  0 10G02G08G05G10G13G16G21G29G07G15
   7727098.54347   6034467.36344
                  23526711.1024                                   23526705.4414
                                                                        44.0004
        28.2504
  -5752598.19947  -4442722.22345
                  22976708.6094                                   22976705.7504
                                                                        44.0004
        30.0004
 -18808702.06648 -14618769.86747
                  20356397.6804                                   20356393.3444
                                                                        49.7504
        43.2504
 -14006079.42248 -10880864.17246
                  20408033.8134                                   20408029.7584
                                                                        50.0004
        41.5004
   6673264.11346   5213295.67242
                  24026405.9774                                   24026402.9574
                                                                        38.5004
        15.5004
 -10326503.03147  -8011929.66844
                  23792258.1804                                   23792253.3714
                                                                        44.7504
        24.5004
   -860108.08647   -631159.59844
                  23615799.5944                                   23615794.5204
                                                                        44.5004
        26.2504
  -5988774.35947  -4637847.03545
                  22755568.2274                                   22755564.2034
                                                                        46.0004
        33.5004
 -18229116.98848 -14166452.57845
                  22173729.7504                                   22173725.1684
                                                                        48.7504
        34.7504
   4098891.66047   3208367.62145
                  23724616.4694                                   23724612.1994
                                                                        43.5004
        31.7504
 09 10 31  0 59 30.0000000  0 10G02G08G05G10G13G16G21G29G07G15
   7758991.69147   6059319.03944
                  23532779.8134                                   23532774.4734
                                                                        43.2504
        26.7504
  -5918903.72347  -4572310.82845
                  22945062.1254                                   22945059.3014
                                                                        44.7504
        30.5004
 -18886144.10548 -14679114.29747
                  20341660.8914                                   20341657.0314
                                                                        51.2504
        43.5004
 -14055407.10548 -10919301.57046
                  20398647.3284                                   20398643.4964
                                                                        51.5004
        41.0004
   6702814.97746   5236322.12943
                  24032029.5314                                   24032025.1724
                                                                        39.7504
        19.2504
 -10360169.61747  -8038163.36744
                  23785852.3674                                   23785846.5474
                                                                        44.5004
        25.0004
  -1037971.49647   -769754.45744
                  23581952.9534                                   23581947.9614
                                                                        43.2504
        25.2504
  -6000027.61747  -4646615.81245
                  22753426.8674                                   22753422.9844
                                                                        45.7504
        32.5004
 -18316186.72747 -14234299.40245
                  22157161.3204                                   22157156.6914
                                                                        47.5004
        33.7504
   3904498.05947   3056892.12145
                  23687624.4144                                   23687620.2774
                                                                        43.5004
        31.0004
 09 10 31  1  0  0.0000000  0 10G02G08G05G10G13G16G21G29G07G15
   7791053.61347   6084302.27744
                  23538880.7734                                   23538875.2344
                                                                        42.5004
        25.5004
  -6084813.59847  -4701591.15645
                  22913490.5004                                   22913487.5474
                                                                        45.0004
        31.0004
 -18963055.96948 -14739045.62547
                  20327025.3834                                   20327020.8484
                                                                        48.2504
        44.0004
 -14104211.82048 -10957331.23446
                  20389360.1724                                   20389356.0744
                                                                        48.5004
        41.5004
   6732537.31346   5259482.57043
                  24037685.3204                                   24037681.6024
                                                                        41.2504
        20.0004
 -10393320.04747  -8063994.86744
                  23779543.0164                                   23779538.3484
                                                                        43.7504
        24.5004
  -1215613.27347   -908176.59444
                  23548148.5864                                   23548143.3164
                                                                        44.0004
        25.0004
  -6010848.21547  -4655047.45345
                  22751367.9064                                   22751364.0864
                                                                        46.5004
        34.0004
 -18402637.66448 -14301663.76645
                  22140710.4064                                   22140705.9924
                                                                        48.0004
        34.2504
   3710269.30947   2905545.12945
                  23650663.2114                                   23650659.9574
                                                                        42.5004
        30.2504
 09 10 31  1  0 30.0000000  0 10G02G08G05G10G13G16G21G29G07G15
   9398700.65647   7337014.25444
                  23844806.4614                                   23844800.7894
                                                                        43.5004
        27.7504
  -4674899.62947  -3602956.85245
                  23181787.6804                                   23181784.8594
                                                                        43.7504
        30.0004
 -17464015.45748 -13570962.10947
                  20612283.0314                                   20612278.7234
                                                                        50.7504
        43.7504
 -12577073.00048  -9767352.66446
                  20679964.5004                                   20679960.4654
                                                                        50.5004
        41.0004
   8337847.48046   6510373.62543
                  24343165.7894                                   24343161.5434
                                                                        41.0004
        21.7504
  -8850534.98447  -6861824.69143
                  24073125.6174                                   24073120.3404
                                                                        43.2504
        23.5004
    182395.14847    181180.62544
                  23814181.0784                                   23814175.3834
                                                                        44.2504
        25.2504
  -4445818.37947  -3435543.67245
                  23049183.4844                                   23049179.5434
                                                                        47.0004
        34.0004
 -16913047.10947 -13140943.86345
                  22424169.9454                                   22424165.4304
                                                                        47.7504
        34.2504
   5091634.00447   3981933.31645
                  23913528.5314                                   23913524.9144
                                                                        42.5004
        30.2504
 09 10 31  1  1  0.0000000  0 10G02G08G05G10G13G16G21G29G07G15
   9431096.85947   7362258.09844
                  23850971.3204                                   23850965.3834
                                                                        44.2504
        28.5004
  -4840005.66447  -3731610.83245
                  23150369.2274                                   23150366.0864
                                                                        45.5004
        30.7504
 -17539863.51248 -13630064.51647
                  20597849.8754                                   20597845.6844
                                                                        51.0004
        44.0004
 -12624831.75848  -9804567.37546
                  20670876.3914                                   20670873.0664
                                                                        50.0004
        41.0004
   8367908.84046   6533797.91043
                  24348886.7034                                   24348882.8484
                                                                        41.0004
        22.0004
  -8882654.30947  -6886852.71943
                  24067013.5864                                   24067008.0234
                                                                        43.0004
        22.5004
      5208.19547     43112.87544
                  23780463.6024                                   23780458.0984
                                                                        44.2504
        27.0004
  -4455776.97347  -3443303.61345
                  23047288.6644                                   23047284.8324
                                                                        46.2504
        35.2504
 -16998256.36347 -13207340.74245
                  22407955.2894                                   22407950.8204
                                                                        47.5004
        34.5004
   4897745.48847   3830851.41445
                  23876633.2584                                   23876628.1804
                                                                        44.5004
        31.5004
 09 10 31  1  1 30.0000000  0  9G02G08G05G10G16G21G29G07G15
   9463658.60247   7387630.75844
                  23857167.6644                                   23857161.7464
                                                                        43.5004
        27.5004
  -5004703.25447  -3859946.37545
                  23119027.9844                                   23119024.6644
                                                                        45.0004
        30.7504
 -17615178.09048 -13688751.19947
                  20583517.8524                                   20583513.4414
                                                                        49.5004
        43.5004
 -12672066.94948  -9841373.73446
                  20661887.7894                                   20661883.9884
                                                                        49.0004
        41.0004
  -8914259.04747  -6911479.79344
                  24060999.6174                                   24060994.1484
                                                                        42.5004
        24.2504
   -171745.89547    -94773.41844
                  23746790.2664                                   23746785.8794
                                                                        46.2504
        28.0004
  -4465305.92247  -3450728.77345
                  23045475.5314                                   23045471.2344
                                                                        47.0004
        34.2504
 -17082841.91848 -13273251.39845
                  22391859.0554                                   22391854.6804
                                                                        48.0004
        34.5004
   4704032.69547   3679906.37545
                  23839770.6804                                   23839765.7274
                                                                        43.5004
        30.2504
 09 10 31  1  2  0.0000000  0  9G02G08G05G10G16G21G29G07G15
   9496379.63347   7413127.52044
                  23863394.0704                                   23863388.6334
                                                                        43.5004
        28.5004
  -5168994.42647  -3987965.41045
                  23087764.3054                                   23087761.6884
                                                                        45.2504
        31.0004
 -17689962.92248 -13747025.07447
                  20569286.7664                                   20569282.5354
                                                                        50.5004
        43.7504
 -12718784.09448  -9877776.59846
                  20652997.6954                                   20652993.3324
                                                                        50.5004
        40.5004
  -8945355.04347  -6935710.46143
                  24055081.7584                                   24055076.6604
                                                                        42.7504
        22.7504
   -348469.04747   -232479.76244
                  23713161.1954                                   23713155.8364
                                                                        45.5004
        28.7504
  -4474411.81247  -3457824.27045
                  23043742.1724                                   23043738.3594
                                                                        46.5004
        34.2504
 -17166808.14148 -13338679.35945
                  22375880.2584                                   22375875.8754
                                                                        48.2504
        34.7504
   4510493.77747   3529096.81644
                  23802941.3134                                   23802936.1414
                                                                        43.5004
        29.7504
 09 10 31  1  2 30.0000000  0  9G02G08G05G10G16G21G29G07G15
   9529264.23447   7438751.88744
                  23869651.9614                                   23869646.2704
                                                                        43.5004
        26.5004
  -5332869.92247  -4115660.55545
                  23056580.5314                                   23056576.9384
                                                                        45.5004
        31.5004
 -17764211.96948 -13804881.44947
                  20555157.4064                                   20555153.4494
                                                                        51.2504
        43.7504
 -12764977.76648  -9913771.61746
                  20644207.2734                                   20644203.2894
                                                                        50.5004
        40.5004
  -8975937.76647  -6959541.14143
                  24049261.7344                                   24049257.3834
                                                                        42.2504
        22.5004
   -524952.66447   -369999.44944
                  23679577.7194                                   23679572.6604
                                                                        46.2504
        28.2504
  -4483090.68447  -3464587.02345
                  23042090.6804                                   23042086.7814
                                                                        45.7504
        34.5004
 -17250149.49248 -13403620.71945
                  22360021.4694                                   22360016.5514
                                                                        48.0004
        34.0004
   4317137.25847   3378429.37945
                  23766146.5784                                   23766142.6414
                                                                        44.0004
        30.7504
 09 10 31  1  3  0.0000000  0  9G02G08G05G10G16G21G29G07G15
   9562312.02347   7464503.34844
                  23875941.0704                                   23875934.8914
                                                                        43.0004
        27.5004
  -5496324.42247  -4243027.71945
                  23025476.1644                                   23025472.3014
                                                                        45.5004
        31.2504
 -17837923.25448 -13862318.85547
                  20541130.9774                                   20541126.7074
                                                                        51.2504
        43.5004
 -12810646.80948  -9949357.91446
                  20635517.0084                                   20635512.4574
                                                                        50.5004
        40.5004
  -9006007.04347  -6982971.75843
                  24043539.7734                                   24043535.3244
                                                                        42.2504
        22.5004
   -701191.51247   -507328.41444
                  23646040.1724                                   23646035.4184
                                                                        45.2504
        27.5004
  -4491342.62547  -3471017.12545
                  23040520.1884                                   23040516.8014
                                                                        47.0004
        34.0004
 -17332863.27048 -13468073.46945
                  22344281.4774                                   22344277.2344
                                                                        48.0004
        34.0004
   4123967.93847   3227907.82445
                  23729387.7584                                   23729384.1804
                                                                        44.2504
        31.7504
 09 10 31  1  3 30.0000000  0  9G02G08G05G10G16G21G29G07G15
   9595517.32847   7490377.59444
                  23882259.7194                                   23882253.5394
                                                                        44.0004
        25.5004
  -5659358.90647  -4370067.72345
                  22994451.4064                                   22994447.9024
                                                                        45.0004
        31.0004
 -17911100.48448 -13919340.08247
                  20527205.9774                                   20527201.6094
                                                                        51.2504
        44.0004
 -12855795.52748  -9984538.82446
                  20626925.4694                                   20626921.5314
                                                                        51.0004
        40.5004
  -9035568.30146  -7006006.52343
                  24037914.9534                                   24037910.2304
                                                                        41.5004
        22.5004
   -877186.84047   -644467.61344
                  23612549.1024                                   23612544.4344
                                                                        44.7504
        27.2504
  -4499173.44947  -3477119.07045
                  23039029.8524                                   23039026.6604
                                                                        46.5004
        34.0004
 -17414951.60948 -13532038.46945
                  22328660.5004                                   22328656.3284
                                                                        48.2504
        34.5004
   3930984.50447   3077531.17245
                  23692663.7194                                   23692660.4614
                                                                        43.0004
        31.7504
 09 10 31  1  4  0.0000000  0  9G02G08G05G10G16G21G29G07G15
   9628873.19947   7516369.16044
                  23888606.6484                                   23888601.4844
                                                                        44.0004
        27.5004
  -5821974.34447  -4496781.03145
                  22963506.6954                                   22963503.1994
                                                                        45.7504
        32.0004
 -17983747.57448 -13975948.22747
                  20513381.5004                                   20513377.2194
                                                                        51.0004
        43.5004
 -12900428.85548 -10019318.06246
                  20618431.8914                                   20618428.1844
                                                                        49.5004
        41.2504
  -9064627.26246  -7028649.87143
                  24032384.7894                                   24032379.8364
                                                                        41.2504
        21.0004
  -1052940.72347   -781418.67244
                  23579104.7194                                   23579099.3794
                                                                        45.5004
        26.0004
  -4506589.73047  -3482898.00445
                  23037618.7344                                   23037615.4804
                                                                        46.5004
        34.0004
 -17496419.00847 -13595519.35245
                  22313158.2894                                   22313153.6414
                                                                        47.7504
        34.0004
   3738185.22747   2927297.99645
                  23655976.0234                                   23655971.9694
                                                                        44.2504
        31.7504
 09 10 31  1  4 30.0000000  0  9G02G08G05G10G16G21G29G07G15
   9662377.75447   7542476.58644
                  23894982.8984                                   23894977.6174
                                                                        44.5004
        28.5004
  -5984168.02347  -4623165.49645
                  22932642.1564                                   22932638.7544
                                                                        45.5004
        31.5004
 -18055865.27348 -14032143.85247
                  20499657.9224                                   20499653.6764
                                                                        50.2504
        43.0004
 -12944548.01248 -10053696.48446
                  20610036.1644                                   20610032.1054
                                                                        50.2504
        41.2504
  -9093186.22346  -7050903.60243
                  24026950.7424                                   24026945.2974
                                                                        41.0004
        21.5004
  -1228450.74247   -918179.72344
                  23545706.1564                                   23545701.0204
                                                                        45.2504
        26.7504
  -4513593.85547  -3488355.76645
                  23036286.0164                                   23036282.7114
                                                                        46.2504
        33.7504
 -17577265.45748 -13658516.28945
                  22297773.1174                                   22297768.6604
                                                                        48.0004
        33.7504
   3545572.29347   2777210.02345
                  23619322.4924                                   23619318.5164
                                                                        44.7504
        30.7504
 09 10 31  1  5  0.0000000  0  9G02G08G05G10G16G21G29G07G15
   9696023.57847   7568693.98444
                  23901385.4924                                   23901380.0634
                                                                        44.2504
        28.0004
  -6145942.21947  -4749223.17645
                  22901857.7424                                   22901854.6524
                                                                        45.7504
        32.0004
 -18127458.06248 -14087930.42247
                  20486034.0554                                   20486029.9734
                                                                        50.7504
        43.5004
 -12988159.43748 -10087679.66846
                  20601737.4144                                   20601733.5124
                                                                        50.2504
        40.2504
  -9121251.56247  -7072772.71143
                  24021609.8364                                   24021604.2974
                                                                        42.0004
        22.7504
  -1403719.20347  -1054752.54344
                  23512353.5314                                   23512348.7304
                                                                        45.5004
        27.7504
  -4520192.87147  -3493497.85945
                  23035030.3284                                   23035027.2074
                                                                        45.5004
        33.7504
 -17657496.04748 -13721033.52345
                  22282505.8284                                   22282501.0634
                                                                        48.7504
        34.5004
   3353143.60947   2627265.53545
                  23582704.2664                                   23582700.1334
                                                                        45.0004
        30.5004
 09 10 31  1  5 30.0000000  0  9G02G08G05G10G16G21G29G07G15
   9729807.96147   7595019.35244
                  23907814.5394                                   23907808.8634
                                                                        44.0004
        28.2504
  -6307294.91847  -4874952.44545
                  22871152.9844                                   22871150.2814
                                                                        46.2504
        31.5004
 -18198527.35248 -14143309.13347
                  20472510.4454                                   20472506.2774
                                                                        50.2504
        43.5004
 -13031264.60948 -10121268.23446
                  20593534.8054                                   20593530.5984
                                                                        50.0004
        41.0004
  -9148826.14847  -7094259.37943
                  24016362.3524                                   24016357.0124
                                                                        42.2504
        22.2504
  -1578744.67247  -1191136.02344
                  23479047.2504                                   23479041.7344
                                                                        46.2504
        27.7504
  -4526389.98447  -3498326.78945
                  23033850.8284                                   23033847.2194
                                                                        45.7504
        33.2504
 -17737111.79347 -13783071.78545
                  22267355.2974                                   22267350.2734
                                                                        47.7504
        34.0004
   3160900.37547   2477465.53545
                  23546122.0784                                   23546117.8714
                                                                        45.2504
        31.2504
 09 10 31  1  6  0.0000000  0  9G02G08G05G10G16G21G29G07G15
   9763726.10547   7621449.04344
                  23914269.2344                                   23914263.1644
                                                                        44.2504
        26.2504
  -6468226.07047  -5000353.24645
                  22840528.5314                                   22840525.8954
                                                                        45.2504
        31.0004
 -18269075.52348 -14198281.69147
                  20459085.1174                                   20459081.0204
                                                                        51.0004
        43.0004
 -13073867.86748 -10154465.96146
                  20585427.7344                                   20585424.1524
                                                                        51.0004
        40.7504
  -9175914.51247  -7115367.19143
                  24011208.2894                                   24011202.6094
                                                                        42.2504
        22.5004
  -1753527.25447  -1327330.24244
                  23445787.8284                                   23445781.8984
                                                                        46.0004
        28.2504
  -4532190.25447  -3502846.47745
                  23032747.3594                                   23032743.3364
                                                                        46.5004
        32.5004
 -17816115.08248 -13844632.73045
                  22252321.6024                                   22252317.4064
                                                                        48.5004
        34.5004
   2968842.85547   2327810.35545
                  23509575.2734                                   23509570.7814
                                                                        45.2504
        31.5004
 09 10 31  1  6 30.0000000  0  9G02G08G05G10G16G21G29G07G15
   9797777.62947   7647982.85244
                  23920748.4304                                   23920742.6054
                                                                        44.5004
        24.2504
  -6628731.07847  -5125422.06645
                  22809985.7034                                   22809982.3054
                                                                        45.0004
        32.2504
 -18339101.33648 -14252847.28947
                  20445759.9844                                   20445755.7424
                                                                        50.0004
        43.0004
 -13115967.22348 -10187270.81246
                  20577416.7344                                   20577412.8794
                                                                        51.0004
        40.5004
  -9202516.77047  -7136096.24243
                  24006145.6884                                   24006140.4964
                                                                        42.5004
        22.5004
  -1928062.42247  -1463331.66044
                  23412574.4924                                   23412569.5434
                                                                        46.5004
        29.0004
  -4537594.18447  -3507057.30945
                  23031719.0864                                   23031714.5784
                                                                        46.5004
        33.5004
 -17894503.50848 -13905714.53545
                  22237404.7584                                   22237399.8364
                                                                        48.5004
        34.7504
   2776975.07847   2178303.03145
                  23473063.9064                                   23473059.9774
                                                                        44.0004
        31.2504
 09 10 31  1  7  0.0000000  0  9G02G08G05G10G16G21G29G07G15
   9831960.44547   7674618.91444
                  23927253.5634                                   23927247.2034
                                                                        44.5004
        24.7504
  -6788806.98047  -5250156.75045
                  22779524.2034                                   22779521.0944
                                                                        46.2504
        32.0004
 -18408604.93748 -14307006.30147
                  20432533.8524                                   20432530.2774
                                                                        49.5004
        43.2504
 -13157564.32048 -10219684.61746
                  20569501.5704                                   20569498.0474
                                                                        49.7504
        41.0004
  -9228634.44547  -7156447.66443
                  24001175.4144                                   24001170.8984
                                                                        42.7504
        22.0004
  -2102347.42247  -1599138.14544
                  23379409.3134                                   23379403.6994
                                                                        47.0004
        28.7504
  -4542604.03947  -3510961.08645
                  23030766.0864                                   23030761.9844
                                                                        46.2504
        33.2504
 -17972276.72748 -13966316.85245
                  22222604.7734                                   22222599.9774
                                                                        48.7504
        33.7504
   2585299.84847   2028945.74645
                  23436588.9534                                   23436584.9064
                                                                        43.5004
        31.2504
 09 10 31  1  7 30.0000000  0  9G02G08G05G10G16G21G29G07G15
   9866273.03946   7701356.03144
                  23933782.3674                                   23933777.1454
                                                                        41.2504
        24.2504
  -6948449.69947  -5374553.66045
                  22749145.7814                                   22749142.0634
                                                                        46.5004
        32.2504
 -18477584.24648 -14360756.19147
                  20419407.4534                                   20419403.4454
                                                                        49.2504
        42.7504
 -13198658.80548 -10251706.37946
                  20561681.7114                                   20561678.0784
                                                                        48.7504
        41.0004
  -9254269.03547  -7176422.67243
                  23996297.7894                                   23996292.3524
                                                                        42.7504
        22.5004
  -2276379.39847  -1734747.45744
                  23346292.0394                                   23346286.8484
                                                                        45.7504
        29.0004
  -4547221.32447  -3514558.97745
                  23029887.0944                                   23029882.9774
                                                                        46.0004
        33.5004
 -18049434.59048 -14026439.71545
                  22207921.9844                                   22207917.0434
                                                                        48.0004
        34.5004
   2393819.48447   1879740.19145
                  23400151.2504                                   23400147.8954
                                                                        45.0004
        31.5004
 09 10 31  1  8  0.0000000  0  9G02G08G05G10G16G21G29G07G15
   9900713.01247   7728192.33244
                  23940336.4384                                   23940330.6484
                                                                        42.2504
        24.2504
  -7107656.42647  -5498610.70745
                  22718849.1884                                   22718845.6134
                                                                        45.7504
        32.0004
 -18546040.80148 -14414098.98447
                  20406380.7424                                   20406376.6844
                                                                        50.0004
        43.2504
 -13239250.75448 -10283336.03546
                  20553956.8914                                   20553953.3134
                                                                        50.0004
        40.5004
  -9279421.89147  -7196022.29744
                  23991511.3674                                   23991506.3204
                                                                        43.0004
        24.2504
  -2450156.03947  -1870157.80944
                  23313222.8594                                   23313217.7664
                                                                        46.0004
        28.0004
  -4551448.38347  -3517852.78945
                  23029082.4614                                   23029079.1994
                                                                        46.0004
        33.2504
 -18125977.78148 -14086083.84445
                  22193356.4844                                   22193351.5434
                                                                        49.0004
        33.5004
   2202536.96547   1730688.67645
                  23363751.4614                                   23363747.9184
                                                                        43.7504
        31.2504
 09 10 31  1  8 30.0000000  0  9G02G08G05G10G16G21G29G07G15
   9935278.68847   7755126.63344
                  23946914.0164                                   23946908.4534
                                                                        43.5004
        27.7504
  -7266424.63747  -5622326.18745
                  22688636.9614                                   22688633.5514
                                                                        45.7504
        31.7504
 -18613974.10548 -14467034.05947
                  20393453.3914                                   20393449.3164
                                                                        50.2504
        43.2504
 -13279343.22748 -10314577.15646
                  20546327.6724                                   20546324.2544
                                                                        51.0004
        40.7504
  -9304095.24647  -7215248.30543
                  23986815.7194                                   23986810.6214
                                                                        43.2504
        22.7504
  -2623673.93747  -2005366.54744
                  23280203.9064                                   23280198.8674
                                                                        46.0004
        28.5004
  -4555286.89847  -3520843.86745
                  23028351.6094                                   23028348.0784
                                                                        45.5004
        32.7504
 -18201905.15648 -14145248.39145
                  22178908.2034                                   22178903.6684
                                                                        49.5004
        34.2504
   2011455.76247   1581794.19545
                  23327390.4454                                   23327386.5594
                                                                        44.0004
        32.0004
 09 10 31  1  9  0.0000000  0  9G02G08G05G10G16G21G29G07G15
   9969968.98847   7782158.00044
                  23953515.4454                                   23953510.4024
                                                                        44.5004
        29.5004
  -7424750.03547  -5745696.60245
                  22658508.2344                                   22658504.9694
                                                                        45.5004
        31.5004
 -18681383.06648 -14519560.51647
                  20380626.0944                                   20380621.6214
                                                                        49.2504
        43.7504
 -13318934.95748 -10345427.96946
                  20538793.6644                                   20538790.4344
                                                                        49.0004
        40.5004
  -9328289.63346  -7234101.04743
                  23982211.8674                                   23982206.6024
                                                                        41.7504
        23.0004
  -2796929.37947  -2140370.77344
                  23247234.5164                                   23247229.8834
                                                                        46.0004
        28.5004
  -4558738.53947  -3523533.47345
                  23027695.2424                                   23027691.9144
                                                                        45.5004
        33.5004
 -18277215.30548 -14203931.81245
                  22164577.2034                                   22164572.4494
                                                                        48.7504
        34.2504
   1820578.80547   1433058.91045
                  23291067.2974                                   23291063.8054
                                                                        44.5004
        32.0004
 09 10 31  1  9 30.0000000  0  8G08G05G10G16G21G29G07G15
  -7582628.12147  -5868718.53545
                  22628465.1564                                   22628461.6994
                                                                        45.2504
        30.5004
 -18748265.94548 -14571676.92647
                  20367898.4774                                   20367894.3484
                                                                        50.5004
        43.5004
 -13358025.13748 -10375888.05946
                  20531355.2114                                   20531351.8364
                                                                        50.2504
        41.0004
  -9352004.97346  -7252580.55943
                  23977698.2894                                   23977694.4694
                                                                        41.0004
        22.5004
  -2969918.07047  -2275167.15644
                  23214316.2734                                   23214310.8594
                                                                        46.5004
        28.7504
  -4561803.55147  -3525921.81645
                  23027112.1954                                   23027109.1134
                                                                        46.0004
        33.0004
 -18351906.17648 -14262132.47745
                  22150363.9694                                   22150359.3134
                                                                        48.5004
        34.0004
   1629910.30947   1284486.00045
                  23254784.7194                                   23254780.4734
                                                                        46.5004
        32.0004
 09 10 31  1 10  0.0000000  0  8G08G05G10G16G21G29G07G15
  -6164633.08647  -4763787.18445
                  22898300.0864                                   22898297.1764
                                                                        45.5004
        31.7504
 -17239203.86348 -13395784.43047
                  20655063.4534                                   20655059.4454
                                                                        49.0004
        42.5004
 -11821196.25448  -9178359.07446
                  20823804.1484                                   20823801.0314
                                                                        50.0004
        40.7504
  -7799825.27746  -6043089.90243
                  24273068.6564                                   24273064.5354
                                                                        40.5004
        22.2504
  -1567214.43747  -1182151.33244
                  23481241.5704                                   23481236.5004
                                                                        47.0004
        29.5004
  -2989066.68447  -2300412.57845
                  23326394.1884                                   23326390.6994
                                                                        46.0004
        32.5004
 -16850558.63748 -13092251.40245
                  22436061.0554                                   22436056.7584
                                                                        49.0004
        33.7504
   3014876.80147   2363680.61345
                  23518334.8444                                   23518331.3134
                                                                        45.2504
        32.5004
 09 10 31  1 10 30.0000000  0  8G08G05G10G16G21G29G07G15
  -6321609.12947  -4886106.11745
                  22868428.7274                                   22868425.2304
                                                                        45.5004
        31.7504
 -17305037.35548 -13447083.44947
                  20642536.0944                                   20642531.5704
                                                                        50.5004
        43.2504
 -11859287.24648  -9208039.89146
                  20816555.2274                                   20816551.5124
                                                                        50.7504
        40.5004
  -7822589.92646  -6060828.62143
                  24268736.8054                                   24268732.5984
                                                                        41.7504
        22.0004
  -1739663.94947  -1316527.57444
                  23448425.4384                                   23448420.9304
                                                                        47.0004
        29.0004
  -2991366.72747  -2302204.80945
                  23325956.7664                                   23325952.4414
                                                                        45.7504
        33.0004
 -16924014.30148 -13149490.08645
                  22422082.9924                                   22422079.3244
                                                                        48.2504
        34.5004
   2824632.34447   2215438.19945
                  23482132.2814                                   23482128.4924
                                                                        43.5004
        31.0004
 09 10 31  1 11  0.0000000  0  8G08G05G10G16G21G29G07G15
  -6478125.30947  -5008066.96145
                  22838644.7584                                   22838641.5394
                                                                        44.5004
        31.7504
 -17370340.09448 -13497968.41047
                  20630109.0864                                   20630105.2034
                                                                        49.0004
        43.2504
 -11896876.14148  -9237329.79746
                  20809402.0784                                   20809398.6994
                                                                        49.7504
        40.5004
  -7844877.07447  -6078195.23843
                  24264495.9454                                   24264491.3204
                                                                        42.5004
        22.5004
  -1911834.43747  -1450686.39544
                  23415662.0864                                   23415657.9844
                                                                        47.0004
        29.2504
  -2993282.82847  -2303697.88345
                  23325591.9614                                   23325588.0234
                                                                        45.5004
        32.7504
 -16996847.14847 -13206243.60945
                  22408224.2584                                   22408220.2074
                                                                        47.7504
        34.5004
   2634608.76647   2067368.06345
                  23445972.0084                                   23445968.0474
                                                                        45.0004
        31.7504
 09 10 31  1 11 30.0000000  0  8G08G05G10G16G21G29G07G15
  -6634180.60247  -5129668.37545
                  22808948.5394                                   22808945.6644
                                                                        45.7504
        31.7504
 -17435116.44548 -13548443.51247
                  20617782.8134                                   20617778.5354
                                                                        48.7504
        43.0004
 -11933966.30948  -9266231.41046
                  20802344.5394                                   20802341.0514
                                                                        48.5004
        41.0004
  -7866691.27747  -6095193.31243
                  24260344.8674                                   24260339.8554
                                                                        42.7504
        22.5004
  -2083726.44547  -1584628.20744
                  23382952.6094                                   23382947.2934
                                                                        46.5004
        29.5004
  -2994819.76247  -2304895.49645
                  23325299.5234                                   23325295.2034
                                                                        45.5004
        32.5004
 -17069057.21548 -13262510.56245
                  22394482.9844                                   22394478.5594
                                                                        48.2504
        34.2504
   2444805.82047   1919469.79745
                  23409853.7584                                   23409849.6954
                                                                        45.5004
        31.7504
 09 10 31  1 12  0.0000000  0  8G08G05G10G16G21G29G07G15
  -6789776.45747  -5250911.98845
                  22779339.6644                                   22779336.5234
                                                                        46.2504
        33.2504
 -17499369.60548 -13598510.91847
                  20605555.5944                                   20605551.1954
                                                                        49.5004
        43.5004
 -11970559.99248  -9294745.20346
                  20795380.3364                                   20795376.4614
                                                                        49.7504
        40.7504
  -7888038.04747  -6111827.18043
                  24256282.6174                                   24256277.1454
                                                                        42.2504
        21.5004
  -2255340.54747  -1718353.47744
                  23350295.4304                                   23350290.1524
                                                                        47.0004
        28.5004
  -2995983.57447  -2305802.36745
                  23325077.9064                                   23325074.0594
                                                                        45.0004
        32.2504
 -17140651.28547 -13318297.73445
                  22380858.4694                                   22380854.0864
                                                                        47.5004
        33.7504
   2255221.92247   1771742.02745
                  23373777.8914                                   23373773.6334
                                                                        44.7504
        32.7504
 09 10 31  1 12 30.0000000  0  8G08G05G10G16G21G29G07G15
  -6944913.27747  -5371798.09445
                  22749818.5314                                   22749815.9494
                                                                        46.0004
        33.0004
 -17563102.64548 -13648173.00447
                  20593427.6954                                   20593423.6374
                                                                        49.0004
        43.0004
 -12006664.64148  -9322878.60946
                  20788509.6254                                   20788505.8754
                                                                        48.7504
        40.2504
  -7908922.16047  -6128100.50043
                  24252308.1954                                   24252303.6764
                                                                        42.7504
        22.0004
  -2426677.20347  -1851862.55144
                  23317691.4614                                   23317685.7384
                                                                        46.0004
        29.0004
  -2996779.37147  -2306422.47745
                  23324926.1644                                   23324922.9534
                                                                        45.5004
        32.0004
 -17211632.46548 -13373607.74245
                  22367350.6884                                   22367346.3594
                                                                        48.0004
        34.0004
   2065857.11347   1624184.91445
                  23337742.6724                                   23337738.8914
                                                                        46.5004
        33.7504
 09 10 31  1 13  0.0000000  0  8G08G05G10G16G21G29G07G15
  -7099590.02347  -5492325.25845
                  22720384.1884                                   22720381.5234
                                                                        46.0004
        32.5004
 -17626318.77748 -13697432.27047
                  20581397.9924                                   20581393.6524
                                                                        48.5004
        42.7504
 -12042283.23048  -9350633.42646
                  20781731.8134                                   20781728.0514
                                                                        49.7504
        40.0004
  -7929348.72747  -6144017.30943
                  24248421.6484                                   24248416.0474
                                                                        42.5004
        21.2504
  -2597736.98047  -1985155.86744
                  23285139.8674                                   23285134.6254
                                                                        45.2504
        29.5004
  -2997212.61747  -2306760.06645
                  23324843.5944                                   23324840.0864
                                                                        44.0004
        31.5004
 -17282004.06648 -13428443.16045
                  22353960.2504                                   22353955.6374
                                                                        48.5004
        34.5004
   1876710.88747   1476798.17645
                  23301749.2274                                   23301745.5744
                                                                        45.2504
        34.0004
 09 10 31  1 13 30.0000000  0  8G08G05G10G16G21G29G07G15
  -7253804.58247  -5612492.28145
                  22691038.2274                                   22691035.1254
                                                                        46.5004
        33.0004
 -17689018.48448 -13746289.20747
                  20569466.4614                                   20569462.4144
                                                                        48.5004
        43.2504
 -12077416.26248  -9378009.69546
                  20775046.2034                                   20775042.6054
                                                                        49.2504
        40.5004
  -7949319.61347  -6159579.00843
                  24244620.9064                                   24244615.6054
                                                                        42.2504
        22.0004
  -2768516.73047  -2118230.99645
                  23252641.6484                                   23252635.8284
                                                                        46.2504
        30.0004
  -2997285.63347  -2306816.96945
                  23324829.9454                                   23324826.1174
                                                                        43.0004
        31.2504
 -17351764.85547 -13482802.39845
                  22340685.3674                                   22340681.2584
                                                                        47.5004
        33.7504
   1687785.91847   1329583.79345
                  23265798.2734                                   23265794.1454
                                                                        47.0004
        33.5004
 09 10 31  1 14  0.0000000  0  8G08G05G10G16G21G29G07G15
  -7407553.80947  -5732296.79345
                  22661780.3594                                   22661776.7974
                                                                        46.0004
        33.0004
 -17751202.12548 -13794744.49247
                  20557633.6254                                   20557629.8634
                                                                        50.5004
        42.7504
 -12112064.18048  -9405008.06246
                  20768452.7424                                   20768448.9344
                                                                        50.5004
        40.5004
  -7968836.27747  -6174786.80543
                  24240907.4694                                   24240901.7504
                                                                        42.0004
        21.5004
  -2939013.11347  -2251085.32044
                  23220197.0314                                   23220191.7974
                                                                        46.7504
        29.7504
  -2997000.06247  -2306594.44145
                  23324884.1484                                   23324880.7854
                                                                        44.5004
        32.0004
 -17420914.49248 -13536685.23845
                  22327526.3594                                   22327522.2704
                                                                        48.2504
        33.2504
   1499085.37547   1182544.32045
                  23229889.5784                                   23229885.6914
                                                                        46.5004
        33.2504
 09 10 31  1 14 30.0000000  0  8G08G05G10G16G21G29G07G15
  -7560833.71147  -5851735.60945
                  22632612.3134                                   22632608.6524
                                                                        46.5004
        32.5004
 -17812866.97748 -13842795.09847
                  20545899.3364                                   20545895.3794
                                                                        49.7504
        42.7504
 -12146226.77048  -9431628.04346
                  20761951.6094                                   20761947.7584
                                                                        50.2504
        40.0004
  -7987899.36346  -6189641.11743
                  24237279.4224                                   24237274.6524
                                                                        41.5004
        21.5004
  -3109222.70347  -2383716.16844
                  23187807.1174                                   23187801.9224
                                                                        46.5004
        28.7504
  -2996356.98847  -2306093.35945
                  23325006.9144                                   23325003.2704
                                                                        45.5004
        32.7504
 -17489451.99647 -13590090.90645
                  22314484.2194                                   22314479.9384
                                                                        47.7504
        34.0004
   1310613.49247   1035683.17645
                  23194024.5634                                   23194020.2544
                                                                        47.5004
        32.0004
 09 10 31  1 15  0.0000000  0  8G08G05G10G16G21G29G07G15
  -7713644.93047  -5970809.21545
                  22603533.0234                                   22603529.6214
                                                                        46.2504
        32.0004
 -17874016.83648 -13890444.01647
                  20534262.8284                                   20534258.6094
                                                                        48.7504
        43.5004
 -12179909.79748  -9457874.69946
                  20755542.2344                                   20755538.5124
                                                                        49.7504
        40.7504
  -8006514.36347  -6204146.33243
                  24233737.2734                                   24233732.4734
                                                                        42.0004
        22.0004
  -3279146.88347  -2516124.60945
                  23155471.7814                                   23155466.1024
                                                                        45.7504
        30.7504
  -2995362.47347  -2305318.41845
                  23325196.3204                                   23325192.7034
                                                                        45.5004
        33.5004
 -17557381.29347 -13643022.53545
                  22301557.6884                                   22301553.1094
                                                                        47.7504
        33.2504
   1122368.66447    888999.02345
                  23158202.5234                                   23158198.6094
                                                                        47.0004
        32.5004
 09 10 31  1 15 30.0000000  0  8G08G05G10G16G21G29G07G15
  -7865981.35947  -6089512.85945
                  22574544.2894                                   22574541.1214
                                                                        45.5004
        32.0004
 -17934649.63748 -13937690.23447
                  20522724.4924                                   20522720.5554
                                                                        50.0004
        42.5004
 -12213110.38748  -9483745.50046
                  20749224.2734                                   20749220.8244
                                                                        50.0004
        39.7504
  -8024680.25446  -6218301.58643
                  24230280.6094                                   24230275.3594
                                                                        41.2504
        22.2504
  -3448779.17247  -2648305.62145
                  23123191.7504                                   23123186.8484
                                                                        46.0004
        30.5004
  -2994015.20347  -2304268.60545
                  23325452.5634                                   23325448.7894
                                                                        45.5004
        33.0004
 -17624699.30147 -13695477.84445
                  22288746.8284                                   22288742.4344
                                                                        47.7504
        33.5004
    934356.80147    742496.29745
                  23122424.9774                                   23122421.0594
                                                                        46.5004
        33.5004
 09 10 31  1 16  0.0000000  0  8G08G05G10G16G21G29G07G15
  -8017840.57447  -6207844.64145
                  22545646.1564                                   22545642.8324
                                                                        46.2504
        32.2504
 -17994765.93048 -13984534.01647
                  20511284.9144                                   20511280.4494
                                                                        49.7504
        42.5004
 -12245829.20748  -9509240.58646
                  20742998.0004                                   20742994.4264
                                                                        50.7504
        40.2504
  -8042399.32446  -6232108.66443
                  24226908.4224                                   24226903.7344
                                                                        41.2504
        21.5004
  -3618117.35247  -2780257.43744
                  23090967.7114                                   23090962.7074
                                                                        45.5004
        29.2504
  -2992318.18447  -2302946.26245
                  23325775.2034                                   23325772.3914
                                                                        44.0004
        32.2504
 -17691408.60547 -13747459.69545
                  22276053.4384                                   22276048.7934
                                                                        47.5004
        33.0004
    746580.10547    596176.74645
                  23086692.6024                                   23086689.0004
                                                                        47.5004
        33.7504
 09 10 31  1 16 30.0000000  0  8G08G05G10G16G21G29G07G15
  -8169220.63347  -6325803.30145
                  22516839.9534                                   22516836.3524
                                                                        45.7504
        32.5004
 -18054366.26648 -14030975.89147
                  20499943.2274                                   20499938.9184
                                                                        48.5004
        42.7504
 -12278067.85248  -9534361.51646
                  20736863.4064                                   20736859.8404
                                                                        50.0004
        40.5004
  -8059673.49246  -6245569.07443
                  24223621.7974                                   24223616.7734
                                                                        39.5004
        21.2504
  -3787159.13747  -2911978.31244
                  23058800.2734                                   23058795.2154
                                                                        46.2504
        29.2504
  -2990273.81247  -2301353.25845
                  23326164.6174                                   23326160.9264
                                                                        45.0004
        31.5004
 -17757506.14848 -13798963.94545
                  22263474.7274                                   22263471.0824
                                                                        48.0004
        34.2504
    559040.91847    450042.23045
                  23051004.8914                                   23051001.3874
                                                                        47.5004
        33.0004
 09 10 31  1 17  0.0000000  0  8G08G05G10G16G21G29G07G15
  -8320117.57047  -6443385.48845
                  22488125.7504                                   22488122.0204
                                                                        46.0004
        33.0004
 -18113449.94948 -14077015.15647
                  20488700.0314                                   20488695.9264
                                                                        49.0004
        42.7504
 -12309827.05948  -9559108.92246
                  20730819.6024                                   20730816.2154
                                                                        50.2504
        39.7504
  -8076504.40246  -6258684.09043
                  24220418.4144                                   24220413.6724
                                                                        40.5004
        22.7504
  -3955900.49247  -3043465.08645
                  23026689.8284                                   23026684.2584
                                                                        46.2504
        30.2504
  -2987883.66047  -2299490.80945
                  23326619.1024                                   23326614.9344
                                                                        44.5004
        31.0004
 -17822993.01647 -13849992.32445
                  22251012.9924                                   22251008.3364
                                                                        46.7504
        33.5004
    371742.10947    304094.71545
                  23015363.8594                                   23015359.9104
                                                                        47.2504
        34.0004
 09 10 31  1 17 30.0000000  0  8G08G05G10G16G21G29G07G15
  -8470527.40247  -6560587.88745
                  22459503.5084                                   22459499.9414
                                                                        46.0004
        32.7504
 -18172016.15248 -14122651.02047
                  20477555.1724                                   20477551.2854
                                                                        49.2504
        42.7504
 -12341107.30548  -9583483.24246
                  20724867.3284                                   20724863.4884
                                                                        49.5004
        40.2504
  -8092893.06246  -6271454.47743
                  24217299.6724                                   24217295.0634
                                                                        40.5004
        22.0004
  -4124338.80147  -3174715.70744
                  22994636.9064                                   22994631.6684
                                                                        45.5004
        29.5004
  -2985149.28947  -2297360.11344
                  23327138.9224                                   23327135.3014
                                                                        43.0004
        29.5004
 -17887869.44547 -13900545.27045
                  22238667.3674                                   22238662.8834
                                                                        47.2504
        34.0004
    184689.32447    158339.64145
                  22979768.3524                                   22979764.4384
                                                                        47.5004
        34.7504
 09 10 31  1 18  0.0000000  0  8G08G05G10G16G21G29G07G15
  -8620449.31647  -6677410.47345
                  22430974.1254                                   22430971.3484
                                                                        46.0004
        34.0004
 -18230066.37948 -14167884.88747
                  20466508.6724                                   20466504.3324
                                                                        49.0004
        42.5004
 -12371909.69948  -9607485.04346
                  20719005.7894                                   20719002.3874
                                                                        50.0004
        40.0004
  -8108842.12146  -6283882.34843
                  24214264.9924                                   24214260.4384
                                                                        40.7504
        22.2504
  -4292471.87547  -3305728.49244
                  22962641.8444                                   22962636.6884
                                                                        46.0004
        29.7504
  -2982073.80147  -2294963.61745
                  23327724.4144                                   23327720.7034
                                                                        43.0004
        30.2504
 -17952135.65247 -13950622.52745
                  22226437.6884                                   22226432.9024
                                                                        47.0004
        34.0004
     -2117.66447     12775.93045
                  22944220.1174                                   22944215.8284
                                                                        47.0004
        33.5004
 09 10 31  1 18 30.0000000  0  8G08G05G10G16G21G29G07G15
  -8769880.48447  -6793850.16045
                  22402538.6024                                   22402535.8634
                                                                        45.2504
        33.7504
 -18287602.51648 -14212718.22347
                  20455559.8984                                   20455556.1294
                                                                        49.5004
        42.5004
 -12402237.66048  -9631117.11746
                  20713234.6174                                   20713230.9224
                                                                        49.5004
        39.7504
  -8124355.50046  -6295970.69543
                  24211313.1414                                   24211307.9884
                                                                        41.2504
        22.5004
  -4460298.52347  -3436502.50844
                  22930705.8674                                   22930700.9414
                                                                        46.5004
        29.7504
  -2978661.28547  -2292304.51645
                  23328374.3914                                   23328370.4774
                                                                        43.7504
        31.7504
 -18015794.52747 -14000226.77045
                  22214323.4694                                   22214319.3284
                                                                        46.7504
        34.2504
   -188677.62947   -132595.43045
                  22908718.3984                                   22908715.0354
                                                                        47.0004
        34.0004
 09 10 31  1 19  0.0000000  0  8G08G05G10G16G21G29G07G15
  -8918816.60547  -6909904.09845
                  22374196.8984                                   22374193.7114
                                                                        46.2504
        33.5004
 -18344622.08648 -14257149.04747
                  20444709.2974                                   20444705.1524
                                                                        50.0004
        42.5004
 -12432089.73448  -9654378.50846
                  20707553.6724                                   20707550.0664
                                                                        49.5004
        40.0004
  -8139432.53947  -6307719.02343
                  24208443.8524                                   24208438.1024
                                                                        42.0004
        21.7504
  -4627812.78947  -3567033.09445
                  22898828.9534                                   22898823.9384
                                                                        46.7504
        30.5004
  -2974911.26647  -2289382.43445
                  23329087.7504                                   23329083.9964
                                                                        45.0004
        32.7504
 -18078842.92647 -14049355.24245
                  22202325.6804                                   22202321.5044
                                                                        46.0004
        33.7504
   -374985.05947   -277769.91845
                  22873265.9694                                   22873261.8204
                                                                        47.5004
        34.5004
 09 10 31  1 19 30.0000000  0  8G08G05G10G16G21G29G07G15
  -7491828.61347  -5797965.27345
                  22645743.3594                                   22645739.9964
                                                                        46.0004
        32.2504
 -16825702.02748 -13073574.92647
                  20733750.2814                                   20733745.9734
                                                                        49.5004
        42.5004
 -10886044.40248  -8449667.85946
                  21001756.5474                                   21001752.6604
                                                                        49.5004
        40.0004
  -6578653.39546  -5091527.49643
                  24505450.4144                                   24505444.9654
                                                                        40.2504
        21.5004
  -3219585.33648  -2469712.99245
                  23166806.3834                                   23166801.1604
                                                                        48.0004
        31.5004
  -1395404.80547  -1058598.18445
                  23629657.9694                                   23629654.7504
                                                                        44.5004
        33.0004
 -16565857.98047 -12870405.81245
                  22490237.0704                                   22490232.4774
                                                                        46.5004
        33.5004
   1014390.29748    804860.36745
                  23137654.9614                                   23137651.1644
                                                                        48.0004
        34.5004
 09 10 31  1 20  0.0000000  0  8G08G05G10G16G21G29G07G15
  -7639764.47747  -5913239.99645
                  22617592.1564                                   22617588.8874
                                                                        45.5004
        33.0004
 -16881686.98848 -13117199.56247
                  20723096.3754                                   20723092.0944
                                                                        48.7504
        42.2504
 -10914944.64148  -8472187.38746
                  20996256.8754                                   20996253.2114
                                                                        49.0004
        40.0004
  -6592861.38346  -5102598.66043
                  24502746.4844                                   24502740.9924
                                                                        41.2504
        21.7504
  -3386465.91848  -2599749.80945
                  23135049.5634                                   23135044.5124
                                                                        48.0004
        31.2504
  -1390984.21147  -1055153.57445
                  23630499.4224                                   23630495.9614
                                                                        44.5004
        32.7504
 -16627685.00047 -12918582.67245
                  22478471.7664                                   22478466.7504
                                                                        47.0004
        34.0004
    828598.23848    660087.58245
                  23102299.6414                                   23102295.2464
                                                                        48.5004
        34.0004
 09 10 31  1 20 30.0000000  0  8G08G05G10G16G21G29G07G15
  -7787196.74247  -6028122.48045
                  22589536.8444                                   22589533.4654
                                                                        46.0004
        33.0004
 -16937155.68748 -13160421.97747
                  20712541.2034                                   20712537.3554
                                                                        49.7504
        42.2504
 -10943371.42248  -8494338.07846
                  20990847.3364                                   20990843.4184
                                                                        49.5004
        40.0004
  -6606638.40646  -5113334.00043
                  24500125.0704                                   24500120.2774
                                                                        41.0004
        21.2504
  -3553025.73447  -2729536.67645
                  23103354.3524                                   23103349.2974
                                                                        47.5004
        31.0004
  -1386232.27747  -1051450.79745
                  23631403.2114                                   23631399.8364
                                                                        43.2504
        32.0004
 -16688901.98447 -12966284.09045
                  22466822.5554                                   22466817.8444
                                                                        47.0004
        33.5004
    643066.95748    515517.89845
                  23066993.8204                                   23066989.7974
                                                                        48.7504
        35.0004
