     2.11           OBSERVATION DATA    G (GPS)             RINEX VERSION / TYPE
teqc  2019Feb25                         20221121 12:28:28UTCPGM / RUN BY / DATE
OSX ker:10.11.6|Core i5|gcc 4.3 -m64|OSX ker:10.10+|=+      COMMENT
BIT 2 OF LLI FLAGS DATA COLLECTED UNDER A/S CONDITION       COMMENT
04712910                                                    MARKER NAME
2910                                                        MARKER NUMBER
-Unknown-           -Unknown-                               OBSERVER / AGENCY
0220400471          TRIMBLE R7          2.30                REC # / TYPE / VERS
-Unknown-           TRM39105.00     NONE                    ANT # / TYPE
  1449459.6610 -1709241.9316  5952441.7864                  APPROX POSITION XYZ
        0.0000        0.0000        0.0000                  ANTENNA: DELTA H/E/N
     1     1                                                WAVELENGTH FACT L1/2
    20    L1    L2    L5    L6    L7    L8    C1    P1    C2# / TYPES OF OBSERV
          P2    C5    C6    C7    C8    S1    S2    S5    S6# / TYPES OF OBSERV
          S7    S8                                          # / TYPES OF OBSERV
    30.0000                                                 INTERVAL
    15                                                      LEAP SECONDS
Forced Modulo Decimation to 30 seconds                      COMMENT
 SNR is mapped to RINEX snr flag value [0-9]                COMMENT
  L1 & L2: min(max(int(snr_dBHz/6), 0), 9)                  COMMENT
teqc edited: Beidou # 1 - 37 excluded                       COMMENT
  2009    10    18     0     0    0.0000000     GPS         TIME OF FIRST OBS
                                                            END OF HEADER
 09 10 18  0  0  0.0000000  0  8G02G04G10G05G13G23G29G25
 -10234558.91048  -7953232.74247
                  20429706.3284                                   20429700.5354
                                                                        51.0004
        43.0004
  -2042964.60248  -1583262.35245
                  22163297.5164                                   22163294.0164
                                                                        50.5004
        35.7504
 -19446940.66848 -15132133.93046
                  21846364.4694                                   21846361.0204
                                                                        49.0004
        37.0004
 -15645913.40647 -12178624.74646
                  22667701.5554                                   22667697.6174
                                                                        46.0004
        36.2504
 -11967202.10948  -9295200.86746
                  21152378.1094                                   21152373.3634
                                                                        49.7504
        36.0004
  -3828924.02047  -2969925.73044
                  22815992.8984                                   22815986.8164
                                                                        44.7504
        29.2504
 -16997506.50047 -13198678.20745
                  22496855.1334                                   22496851.1564
                                                                        46.5004
        34.7504
  -8218184.44546  -6361867.21544
                  23411698.9844                                   23411695.6954
                                                                        40.2504
        26.5004
 09 10 18  0  0 30.0000000  0  8G02G04G10G05G13G23G29G25
 -10303353.23448  -8006838.69547
                  20416615.3674                                   20416609.7384
                                                                        51.0004
        42.2504
  -2039302.35948  -1580408.66045
                  22163994.4454                                   22163990.4454
                                                                        49.7504
        35.5004
 -19623644.37548 -15269825.09446
                  21812739.0554                                   21812735.2304
                                                                        49.2504
        37.0004
 -15832097.85947 -12323703.52746
                  22632272.1484                                   22632268.2854
                                                                        45.5004
        36.5004
 -12049135.89848  -9359045.37946
                  21136786.7584                                   21136781.9494
                                                                        50.7504
        36.7504
  -3837383.99247  -2976517.92644
                  22814382.6954                                   22814376.4384
                                                                        45.0004
        29.0004
 -17143306.07047 -13312288.26645
                  22469110.1954                                   22469106.1804
                                                                        47.0004
        34.2504
  -8378417.12546  -6486723.77044
                  23381208.0164                                   23381204.4454
                                                                        40.0004
        26.0004
 09 10 18  0  1  0.0000000  0  8G02G04G10G05G13G23G29G25
 -10371543.89548  -8059974.26247
                  20403639.1024                                   20403633.5394
                                                                        51.5004
        42.5004
  -2035286.08648  -1577279.12545
                  22164758.4384                                   22164754.7704
                                                                        49.0004
        35.0004
 -19799945.66048 -15407202.70346
                  21779189.9774                                   21779186.0984
                                                                        48.7504
        37.7504
 -16017983.01247 -12468549.09846
                  22596899.4614                                   22596895.2664
                                                                        47.5004
        37.0004
 -12130380.19148  -9422352.63746
                  21121326.6884                                   21121321.8404
                                                                        50.7504
        36.0004
  -3845387.25847  -2982754.24644
                  22812859.9844                                   22812853.5664
                                                                        45.7504
        29.5004
 -17288575.65647 -13425485.34045
                  22441466.1884                                   22441462.6054
                                                                        46.7504
        35.0004
  -8538217.74646  -6611243.76644
                  23350799.2734                                   23350795.0744
                                                                        41.7504
        26.5004
 09 10 18  0  1 30.0000000  0  8G02G04G10G05G13G23G29G25
 -10439131.55948  -8112639.95747
                  20390777.6414                                   20390771.1564
                                                                        51.7504
        42.2504
  -2030918.18748  -1573875.58645
                  22165589.6724                                   22165586.1094
                                                                        49.2504
        35.2504
 -19975842.39148 -15544265.05146
                  21745717.8834                                   21745714.3834
                                                                        49.0004
        37.0004
 -16203567.27047 -12613160.17646
                  22561584.2114                                   22561579.7154
                                                                        47.0004
        36.0004
 -12210936.48448  -9485123.77346
                  21105996.9224                                   21105992.3794
                                                                        51.0004
        37.0004
  -3852937.04747  -2988637.22344
                  22811423.3674                                   22811417.2464
                                                                        46.0004
        29.5004
 -17433313.41847 -13538268.01245
                  22413923.7274                                   22413919.8324
                                                                        46.5004
        35.2504
  -8697584.68447  -6735425.76644
                  23320472.5234                                   23320468.6334
                                                                        42.5004
        27.0004
 09 10 18  0  2  0.0000000  0  8G02G04G10G05G13G23G29G25
 -10506114.57848  -8164834.51647
                  20378031.5704                                   20378025.2704
                                                                        52.0004
        43.0004
  -2026198.00848  -1570197.55145
                  22166487.8204                                   22166484.5784
                                                                        48.7504
        35.5004
 -20151330.42248 -15681008.93446
                  21712323.6024                                   21712320.0664
                                                                        49.7504
        37.5004
 -16388846.38347 -12757533.47346
                  22526326.4384                                   22526322.6954
                                                                        47.2504
        36.7504
 -12290802.14548  -9547356.74646
                  21090799.1254                                   21090794.4614
                                                                        51.0004
        36.2504
  -3860033.21147  -2994166.69944
                  22810073.1174                                   22810066.1954
                                                                        45.7504
        28.5004
 -17577515.71147 -13650633.43045
                  22386482.6254                                   22386479.2234
                                                                        47.5004
        35.0004
  -8856512.46946  -6859265.55944
                  23290230.0554                                   23290225.7544
                                                                        41.5004
        27.7504
 09 10 18  0  2 30.0000000  0  8G02G04G10G05G13G23G29G25
 -10572494.36348  -8216559.01647
                  20365399.6484                                   20365393.5474
                                                                        52.2504
        42.0004
  -2021129.36348  -1566247.98445
                  22167452.4224                                   22167448.5704
                                                                        49.2504
        35.0004
 -20326409.17648 -15817433.91046
                  21679006.9774                                   21679002.9494
                                                                        49.7504
        36.5004
 -16573819.77747 -12901668.57046
                  22491127.3674                                   22491123.3164
                                                                        47.2504
        37.0004
 -12369979.46948  -9609053.35946
                  21075732.2344                                   21075727.6724
                                                                        51.0004
        36.5004
  -3866679.98047  -2999345.99644
                  22808808.0474                                   22808801.6914
                                                                        45.7504
        28.2504
 -17721181.91047 -13762581.10545
                  22359144.1254                                   22359140.2034
                                                                        47.0004
        35.5004
  -9015000.70746  -6982762.86344
                  23260070.2894                                   23260066.2234
                                                                        41.7504
        28.0004
 09 10 18  0  3  0.0000000  0  8G02G04G10G05G13G23G29G25
  -9062848.79348  -7040211.80146
                  20652675.5864                                   20652669.5394
                                                                        53.0004
        41.7504
   -440294.05548   -334428.28145
                  22468275.2664                                   22468271.9064
                                                                        49.0004
        35.0004
 -18925650.60548 -14725933.70346
                  21945562.7814                                   21945558.7154
                                                                        48.5004
        37.2504
 -15183059.00848 -11817958.85246
                  22755779.7424                                   22755776.0944
                                                                        48.2504
        36.7504
 -10873045.70748  -8442611.46146
                  21360589.1724                                   21360584.3524
                                                                        51.5004
        36.5004
  -2297458.80947  -1776576.26244
                  23107420.7974                                   23107414.0394
                                                                        45.0004
        27.5004
 -16288884.50847 -12646505.19945
                  22631701.1334                                   22631697.2854
                                                                        46.0004
        35.0004
  -7597621.07447  -5878311.18444
                  23529788.7814                                   23529785.0394
                                                                        43.0004
        27.0004
 09 10 18  0  3 30.0000000  0  8G02G04G10G05G13G23G29G25
  -9128021.91848  -7090996.05147
                  20640273.5234                                   20640267.5554
                                                                        52.7504
        42.7504
   -434533.48048   -329939.54745
                  22469371.4924                                   22469368.0164
                                                                        49.0004
        34.5004
 -19099903.94148 -14861715.50446
                  21912403.4454                                   21912399.4304
                                                                        49.7504
        36.7504
 -15367413.66448 -11961611.80946
                  22720698.3524                                   22720694.4964
                                                                        48.0004
        36.2504
 -10950846.21148  -8503235.23046
                  21345784.5704                                   21345779.4654
                                                                        50.7504
        36.5004
  -2303212.52047  -1781059.66444
                  23106325.6564                                   23106319.2234
                                                                        44.2504
        27.0004
 -16431470.73847 -12757611.34845
                  22604567.9384                                   22604564.3094
                                                                        46.5004
        35.0004
  -7755221.43446  -6001116.62544
                  23499797.7194                                   23499795.1884
                                                                        41.0004
        26.2504
 09 10 18  0  4  0.0000000  0  8G02G04G10G05G13G23G29G25
  -9192593.89548  -7141311.85947
                  20627986.2114                                   20627980.1414
                                                                        52.2504
        42.5004
   -428431.15648   -325184.52045
                  22470533.1414                                   22470529.2114
                                                                        48.0004
        34.7504
 -19273742.48048 -14997174.09046
                  21879322.8204                                   21879319.0824
                                                                        49.0004
        37.2504
 -15551457.68448 -12105022.72346
                  22685675.8134                                   22685671.4694
                                                                        48.5004
        36.7504
 -11027960.23448  -8563324.07446
                  21331109.6414                                   21331105.2974
                                                                        51.5004
        36.2504
  -2308524.95747  -1785199.22744
                  23105314.6094                                   23105308.4304
                                                                        45.5004
        27.0004
 -16573515.91847 -12868295.89545
                  22577537.5784                                   22577533.7194
                                                                        45.0004
        35.2504
  -7912375.19546  -6123574.01244
                  23469892.2894                                   23469889.0514
                                                                        40.7504
        25.2504
 09 10 18  0  4 30.0000000  0  8G02G04G10G05G13G23G29G25
  -9256564.27048  -7191158.89547
                  20615812.8594                                   20615806.7274
                                                                        52.2504
        42.5004
   -421988.46948   -320164.25045
                  22471758.8984                                   22471755.2774
                                                                        48.7504
        34.7504
 -19447163.45748 -15132307.31646
                  21846322.0554                                   21846318.3634
                                                                        49.5004
        37.0004
 -15735187.94148 -12248189.12946
                  22650713.3754                                   22650709.4304
                                                                        48.5004
        36.7504
 -11104388.02048  -8622878.19546
                  21316566.0634                                   21316561.8794
                                                                        50.7504
        36.5004
  -2313397.88347  -1788996.28544
                  23104388.1804                                   23104380.9384
                                                                        45.2504
        27.7504
 -16715017.00847 -12978556.47345
                  22550611.0004                                   22550607.0204
                                                                        47.0004
        35.2504
  -8069079.77046  -6245681.47744
                  23440072.2194                                   23440068.5274
                                                                        41.0004
        25.7504
 09 10 18  0  5  0.0000000  0  8G02G04G10G05G13G23G29G25
  -9319932.61748  -7240536.81647
                  20603754.2274                                   20603748.1484
                                                                        51.7504
        42.0004
   -415207.10947   -314880.10245
                  22473049.1644                                   22473046.3554
                                                                        47.7504
        34.2504
 -19620164.20748 -15267113.07446
                  21813400.7584                                   21813396.9844
                                                                        49.7504
        36.7504
 -15918601.73048 -12391108.93046
                  22615811.2114                                   22615807.0084
                                                                        49.0004
        36.5004
 -11180129.20348  -8681897.29346
                  21302153.4224                                   21302148.7894
                                                                        51.0004
        37.0004
  -2317833.06647  -1792452.28144
                  23103544.1564                                   23103537.1764
                                                                        44.7504
        27.5004
 -16855971.53547 -13088391.15645
                  22523787.8674                                   22523784.4264
                                                                        47.2504
        35.7504
  -8225332.02746  -6367436.44944
                  23410339.0704                                   23410334.9104
                                                                        41.7504
        25.7504
 09 10 18  0  5 30.0000000  0  8G02G04G10G05G13G23G29G25
  -9382699.71548  -7289446.24647
                  20591809.9454                                   20591803.3364
                                                                        51.7504
        42.2504
   -408088.65248   -309333.25445
                  22474404.2894                                   22474400.6564
                                                                        48.0004
        34.5004
 -19792742.73047 -15401589.83246
                  21780560.2424                                   21780556.4924
                                                                        47.7504
        37.5004
 -16101697.15648 -12533780.66046
                  22580968.9064                                   22580964.6254
                                                                        48.7504
        36.7504
 -11255184.09848  -8740381.62146
                  21287870.8674                                   21287866.1414
                                                                        50.7504
        36.2504
  -2321832.68047  -1795568.87144
                  23102782.2814                                   23102775.9734
                                                                        45.7504
        29.0004
 -16996377.53147 -13197798.42245
                  22497069.4614                                   22497065.9614
                                                                        45.5004
        35.5004
  -8381129.02746  -6488836.66844
                  23380692.0704                                   23380687.8014
                                                                        41.7504
        26.0004
 09 10 18  0  6  0.0000000  0  8G02G04G10G05G13G23G29G25
  -9444867.93048  -7337889.00047
                  20579979.6954                                   20579973.7154
                                                                        51.5004
        42.2504
   -400637.40248   -303527.09445
                  22475821.9844                                   22475818.5514
                                                                        48.0004
        35.0004
 -19964899.17648 -15535737.71146
                  21747799.7424                                   21747796.4304
                                                                        48.7504
        37.5004
 -16284474.55548 -12676204.59446
                  22546187.6414                                   22546183.3204
                                                                        48.2504
        37.2504
 -11329555.60948  -8798333.44546
                  21273718.1174                                   21273713.6254
                                                                        50.7504
        36.2504
  -2325401.26647  -1798349.58244
                  23102103.5864                                   23102097.3164
                                                                        43.0004
        28.2504
 -17136235.23847 -13306778.44945
                  22470455.6334                                   22470451.7894
                                                                        45.5004
        35.5004
  -8536470.86747  -6609882.23444
                  23351131.3284                                   23351127.1134
                                                                        42.7504
        28.0004
 09 10 18  0  6 30.0000000  0  8G02G04G10G05G13G23G29G25
  -9506438.12948  -7385865.77747
                  20568263.3834                                   20568257.2384
                                                                        52.0004
        43.0004
   -392855.59048   -297463.34845
                  22477302.4924                                   22477299.1484
                                                                        48.5004
        34.5004
 -20136632.09048 -15669555.55146
                  21715120.5944                                   21715116.4964
                                                                        49.0004
        37.5004
 -16466932.05147 -12818379.22346
                  22511466.8054                                   22511462.4454
                                                                        47.7504
        36.7504
 -11403244.31648  -8855753.22745
                  21259695.5864                                   21259690.8594
                                                                        50.7504
        35.5004
  -2328542.18747  -1800797.05144
                  23101505.6484                                   23101499.4344
                                                                        44.0004
        27.7504
 -17275543.44947 -13415330.29745
                  22443946.1414                                   22443941.8324
                                                                        46.2504
        35.2504
  -8691355.25447  -6730571.32444
                  23321657.7274                                   23321654.0084
                                                                        42.5004
        27.5004
 09 10 18  0  7  0.0000000  0  8G02G04G10G05G13G23G29G25
  -9567412.48848  -7433378.25847
                  20556660.0234                                   20556654.0594
                                                                        51.5004
        42.5004
   -384747.28148   -291145.19945
                  22478846.0554                                   22478842.5084
                                                                        48.0004
        33.7504
 -20307941.10548 -15803043.08246
                  21682521.2974                                   21682517.3674
                                                                        49.5004
        37.7504
 -16649069.55948 -12960304.51646
                  22476807.3674                                   22476803.1954
                                                                        48.5004
        37.7504
 -11476253.19548  -8912643.27746
                  21245802.3754                                   21245797.9104
                                                                        49.7504
        36.7504
  -2331259.77347  -1802914.65244
                  23100988.7504                                   23100982.1254
                                                                        43.5004
        27.2504
 -17414302.00447 -13523453.84045
                  22417541.3204                                   22417537.4454
                                                                        47.5004
        35.5004
  -8845782.00046  -6850903.81244
                  23292271.3914                                   23292267.7704
                                                                        41.5004
        28.2504
 09 10 18  0  7 30.0000000  0  8G02G04G10G05G13G23G29G25
  -9627788.05148  -7480424.14547
                  20545171.4304                                   20545165.1524
                                                                        51.5004
        42.7504
   -376311.50447   -284571.87145
                  22480450.7584                                   22480447.6294
                                                                        47.7504
        34.5004
 -20478820.96548 -15936196.21546
                  21650004.0864                                   21650000.2854
                                                                        49.5004
        37.7504
 -16830881.79747 -13101976.36346
                  22442209.2734                                   22442205.1884
                                                                        47.2504
        37.0004
 -11548579.53548  -8969001.45346
                  21232039.5784                                   21232034.6994
                                                                        50.5004
        37.0004
  -2333553.11347  -1804701.68744
                  23100552.1334                                   23100546.4384
                                                                        43.2504
        27.5004
 -17552505.49648 -13631144.87145
                  22391242.0554                                   22391237.8794
                                                                        48.5004
        35.7504
  -8999745.49647  -6970875.33244
                  23262972.5234                                   23262969.1724
                                                                        42.0004
        27.5004
 09 10 18  0  8  0.0000000  0  8G02G04G10G05G13G23G29G25
  -9687567.57448  -7527005.59847
                  20533795.5554                                   20533789.3324
                                                                        52.0004
        42.7504
   -367551.87947   -277746.21145
                  22482118.1334                                   22482114.7344
                                                                        47.0004
        34.5004
 -20649271.34848 -16069014.68446
                  21617568.5864                                   21617565.0554
                                                                        49.2504
        38.0004
 -17012368.82447 -13243394.78546
                  22407673.8204                                   22407669.8914
                                                                        47.5004
        36.7504
 -11620225.71948  -9024829.65646
                  21218405.5554                                   21218401.0904
                                                                        50.0004
        36.7504
  -2335426.54747  -1806161.52344
                  23100195.6254                                   23100189.6524
                                                                        44.0004
        28.5004
 -17690154.05547 -13738403.47746
                  22365048.5704                                   22365044.4184
                                                                        46.7504
        36.0004
  -9153245.12946  -7090485.37544
                  23233762.0704                                   23233758.6724
                                                                        41.2504
        27.5004
 09 10 18  0  8 30.0000000  0  8G02G04G10G05G13G23G29G25
  -9746751.84448  -7573123.20347
                  20522533.1254                                   20522526.9104
                                                                        50.7504
        43.0004
   -358471.05948   -270670.27045
                  22483846.1884                                   22483843.0084
                                                                        48.7504
        34.0004
 -20819290.27748 -16201496.94546
                  21585214.8524                                   21585211.1134
                                                                        48.7504
        38.0004
 -17193528.57047 -13384558.19146
                  22373200.2664                                   22373196.0314
                                                                        47.5004
        38.5004
 -11691192.93448  -9080128.79746
                  21204900.8984                                   21204896.3484
                                                                        50.5004
        36.0004
  -2336882.82847  -1807296.30144
                  23099918.9534                                   23099912.1994
                                                                        44.0004
        28.0004
 -17827246.18448 -13845228.50446
                  22338960.6724                                   22338956.9264
                                                                        48.0004
        36.5004
  -9306279.07046  -7209732.61744
                  23204641.1954                                   23204637.0474
                                                                        41.5004
        26.2504
 09 10 18  0  9  0.0000000  0  8G02G04G10G05G13G23G29G25
  -9805340.69548  -7618776.86347
                  20511384.1884                                   20511378.0234
                                                                        50.7504
        42.5004
   -349070.09448   -263344.88745
                  22485634.9774                                   22485631.4494
                                                                        48.2504
        34.5004
 -20988875.59848 -16333641.35546
                  21552943.8134                                   21552939.9024
                                                                        49.5004
        37.7504
 -17374358.68048 -13525464.74246
                  22338789.3834                                   22338785.1484
                                                                        48.2504
        37.2504
 -11761480.84448  -9134898.59846
                  21191525.7194                                   21191521.1604
                                                                        50.5004
        36.2504
  -2337923.52747  -1808107.20344
                  23099720.7034                                   23099713.6604
                                                                        43.0004
        27.2504
 -17963779.39548 -13951618.02046
                  22312979.3984                                   22312975.5234
                                                                        48.2504
        36.0004
  -9458843.88747  -7328614.27344
                  23175608.8754                                   23175605.0204
                                                                        42.5004
        25.2504
 09 10 18  0  9 30.0000000  0  8G02G04G10G05G13G23G29G25
  -9863334.83648  -7663967.09447
                  20500348.0474                                   20500342.1884
                                                                        51.0004
        42.2504
   -339350.95347   -255771.55145
                  22487484.3524                                   22487480.9844
                                                                        47.5004
        33.0004
 -21158024.81248 -16465445.93046
                  21520755.9534                                   21520751.8714
                                                                        49.5004
        37.7504
 -17554856.86347 -13666112.64846
                  22304441.6724                                   22304437.6254
                                                                        47.0004
        37.5004
 -11831090.51648  -9189139.90646
                  21178279.2814                                   21178274.5514
                                                                        50.7504
        36.2504
  -2338551.51647  -1808596.53544
                  23099601.3054                                   23099594.2664
                                                                        43.0004
        27.0004
 -18099752.02748 -14057570.70346
                  22287105.1094                                   22287101.0084
                                                                        49.0004
        36.7504
  -9610937.52047  -7447128.75844
                  23146666.7424                                   23146663.2234
                                                                        42.5004
        27.2504
 09 10 18  0 10  0.0000000  0  8G02G04G10G05G13G23G29G25
  -9920734.32848  -7708693.97747
                  20489425.5864                                   20489418.6484
                                                                        52.2504
        42.2504
   -329315.75448   -247951.93745
                  22489394.2194                                   22489390.5554
                                                                        48.2504
        33.2504
 -21326736.51648 -16596909.58646
                  21488650.8444                                   21488646.9614
                                                                        49.7504
        37.5004
 -17735021.86747 -13806500.93746
                  22270157.3134                                   22270153.4494
                                                                        47.2504
        37.5004
 -11900022.51248  -9242853.14146
                  21165161.8984                                   21165157.2664
                                                                        50.5004
        36.2504
  -2338769.39147  -1808766.32044
                  23099559.2974                                   23099553.2074
                                                                        43.0004
        27.7504
 -18235162.34848 -14163085.23845
                  22261337.0314                                   22261332.7704
                                                                        49.0004
        35.7504
  -9762557.47347  -7565274.11744
                  23117814.2894                                   23117810.5434
                                                                        43.0004
        27.5004
 09 10 18  0 10 30.0000000  0  8G02G04G10G05G13G23G29G25
  -9977539.79348  -7752958.00047
                  20478615.7274                                   20478609.4614
                                                                        51.2504
        42.0004
   -318966.34848   -239887.46945
                  22491363.4224                                   22491360.0904
                                                                        48.0004
        33.7504
 -21495007.95748 -16728030.18046
                  21456630.0084                                   21456626.3244
                                                                        50.0004
        38.0004
 -17914850.77047 -13946627.32446
                  22235936.7504                                   22235933.2034
                                                                        47.7504
        37.5004
 -11968277.64148  -9296038.96546
                  21152173.4844                                   21152168.9924
                                                                        51.0004
        36.0004
  -2338579.41847  -1808618.29344
                  23099596.2664                                   23099589.4454
                                                                        43.2504
        27.5004
 -18370008.26248 -14268159.98046
                  22235676.5004                                   22235672.5474
                                                                        48.2504
        36.5004
  -9913701.40247  -7683048.62544
                  23089052.6564                                   23089048.6254
                                                                        44.0004
        28.5004
 09 10 18  0 11  0.0000000  0  9G02G04G10G05G13G23G29G16G25
 -10033758.50848  -7796764.84847
                  20467917.9224                                   20467911.4774
                                                                        51.7504
        42.2504
   -308311.39547   -231584.94945
                  22493391.0784                                   22493387.5904
                                                                        46.5004
        33.7504
 -21662844.03548 -16858811.52346
                  21424692.0864                                   21424688.3204
                                                                        49.0004
        38.5004
 -18094348.28148 -14086495.51246
                  22201779.6254                                   22201775.1884
                                                                        48.2504
        36.7504
 -12035862.98848  -9348702.86346
                  21139312.5634                                   21139307.6724
                                                                        51.2504
        36.5004
  -2337990.44547  -1808159.38744
                  23099707.2344                                   23099701.4414
                                                                        42.2504
        26.0004
 -18504294.87948 -14372798.89846
                  22210122.3834                                   22210118.3444
                                                                        48.0004
        36.0004
   1374435.01256   1107563.03953
                  24216494.1024                                   24216489.8794
                                                                        40.2504
        20.5004
 -10064373.61747  -7800455.53944
                  23060381.1804                                   23060376.7894
                                                                        43.5004
        27.5004
 09 10 18  0 11 30.0000000  0  9G02G04G10G05G13G23G29G16G25
 -10089391.25848  -7840115.10547
                  20457331.2034                                   20457325.0704
                                                                        52.5004
        42.0004
   -297353.07048   -223046.01645
                  22495476.8054                                   22495472.9804
                                                                        48.0004
        33.2504
 -21830242.78548 -16989252.10546
                  21392836.6414                                   21392832.8714
                                                                        49.0004
        38.7504
 -18273512.32048 -14226103.82446
                  22167685.8984                                   22167681.2734
                                                                        49.0004
        38.0004
 -12102779.54748  -9400845.64146
                  21126578.5084                                   21126573.6724
                                                                        50.5004
        36.0004
  -2337005.17247  -1807391.66444
                  23099895.5554                                   23099888.9654
                                                                        43.5004
        26.5004
 -18638019.88747 -14477000.20345
                  22184675.7274                                   22184671.5594
                                                                        47.7504
        35.7504
   1218726.98846    986232.15243
                  24186863.5474                                   24186859.0904
                                                                        41.2504
        22.0004
 -10214571.74647  -7917493.01244
                  23031799.5314                                   23031795.2504
                                                                        44.5004
        27.7504
 09 10 18  0 12  0.0000000  0  9G02G04G10G05G13G23G29G16G25
  -8569019.85248  -6655410.17647
                  20746648.5234                                   20746642.0434
                                                                        52.0004
        42.5004
   1289322.93847   1013324.85545
                  22797411.1094                                   22797407.3794
                                                                        47.7504
        33.5004
 -20421779.78548 -15891748.48046
                  21660858.4304                                   21660854.7774
                                                                        49.7504
        38.7504
 -16876918.39548 -13137848.83646
                  22433448.9694                                   22433444.3554
                                                                        48.7504
        38.0004
 -10593609.27748  -8224868.80546
                  21413764.1804                                   21413759.6564
                                                                        50.7504
        36.0004
   -760209.52347   -578719.74644
                  23399949.6804                                   23399943.4614
                                                                        43.0004
        27.7504
 -17195760.93448 -13353162.05146
                  22459128.0474                                   22459124.2704
                                                                        48.7504
        37.0004
   2638916.71546   2092873.55143
                  24457117.0784                                   24457112.2344
                                                                        41.5004
        22.0004
  -8788872.09447  -6806558.19144
                  23303100.6414                                   23303096.1374
                                                                        43.2504
        26.0004
 09 10 18  0 12 30.0000000  0  9G02G04G10G05G13G23G29G16G25
  -8623488.06248  -6697852.96147
                  20736283.1884                                   20736277.1024
                                                                        52.5004
        42.0004
   1300876.44147   1022327.53545
                  22799609.2894                                   22799605.9694
                                                                        47.2504
        33.0004
 -20588303.77748 -16021507.41446
                  21629170.1254                                   21629166.4224
                                                                        49.5004
        38.5004
 -17055415.65648 -13276937.60546
                  22399482.0084                                   22399477.6884
                                                                        49.5004
        38.0004
 -10659196.80948  -8275975.96146
                  21401283.5084                                   21401278.6254
                                                                        50.7504
        36.5004
   -758445.30147   -577345.05144
                  23400285.0474                                   23400279.1524
                                                                        44.5004
        27.2504
 -17328364.51648 -13456489.52046
                  22433894.4694                                   22433890.9924
                                                                        49.2504
        36.5004
   2484157.10246   1972281.65643
                  24427667.3754                                   24427662.9264
                                                                        41.5004
        22.2504
  -8938121.59447  -6922856.49244
                  23274699.0704                                   23274695.5664
                                                                        43.2504
        27.5004
 09 10 18  0 13  0.0000000  0  9G02G04G10G05G13G23G29G16G25
  -8677371.44948  -6739839.91447
                  20726029.4454                                   20726023.6024
                                                                        53.0004
        42.0004
   1312727.60247   1031562.14545
                  22801864.3834                                   22801861.4184
                                                                        46.7504
        33.2504
 -20754384.05148 -16150920.59846
                  21597565.9774                                   21597561.8834
                                                                        49.7504
        38.5004
 -17233573.36348 -13415761.74246
                  22365579.6804                                   22365576.0634
                                                                        49.2504
        38.2504
 -10724117.80548  -8326563.76246
                  21388929.4924                                   21388924.6724
                                                                        50.5004
        36.2504
   -756291.65647   -575666.89544
                  23400695.6024                                   23400688.6844
                                                                        45.5004
        27.0004
 -17460401.05548 -13559375.12546
                  22408768.9224                                   22408764.6254
                                                                        48.2504
        36.2504
   2329878.98046   1852064.99243
                  24398308.9694                                   24398304.5944
                                                                        40.2504
        22.0004
  -9086889.89847  -7038779.81244
                  23246389.6334                                   23246385.9384
                                                                        43.7504
        27.0004
 09 10 18  0 13 30.0000000  0  9G02G04G10G05G13G23G29G16G25
  -8730666.80548  -6781368.87147
                  20715887.8754                                   20715881.8404
                                                                        52.5004
        42.5004
   1324879.21947   1041030.94945
                  22804176.9224                                   22804173.8014
                                                                        47.2504
        33.0004
 -20920013.97348 -16279982.92246
                  21566047.5704                                   21566043.9304
                                                                        49.5004
        38.5004
 -17411384.89548 -13554316.13346
                  22331743.1414                                   22331739.2894
                                                                        49.2504
        38.5004
 -10788368.55148  -8376629.27346
                  21376702.7114                                   21376698.1094
                                                                        50.5004
        36.0004
   -753747.25047   -573684.21544
                  23401180.1174                                   23401172.9614
                                                                        46.0004
        27.5004
 -17591864.48847 -13661814.16445
                  22383751.8134                                   22383748.3244
                                                                        47.0004
        35.7504
   2176089.18046   1732228.82843
                  24369043.5784                                   24369039.5044
                                                                        39.7504
        20.0004
  -9235170.09047  -7154322.80544
                  23218172.9144                                   23218168.9844
                                                                        44.5004
        27.7504
 09 10 18  0 14  0.0000000  0  9G02G04G10G05G13G23G29G16G25
  -8783370.25448  -6822436.52346
                  20705858.5554                                   20705852.4184
                                                                        52.7504
        41.7504
   1337333.16047   1050735.28145
                  22806547.2584                                   22806543.5904
                                                                        47.0004
        33.2504
 -21085187.84448 -16408689.93446
                  21534616.4694                                   21534612.4534
                                                                        50.5004
        38.7504
 -17588844.30548 -13692596.18446
                  22297973.6564                                   22297969.6914
                                                                        50.0004
        38.5004
 -10851946.27048  -8426170.35246
                  21364604.1414                                   21364599.1844
                                                                        51.0004
        36.0004
   -750809.99247   -571395.43444
                  23401738.1954                                   23401731.4494
                                                                        45.0004
        24.7504
 -17722749.60248 -13763802.56245
                  22358845.3524                                   22358842.0824
                                                                        48.2504
        35.2504
   2022794.07846   1612778.14543
                  24339871.8834                                   24339867.8364
                                                                        41.0004
        19.5004
  -9382956.32047  -7269480.88744
                  23190050.6954                                   23190045.8524
                                                                        44.7504
        27.7504
 09 10 18  0 14 30.0000000  0  9G02G04G10G05G13G23G29G16G25
  -8835483.88748  -6863044.55946
                  20695941.8674                                   20695936.0164
                                                                        52.7504
        41.7504
   1350085.91047   1060672.48445
                  22808973.8594                                   22808970.0474
                                                                        47.7504
        32.2504
 -21249904.55948 -16537040.64846
                  21503271.3984                                   21503267.9104
                                                                        50.5004
        39.5004
 -17765950.90248 -13830601.43446
                  22264271.5084                                   22264267.3364
                                                                        50.2504
        38.0004
 -10914852.89148  -8475188.50446
                  21352633.3834                                   21352628.6214
                                                                        50.7504
        36.2504
   -747483.97347   -568803.72743
                  23402371.2424                                   23402364.5204
                                                                        44.5004
        22.2504
 -17853055.46948 -13865339.58646
                  22334049.0554                                   22334045.1804
                                                                        49.0004
        36.0004
   1869994.92646   1493713.88743
                  24310795.9924                                   24310791.3754
                                                                        39.7504
        19.2504
  -9530247.46947  -7384253.19944
                  23162021.8054                                   23162017.8484
                                                                        44.5004
        28.5004
 09 10 18  0 15  0.0000000  0  9G02G04G10G05G13G23G29G16G25
  -8887007.30148  -6903192.66046
                  20686137.5554                                   20686130.7194
                                                                        52.7504
        41.5004
   1363136.93847   1070842.09445
                  22811457.7424                                   22811453.8984
                                                                        46.0004
        31.5004
 -21414161.44948 -16665033.01246
                  21472014.7814                                   21472010.8444
                                                                        50.5004
        38.5004
 -17942701.50048 -13968329.28546
                  22230637.3674                                   22230633.1914
                                                                        50.2504
        38.5004
 -10977088.14148  -8523683.50845
                  21340790.5084                                   21340785.7974
                                                                        50.0004
        35.5004
   -743770.62947   -565910.19944
                  23403077.8364                                   23403071.5314
                                                                        44.2504
        24.7504
 -17982779.66048 -13966423.37146
                  22309363.3524                                   22309359.2234
                                                                        49.0004
        36.0004
   1717695.20746   1375038.83243
                  24281813.8674                                   24281809.7504
                                                                        41.2504
        19.2504
  -9677040.19547  -7498637.11344
                  23134088.0084                                   23134083.6334
                                                                        45.2504
        27.5004
 09 10 18  0 15 30.0000000  0  9G02G04G10G05G13G23G29G16G25
  -8937940.94548  -6942881.18047
                  20676444.8674                                   20676438.6644
                                                                        53.0004
        42.0004
   1376484.35247   1081242.60945
                  22813997.8914                                   22813994.2114
                                                                        45.7504
        32.0004
 -21577956.31248 -16792665.39546
                  21440845.6564                                   21440841.9734
                                                                        50.2504
        38.5004
 -18119093.71148 -14105777.77746
                  22197070.9384                                   22197066.7304
                                                                        50.2504
        38.2504
 -11038652.98048  -8571656.11746
                  21329075.4774                                   21329070.7664
                                                                        50.5004
        36.0004
   -739672.12547   -562716.59444
                  23403857.8524                                   23403851.2344
                                                                        45.2504
        26.0004
 -18111920.28948 -14067052.43745
                  22284788.5314                                   22284784.5204
                                                                        48.5004
        35.7504
   1565897.55547   1256754.93843
                  24252928.4924                                   24252922.5944
                                                                        42.5004
        19.2504
  -9823331.97747  -7612630.68444
                  23106249.7114                                   23106244.8094
                                                                        46.0004
        28.5004
 09 10 18  0 16  0.0000000  0 10G02G04G10G05G13G23G29G16G07G25
  -8988288.19948  -6982112.71947
                  20666864.1884                                   20666858.1724
                                                                        52.2504
        42.2504
   1390123.21147   1091870.27745
                  22816592.9144                                   22816589.7544
                                                                        45.7504
        32.2504
 -21741289.15648 -16919937.64846
                  21409764.4064                                   21409760.9574
                                                                        50.7504
        39.0004
 -18295128.03948 -14242947.31246
                  22163572.6334                                   22163568.5434
                                                                        50.0004
        38.2504
 -11099551.09448  -8619109.19546
                  21317486.8054                                   21317481.7704
                                                                        51.0004
        36.2504
   -735193.66047   -559226.91044
                  23404710.1724                                   23404703.8164
                                                                        45.2504
        27.2504
 -18240477.97348 -14167227.25446
                  22260325.2664                                   22260321.1684
                                                                        49.0004
        36.7504
   1414601.94947   1138862.21943
                  24224137.5394                                   24224132.2154
                                                                        43.5004
        20.2504
   2910482.75456   2311591.06653
                  24440719.9304                                   24440716.1254
                                                                        39.5004
        23.0004
  -9969123.52747  -7726234.48444
                  23078506.4924                                   23078502.0434
                                                                        45.5004
        27.0004
 09 10 18  0 16 30.0000000  0 10G02G04G10G05G13G23G29G16G07G25
  -9038049.34048  -7020887.64847
                  20657394.7424                                   20657388.6294
                                                                        52.2504
        42.5004
   1404052.55947   1102724.28945
                  22819243.1724                                   22819240.2664
                                                                        45.5004
        32.5004
 -21904158.00048 -17046848.34046
                  21378770.8524                                   21378767.2704
                                                                        50.5004
        39.5004
 -18470802.17248 -14379836.16846
                  22130142.8054                                   22130138.8914
                                                                        49.7504
        38.5004
 -11159782.69548  -8666042.91846
                  21306024.8834                                   21306020.0944
                                                                        50.0004
        36.0004
   -730336.85947   -555442.41044
                  23405634.5234                                   23405628.0904
                                                                        46.0004
        27.5004
 -18368450.81248 -14266946.34046
                  22235972.9304                                   22235968.8524
                                                                        49.2504
        36.2504
   1263811.39847   1021363.05943
                  24195443.5864                                   24195437.8094
                                                                        42.0004
        18.5004
   2724065.99246   2166331.28143
                  24405246.4694                                   24405242.8634
                                                                        40.2504
        22.7504
 -10114411.72747  -7839446.04344
                  23050858.5634                                   23050854.5434
                                                                        44.2504
        27.0004
 09 10 18  0 17  0.0000000  0 10G02G04G10G05G13G23G29G16G07G25
  -9087230.86748  -7059210.89147
                  20648036.0084                                   20648029.4534
                                                                        52.5004
        42.0004
   1418264.23447   1113798.27345
                  22821947.9454                                   22821944.5664
                                                                        46.0004
        33.0004
 -22066566.78148 -17173400.60546
                  21347865.8284                                   21347862.1564
                                                                        51.0004
        39.2504
 -18646119.45748 -14516446.91846
                  22096781.1804                                   22096776.9964
                                                                        49.7504
        39.2504
 -11219354.78148  -8712462.73046
                  21294688.8204                                   21294684.2704
                                                                        50.5004
        36.0004
   -725110.56247   -551370.00044
                  23406629.3284                                   23406622.8134
                                                                        46.0004
        27.7504
 -18495842.89148 -14366212.89546
                  22211730.8914                                   22211726.8404
                                                                        48.7504
        36.7504
   1113522.27747    904254.67243
                  24166843.5634                                   24166839.3444
                                                                        42.0004
        20.7504
   2537916.03946   2021279.39144
                  24369823.3524                                   24369819.2424
                                                                        40.7504
        24.0004
 -10259200.46547  -7952268.41844
                  23023305.7894                                   23023302.1954
                                                                        44.7504
        28.0004
 09 10 18  0 17 30.0000000  0 10G02G04G10G05G13G23G29G16G07G25
  -9135833.49648  -7097083.04746
                  20638787.1334                                   20638780.9454
                                                                        51.5004
        41.7504
   1432756.54347   1125090.92245
                  22824706.0004                                   22824702.5234
                                                                        45.0004
        33.0004
 -22228513.49248 -17299592.79346
                  21317048.4774                                   21317044.4694
                                                                        50.5004
        38.7504
 -18821078.67248 -14652778.73446
                  22063487.3984                                   22063483.1454
                                                                        50.0004
        38.5004
 -11278268.53548  -8758369.55545
                  21283477.9064                                   21283472.9884
                                                                        50.5004
        35.5004
   -719517.09447   -547011.45344
                  23407693.5084                                   23407687.0554
                                                                        44.5004
        25.2504
 -18622652.41048 -14465025.50846
                  22187600.1094                                   22187596.1524
                                                                        49.5004
        36.5004
    963736.87146    787538.78943
                  24138340.9304                                   24138336.1884
                                                                        40.2504
        21.5004
   2352035.62947   1876437.51644
                  24334451.9304                                   24334447.6294
                                                                        43.0004
        26.5004
 -10403487.62547  -8064699.96144
                  22995849.5944                                   22995845.7234
                                                                        44.5004
        27.7504
 09 10 18  0 18  0.0000000  0 10G02G04G10G05G13G23G29G16G07G25
  -9183853.76248  -7134501.42647
                  20629649.3204                                   20629643.2704
                                                                        51.5004
        42.5004
   1447532.06347   1136604.26645
                  22827517.8674                                   22827514.4964
                                                                        44.7504
        32.7504
 -22389991.76648 -17425420.00046
                  21286319.8594                                   21286316.3014
                                                                        51.2504
        38.5004
 -18995673.12948 -14788826.33246
                  22030263.2114                                   22030258.7234
                                                                        49.5004
        39.2504
 -11336520.28948  -8803760.52745
                  21272393.3054                                   21272388.3054
                                                                        50.0004
        35.7504
   -713554.23047   -542365.06643
                  23408828.2344                                   23408821.1764
                                                                        44.0004
        22.5004
 -18748874.16848 -14563380.11746
                  22163580.7194                                   22163576.5594
                                                                        49.0004
        36.7504
    814462.10546    671220.82843
                  24109934.3284                                   24109929.9224
                                                                        40.5004
        21.2504
   2166432.64147   1731811.72744
                  24299132.8914                                   24299128.3444
                                                                        44.5004
        26.0004
 -10547266.32847  -8176735.28144
                  22968489.3204                                   22968484.8554
                                                                        45.0004
        27.5004
 09 10 18  0 18 30.0000000  0 10G02G04G10G05G13G23G29G16G07G25
  -9231291.73448  -7171466.07847
                  20620622.0704                                   20620615.8054
                                                                        52.7504
        42.0004
   1462588.98047   1148336.93045
                  22830382.7734                                   22830379.3284
                                                                        46.2504
        31.7504
 -22550999.05948 -17550880.20746
                  21255681.1884                                   21255677.7664
                                                                        51.2504
        39.2504
 -19169899.94148 -14924587.47746
                  21997108.7114                                   21997104.7974
                                                                        49.2504
        38.7504
 -11394110.78948  -8848636.24646
                  21261433.7894                                   21261429.0314
                                                                        49.7504
        36.2504
   -707224.27347   -537432.60243
                  23410032.7504                                   23410025.1174
                                                                        43.0004
        22.0004
 -18874505.58648 -14661274.72346
                  22139673.8364                                   22139669.5234
                                                                        50.0004
        37.2504
    665700.78946    555302.91843
                  24081626.1334                                   24081621.4264
                                                                        40.5004
        21.5004
   1981110.15647   1587404.56344
                  24263866.9224                                   24263862.9344
                                                                        43.0004
        25.7504
 -10690534.11747  -8288372.51244
                  22941225.5864                                   22941221.6884
                                                                        44.2504
        29.0004
 09 10 18  0 19  0.0000000  0 10G02G04G10G05G13G23G29G16G07G25
  -9278145.64548  -7207975.60246
                  20611706.1024                                   20611699.8984
                                                                        52.0004
        41.7504
   1477928.12547   1160289.50045
                  22833301.6954                                   22833298.0004
                                                                        45.5004
        31.5004
 -22711530.84448 -17675969.90246
                  21225133.3834                                   21225129.2894
                                                                        52.0004
        39.5004
 -19343754.48848 -15060058.50046
                  21964025.4534                                   21964021.2114
                                                                        49.0004
        39.0004
 -11451038.43048  -8892995.45345
                  21250600.9454                                   21250596.2154
                                                                        49.2504
        35.5004
   -700526.71146   -532213.73843
                  23411306.0474                                   23411300.3244
                                                                        41.5004
        22.5004
 -18999542.17248 -14758705.82846
                  22115880.3984                                   22115876.0944
                                                                        49.7504
        37.2504
    517458.50946    439789.47143
                  24053416.9064                                   24053411.9574
                                                                        41.2504
        22.0004
   1796074.43046   1443220.85944
                  24228655.2274                                   24228651.8794
                                                                        41.7504
        25.0004
 -10833285.99647  -8399607.71544
                  22914061.0634                                   22914057.2504
                                                                        43.5004
        28.5004
 09 10 18  0 19 30.0000000  0 10G02G04G10G05G13G23G29G16G07G25
  -9324414.67248  -7244029.36746
                  20602901.4384                                   20602895.0354
                                                                        52.5004
        41.7504
   1493549.12147   1172461.69945
                  22836273.8594                                   22836270.8244
                                                                        46.2504
        31.2504
 -22871583.27748 -17800686.08246
                  21194676.3594                                   21194672.2034
                                                                        51.0004
        40.0004
 -19517233.26648 -15195236.76646
                  21931013.4694                                   21931008.9694
                                                                        49.0004
        38.5004
 -11507302.56248  -8936837.63345
                  21239894.5634                                   21239889.4414
                                                                        49.0004
        35.5004
   -693462.57847   -526709.24644
                  23412651.6024                                   23412644.9024
                                                                        43.0004
        26.7504
 -19123980.91448 -14855671.07846
                  22092200.2504                                   22092196.4884
                                                                        49.7504
        37.5004
    369738.95746    324683.34643
                  24025306.1484                                   24025302.1884
                                                                        39.0004
        21.7504
   1611330.23846   1299264.36743
                  24193499.7114                                   24193495.9774
                                                                        41.0004
        22.5004
 -10975518.39147  -8510438.13344
                  22886995.2664                                   22886991.4224
                                                                        44.0004
        28.7504
 09 10 18  0 20  0.0000000  0 10G02G04G10G05G13G23G29G16G07G25
  -9370099.00448  -7279627.53547
                  20594207.8364                                   20594201.5004
                                                                        52.0004
        42.0004
   1509450.48847   1184852.29745
                  22839300.1804                                   22839297.5474
                                                                        45.7504
        32.5004
 -23031153.93748 -17925026.85246
                  21164311.0164                                   21164307.2854
                                                                        51.5004
        39.0004
 -19690333.52348 -15330120.07846
                  21898073.5394                                   21898069.5824
                                                                        49.0004
        38.7504
 -11562904.00048  -8980163.43045
                  21229313.8204                                   21229309.0554
                                                                        49.0004
        35.5004
   -686034.03547   -520920.78144
                  23414065.3054                                   23414058.9734
                                                                        43.5004
        27.2504
 -19247819.60248 -14952168.74646
                  22068634.4454                                   22068630.7774
                                                                        49.2504
        36.7504
    222544.55946    209986.44943
                  23997296.0784                                   23997292.1564
                                                                        39.2504
        22.0004
   1426880.70346   1155537.44943
                  24158400.0864                                   24158396.6914
                                                                        39.5004
        22.5004
 -11117228.78947  -8620861.81644
                  22860029.3054                                   22860024.6914
                                                                        44.2504
        29.2504
 09 10 18  0 20 30.0000000  0 10G02G04G10G05G13G23G29G16G07G25
  -9415200.23048  -7314771.34846
                  20585625.3524                                   20585619.3134
                                                                        52.2504
        41.7504
   1525630.13747   1197459.76645
                  22842379.0394                                   22842375.6214
                                                                        46.0004
        31.5004
 -23190242.22748 -18048991.73046
                  21134037.7034                                   21134033.6804
                                                                        51.0004
        39.5004
 -19863054.46148 -15464707.81646
                  21865206.2814                                   21865201.8754
                                                                        48.7504
        39.2504
 -11617844.24248  -9022974.02045
                  21218858.8594                                   21218854.2344
                                                                        48.5004
        35.5004
   -678244.07447   -514850.69144
                  23415547.4924                                   23415541.1804
                                                                        44.5004
        26.5004
 -19371057.98448 -15048198.65246
                  22045183.1484                                   22045178.9734
                                                                        49.2504
        37.0004
     75876.91846     95699.99243
                  23969386.5864                                   23969381.9884
                                                                        39.5004
        22.0004
   1242729.42647   1012042.93443
                  24123357.8054                                   24123353.2384
                                                                        42.0004
        22.7504
 -11258415.24247  -8730877.22344
                  22833162.1334                                   22833158.1994
                                                                        45.0004
        29.2504
 09 10 18  0 21  0.0000000  0 10G02G04G10G05G13G23G29G16G07G25
  -7884294.44548  -6121857.74247
                  20876947.1564                                   20876940.9884
                                                                        52.0004
        42.0004
   3117508.02747   2437884.05145
                  23145303.3054                                   23145299.7074
                                                                        46.2504
        31.5004
 -21773416.69148 -16944971.81246
                  21403650.1094                                   21403646.4694
                                                                        51.2504
        39.2504
 -18459964.20748 -14371390.71946
                  22132205.0944                                   22132200.8594
                                                                        48.7504
        39.2504
 -10096699.69948  -7837666.60545
                  21508322.9924                                   21508318.3364
                                                                        48.5004
        35.0004
    905328.00047    719101.59044
                  23716890.9454                                   23716884.5904
                                                                        44.2504
        26.5004
 -17918266.22348 -13916153.11746
                  22321640.3284                                   22321636.1334
                                                                        49.0004
        36.7504
   1505167.42246   1209432.85543
                  24241372.1174                                   24241366.6954
                                                                        40.0004
        21.0004
   2634307.34847   2096389.26244
                  24388166.2814                                   24388161.4924
                                                                        43.0004
        24.0004
  -9823648.13747  -7612876.88344
                  23106189.1644                                   23106184.9264
                                                                        44.0004
        27.7504
 09 10 18  0 21 30.0000000  0 10G02G04G10G05G13G23G29G16G07G25
  -7928230.69548  -6156093.77747
                  20868586.3834                                   20868579.8634
                                                                        52.2504
        42.7504
   3134238.54747   2450920.80145
                  23148487.3364                                   23148483.9344
                                                                        47.7504
        32.2504
 -21931531.83648 -17068178.40246
                  21373561.8444                                   21373558.1294
                                                                        51.2504
        39.2504
 -18631917.57848 -14505380.34046
                  22099483.4614                                   22099479.0164
                                                                        49.0004
        39.2504
 -10150320.33248  -7879448.93045
                  21498119.2894                                   21498114.6764
                                                                        48.5004
        35.5004
    913834.77347    725730.22744
                  23718509.6564                                   23718503.5084
                                                                        42.0004
        24.0004
 -18040297.00848 -14011242.03946
                  22298418.3594                                   22298414.3954
                                                                        48.7504
        37.0004
   1359562.76246   1095974.66443
                  24213663.8754                                   24213658.7274
                                                                        40.2504
        21.0004
   2450761.40647   1953366.40244
                  24353238.9144                                   24353234.2384
                                                                        43.7504
        26.5004
  -9963779.98447  -7722070.52344
                  23079523.1954                                   23079518.5904
                                                                        44.5004
        27.5004
 09 10 18  0 22  0.0000000  0 10G02G04G10G05G13G23G29G16G07G25
  -7971596.15648  -6189885.03946
                  20860334.1484                                   20860327.7664
                                                                        52.0004
        41.7504
   3151231.43847   2464161.99645
                  23151720.8054                                   23151717.7934
                                                                        46.5004
        31.5004
 -22089168.16448 -17191011.89846
                  21343564.6094                                   21343560.5944
                                                                        51.7504
        39.2504
 -18803495.14848 -14639077.13346
                  22066833.1334                                   22066829.0314
                                                                        49.7504
        39.0004
 -10203293.37948  -7920726.64145
                  21488038.9224                                   21488034.3324
                                                                        48.7504
        35.2504
    922685.98846    732627.24643
                  23720193.0004                                   23720187.8324
                                                                        40.0004
        22.5004
 -18161732.76648 -14105867.30546
                  22275309.8134                                   22275306.1454
                                                                        48.5004
        37.0004
   1214482.39547    982925.01643
                  24186056.3134                                   24186050.3594
                                                                        42.0004
        21.2504
   2267512.83647   1810575.29344
                  24318368.4384                                   24318363.9774
                                                                        43.0004
        27.0004
 -10103391.49247  -7830858.70744
                  23052955.6884                                   23052951.5394
                                                                        44.5004
        28.0004
 09 10 18  0 22 30.0000000  0 10G02G04G10G05G13G23G29G16G07G25
  -8014385.76248  -6223227.59047
                  20852191.5234                                   20852185.1884
                                                                        52.7504
        42.2504
   3168490.42647   2477610.51645
                  23155004.9454                                   23155001.8164
                                                                        47.5004
        30.2504
 -22246317.54748 -17313465.96146
                  21313660.7114                                   21313656.2974
                                                                        51.5004
        39.2504
 -18974688.37148 -14772474.44546
                  22034256.2504                                   22034251.9614
                                                                        49.7504
        39.5004
 -10255613.89848  -7961495.87145
                  21478082.5864                                   21478077.7114
                                                                        49.0004
        35.5004
    931884.79747    739795.10543
                  23721944.3914                                   23721938.1524
                                                                        42.0004
        22.2504
 -18282565.04748 -14200022.32446
                  22252316.1174                                   22252312.3594
                                                                        48.7504
        36.7504
   1069934.82846    870290.52743
                  24158549.5784                                   24158543.8164
                                                                        41.0004
        21.0004
   2084570.32846   1668022.70344
                  24283554.7974                                   24283550.8874
                                                                        41.5004
        26.0004
 -10242475.15647  -7939235.59844
                  23026489.0084                                   23026484.5554
                                                                        44.7504
        28.7504
 09 10 18  0 23  0.0000000  0 10G02G04G10G05G13G23G29G16G07G25
  -8056601.79348  -6256123.19946
                  20844158.2894                                   20844151.9844
                                                                        53.2504
        41.0004
   3186012.42647   2491263.97745
                  23158339.8674                                   23158336.1604
                                                                        47.5004
        31.2504
 -22402979.74648 -17435540.39546
                  21283848.5944                                   21283844.5164
                                                                        51.7504
        39.5004
 -19145497.20348 -14905572.21946
                  22001752.3914                                   22001748.1604
                                                                        50.0004
        39.2504
 -10307284.54348  -8001758.69545
                  21468250.1884                                   21468245.0704
                                                                        49.0004
        35.5004
    941427.47347    747231.01243
                  23723760.1254                                   23723753.0904
                                                                        43.5004
        22.0004
 -18402794.90248 -14293707.92646
                  22229436.9924                                   22229433.1604
                                                                        48.7504
        37.5004
    925920.60246    758071.62943
                  24131144.4064                                   24131138.8054
                                                                        41.0004
        20.5004
   1901936.06646   1525710.33644
                  24248799.6254                                   24248797.0474
                                                                        39.0004
        24.0004
 -10381029.78947  -8047200.23444
                  23000123.1334                                   23000118.7774
                                                                        43.5004
        28.5004
 09 10 18  0 23 30.0000000  0 10G02G04G10G05G13G23G29G16G07G25
  -8098245.05948  -6288572.49646
                  20836233.6024                                   20836227.4064
                                                                        52.5004
        41.7504
   3203795.70747   2505121.03545
                  23161723.8054                                   23161720.7344
                                                                        47.0004
        31.0004
 -22559152.46548 -17557233.41446
                  21254130.0314                                   21254126.0084
                                                                        51.7504
        39.7504
 -19315919.18448 -15038368.54746
                  21969322.3524                                   21969318.3134
                                                                        49.5004
        39.5004
 -10358306.53148  -8041516.09445
                  21458540.7664                                   21458535.8834
                                                                        49.7504
        35.0004
    951311.78947    754933.09844
                  23725641.5314                                   23725635.2114
                                                                        43.2504
        26.2504
 -18522420.14148 -14386922.39846
                  22206673.5864                                   22206668.9614
                                                                        49.2504
        37.0004
    782442.17646    646270.23043
                  24103841.1644                                   24103835.9884
                                                                        39.5004
        19.7504
   1719613.00846   1383640.46944
                  24214105.5084                                   24214102.0434
                                                                        39.7504
        24.5004
 -10519053.41047  -8154751.10244
                  22973858.1174                                   22973853.6994
                                                                        44.0004
        28.7504
 09 10 18  0 24  0.0000000  0 10G02G04G10G05G13G23G29G16G07G25
  -8139318.70348  -6320577.93447
                  20828417.7424                                   20828411.1644
                                                                        52.0004
        42.0004
   3221835.97347   2519178.35545
                  23165156.6804                                   23165153.3554
                                                                        46.0004
        30.2504
 -22714836.30548 -17678545.49646
                  21224504.3984                                   21224500.3284
                                                                        51.5004
        39.2504
 -19485954.31648 -15170863.41446
                  21936965.6644                                   21936961.5944
                                                                        50.0004
        39.2504
 -10408683.46948  -8080770.84045
                  21448954.0554                                   21448950.0904
                                                                        49.7504
        35.7504
    961533.03947    762897.67244
                  23727586.4384                                   23727580.3134
                                                                        43.7504
        25.2504
 -18641441.66448 -14479666.43746
                  22184024.2274                                   22184020.6954
                                                                        48.7504
        37.0004
    639499.81646    534886.58243
                  24076639.6024                                   24076635.1134
                                                                        39.7504
        19.2504
   1537602.30946   1241813.97344
                  24179470.8754                                   24179466.5474
                                                                        41.2504
        27.0004
 -10656546.27047  -8261888.39144
                  22947694.0314                                   22947689.4574
                                                                        45.0004
        29.0004
 09 10 18  0 24 30.0000000  0 10G02G04G10G05G13G23G29G16G07G25
  -8179824.39848  -6352140.82046
                  20820709.5784                                   20820703.3674
                                                                        52.2504
        41.5004
   3240130.33247   2533433.64845
                  23168638.1254                                   23168634.6524
                                                                        46.5004
        31.0004
 -22870029.61348 -17799475.34046
                  21194971.7034                                   21194967.8094
                                                                        51.0004
        39.7504
 -19655601.60548 -15303056.08646
                  21904683.1024                                   21904678.5274
                                                                        50.0004
        39.5004
 -10458417.37148  -8119524.53545
                  21439490.1724                                   21439485.4454
                                                                        50.0004
        35.2504
    972088.10247    771122.35244
                  23729595.4224                                   23729589.2074
                                                                        43.0004
        26.0004
 -18759858.45748 -14571939.26646
                  22161490.2344                                   22161486.3484
                                                                        49.5004
        37.2504
    497095.19546    423921.93843
                  24049541.8364                                   24049535.9304
                                                                        39.2504
        20.0004
   1355906.30147   1100232.68044
                  24144894.0704                                   24144890.6764
                                                                        42.0004
        26.0004
 -10793507.05147  -8368611.06644
                  22921631.0704                                   22921627.0314
                                                                        44.0004
        27.5004
 09 10 18  0 25  0.0000000  0 10G02G04G10G05G13G23G29G16G07G25
  -8219763.33648  -6383262.07446
                  20813109.2894                                   20813103.0784
                                                                        51.7504
        41.7504
   3258677.28947   2547885.77045
                  23172167.3834                                   23172163.5864
                                                                        45.2504
        30.5004
 -23024731.12548 -17920021.97346
                  21165533.0474                                   21165529.1484
                                                                        51.5004
        39.7504
 -19824858.74648 -15434944.75446
                  21872474.3754                                   21872469.9494
                                                                        50.0004
        39.0004
 -10507509.59448  -8157778.21145
                  21430148.3524                                   21430144.0824
                                                                        50.0004
        35.0004
    982974.14147    779604.96544
                  23731666.9614                                   23731660.6724
                                                                        43.5004
        24.2504
 -18877670.07048 -14663740.53146
                  22139071.5234                                   22139067.1294
                                                                        49.5004
        37.5004
    355229.78146    313377.48843
                  24022545.2114                                   24022540.3594
                                                                        38.7504
        21.5004
   1174527.91847    958898.87143
                  24110379.7894                                   24110374.8914
                                                                        43.0004
        22.5004
 -10929934.01647  -8474917.77744
                  22895669.7664                                   22895665.8244
                                                                        42.7504
        28.5004
 09 10 18  0 25 30.0000000  0 10G02G04G10G05G13G23G29G16G07G25
  -8259134.99248  -6413941.28146
                  20805617.0944                                   20805611.1454
                                                                        52.0004
        40.7504
   3277475.87947   2562534.01245
                  23175744.8054                                   23175741.3714
                                                                        45.5004
        30.5004
 -23178937.24248 -18040182.57846
                  21136188.4454                                   21136184.5664
                                                                        51.5004
        40.0004
 -19993722.81648 -15566527.13746
                  21840340.6334                                   21840335.8874
                                                                        50.5004
        39.5004
 -10555960.08648  -8195531.84045
                  21420928.7814                                   21420923.5984
                                                                        50.0004
        35.2504
    994190.34446    788344.84843
                  23733800.8444                                   23733794.6024
                                                                        40.7504
        22.5004
 -18994873.42248 -14755067.81646
                  22116768.2584                                   22116764.4144
                                                                        48.5004
        37.0004
    213907.57846    203256.34843
                  23995652.9064                                   23995648.1414
                                                                        38.0004
        21.7504
    993471.63747    817815.89843
                  24075925.8364                                   24075920.8164
                                                                        42.7504
        22.5004
 -11065823.79347  -8580805.89544
                  22869810.4774                                   22869806.6334
                                                                        42.7504
        29.0004
 09 10 18  0 26  0.0000000  0 10G02G04G10G05G13G23G29G16G07G25
  -8297939.35248  -6444178.44946
                  20798233.0944                                   20798227.1414
                                                                        51.7504
        41.5004
   3296525.08647   2577377.47345
                  23179369.9924                                   23179366.4454
                                                                        45.5004
        31.0004
 -23332645.53948 -18159955.27746
                  21106939.0164                                   21106934.8444
                                                                        50.5004
        40.0004
 -20162190.98048 -15697801.03546
                  21808282.2664                                   21808277.8714
                                                                        50.2504
        40.0004
 -10603769.32048  -8232785.78945
                  21411831.0704                                   21411826.2114
                                                                        49.7504
        35.0004
   1005735.11746    797340.70343
                  23735996.8134                                   23735991.4064
                                                                        41.2504
        22.2504
 -19111466.24248 -14845919.36746
                  22094581.6644                                   22094577.8674
                                                                        48.7504
        37.0004
     73131.55146     93560.79343
                  23968863.7344                                   23968859.5824
                                                                        38.2504
        21.5004
    812741.83247    676987.43844
                  24041534.3204                                   24041529.8444
                                                                        42.0004
        27.0004
 -11201173.37947  -8686273.10544
                  22844054.6804                                   22844050.4144
                                                                        43.0004
        29.5004
 09 10 18  0 26 30.0000000  0 10G02G04G10G05G13G23G29G16G07G25
  -8336181.03148  -6473977.15646
                  20790955.8364                                   20790949.7854
                                                                        52.2504
        41.7504
   3315820.02047   2592412.42245
                  23183041.3134                                   23183038.1644
                                                                        45.0004
        30.5004
 -23485857.74648 -18279341.41846
                  21077783.7274                                   21077779.5274
                                                                        51.2504
        39.0004
 -20330264.50848 -15828767.40646
                  21776298.5314                                   21776294.4924
                                                                        50.5004
        39.7504
 -10650942.07848  -8269543.78545
                  21402854.2664                                   21402849.6024
                                                                        48.7504
        35.5004
   1017602.32447    806587.85543
                  23738256.3054                                   23738249.8524
                                                                        43.0004
        23.5004
 -19227450.87148 -14936297.00846
                  22072510.3674                                   22072506.3204
                                                                        49.5004
        37.7504
    -67099.77346    -15710.35243
                  23942178.7664                                   23942173.9804
                                                                        40.5004
        22.7504
    632337.87146    536412.94544
                  24007203.4384                                   24007200.7774
                                                                        39.0004
        26.7504
 -11335984.41047  -8791320.65644
                  22818400.5944                                   22818396.6844
                                                                        44.0004
        29.2504
 09 10 18  0 27  0.0000000  0 10G02G04G10G05G13G23G29G16G07G25
  -8373860.60548  -6503337.87946
                  20783785.6644                                   20783779.4574
                                                                        52.0004
        41.7504
   3335358.51247   2607637.15645
                  23186759.8834                                   23186756.7194
                                                                        45.0004
        30.5004
 -23638571.20348 -18398338.91046
                  21048723.1024                                   21048719.3874
                                                                        50.0004
        39.5004
 -20497940.59448 -15959424.08246
                  21744391.0164                                   21744386.7814
                                                                        50.0004
        39.5004
 -10697479.46148  -8305806.68445
                  21393998.0474                                   21393993.6414
                                                                        49.5004
        34.7504
   1029790.01647    816084.77743
                  23740575.9694                                   23740568.7194
                                                                        44.2504
        23.2504
 -19342825.32848 -15026199.17646
                  22050555.3284                                   22050551.5594
                                                                        49.7504
        37.2504
   -206783.35546   -124554.67643
                  23915598.7504                                   23915593.3554
                                                                        40.5004
        22.5004
    452263.02046    396094.99244
                  23972936.8594                                   23972933.8444
                                                                        40.2504
        26.5004
 -11470254.54347  -8895946.73844
                  22792850.3134                                   22792845.9414
                                                                        43.7504
        29.0004
 09 10 18  0 27 30.0000000  0 10G02G04G10G05G13G23G29G16G07G25
  -8410980.69548  -6532262.64846
                  20776721.8364                                   20776715.8554
                                                                        52.0004
        41.5004
   3355137.63747   2623049.41444
                  23190523.3054                                   23190520.0084
                                                                        44.5004
        29.7504
 -23790785.92248 -18516947.77346
                  21019757.7034                                   21019753.8754
                                                                        51.0004
        39.7504
 -20665219.21548 -16089771.05546
                  21712559.0634                                   21712555.1174
                                                                        50.7504
        40.0004
 -10743384.50048  -8341576.84045
                  21385262.8444                                   21385258.5514
                                                                        48.5004
        34.7504
   1042294.34447    825828.45743
                  23742955.2974                                   23742948.1884
                                                                        43.5004
        23.5004
 -19457589.78148 -15115626.02746
                  22028716.5164                                   22028712.5084
                                                                        50.5004
        38.0004
   -345919.01646   -232972.06244
                  23889121.6804                                   23889117.1564
                                                                        41.5004
        24.0004
    272520.25446    256035.84444
                  23938733.2894                                   23938729.4304
                                                                        41.5004
        27.2504
 -11603983.25447  -9000150.91044
                  22767402.6884                                   22767398.5514
                                                                        43.7504
        29.5004
 09 10 18  0 28  0.0000000  0 10G02G04G10G05G13G23G29G16G07G25
  -8447541.10948  -6560751.30146
                  20769764.7814                                   20769758.7544
                                                                        52.5004
        41.5004
   3375156.17247   2638648.33245
                  23194332.6884                                   23194329.3244
                                                                        46.0004
        30.0004
 -23942498.84448 -18635165.63346
                  20990887.8914                                   20990883.7464
                                                                        50.5004
        39.7504
 -20832097.08248 -16219805.74646
                  21680803.1334                                   21680798.7234
                                                                        50.0004
        40.0004
 -10788657.29748  -8376854.35945
                  21376647.9774                                   21376643.0784
                                                                        48.2504
        35.2504
   1055113.50646    835817.38343
                  23745394.1564                                   23745387.9414
                                                                        41.5004
        22.7504
 -19571741.69948 -15204575.57046
                  22006993.9384                                   22006990.4654
                                                                        50.0004
        37.0004
   -484503.16046   -340959.70744
                  23862749.7504                                   23862744.7114
                                                                        40.5004
        24.0004
     93112.39847    116237.56644
                  23904593.2114                                   23904588.9694
                                                                        42.2504
        28.0004
 -11737167.85947  -9103931.09844
                  22742058.3284                                   22742054.1374
                                                                        44.5004
        29.5004
 09 10 18  0 28 30.0000000  0 10G02G04G10G05G13G23G29G16G07G25
  -8483543.91848  -6588805.43446
                  20762913.6094                                   20762907.5204
                                                                        52.5004
        41.2504
   3395411.75047   2654431.87544
                  23198187.0784                                   23198183.5744
                                                                        44.7504
        29.2504
 -24093708.96548 -18752991.69946
                  20962113.2974                                   20962109.4454
                                                                        50.5004
        39.7504
 -20998573.29748 -16349527.45346
                  21649123.8524                                   21649119.9414
                                                                        50.5004
        40.2504
 -10833299.82448  -8411640.74645
                  21368152.5474                                   21368147.7664
                                                                        48.2504
        34.7504
   1068244.45746    846049.22343
                  23747892.9384                                   23747886.6844
                                                                        41.2504
        22.5004
 -19685281.27048 -15293047.96146
                  21985388.4694                                   21985384.2234
                                                                        49.7504
        37.5004
   -622534.81646   -448516.82043
                  23836483.3054                                   23836478.4534
                                                                        41.0004
        22.2504
    -85957.73047    -23297.44944
                  23870516.5234                                   23870513.2114
                                                                        42.5004
        27.7504
 -11869807.00847  -9207286.27044
                  22716817.9924                                   22716814.0664
                                                                        44.5004
        29.7504
 09 10 18  0 29  0.0000000  0 10G02G04G10G05G13G23G29G16G07G25
  -8518991.28148  -6616426.78546
                  20756168.2894                                   20756162.1884
                                                                        51.7504
        41.7504
   3415901.22347   2670397.75044
                  23202085.9064                                   23202082.7624
                                                                        43.7504
        28.5004
 -24244415.64848 -18870425.47746
                  20933435.2194                                   20933430.8364
                                                                        51.2504
        40.2504
 -21164646.77748 -16478935.34846
                  21617520.8364                                   21617516.7154
                                                                        50.0004
        39.7504
 -10877315.44547  -8445938.64545
                  21359776.6414                                   21359772.0784
                                                                        47.7504
        34.7504
   1081683.44547    856521.14844
                  23750450.6094                                   23750443.8984
                                                                        42.5004
        24.7504
 -19798208.34448 -15381043.09046
                  21963898.8054                                   21963895.2704
                                                                        50.0004
        37.5004
   -760013.11346   -555642.75843
                  23810322.2974                                   23810316.5904
                                                                        41.7504
        22.0004
   -264688.71947   -162568.39544
                  23836505.8134                                   23836501.9694
                                                                        43.2504
        27.5004
 -12001900.28947  -9310216.07844
                  22691681.5394                                   22691677.1844
                                                                        43.5004
        28.7504
 09 10 18  0 29 30.0000000  0 10G02G04G10G05G13G23G29G16G07G25
  -8553883.89148  -6643615.81246
                  20749528.3984                                   20749522.4734
                                                                        52.5004
        41.0004
   3436622.71947   2686544.30944
                  23206029.5314                                   23206026.4844
                                                                        45.7504
        29.5004
 -24394616.57848 -18987465.16446
                  20904852.7424                                   20904848.2384
                                                                        51.0004
        39.5004
 -21330314.88748 -16608027.38746
                  21585995.1884                                   21585990.9384
                                                                        49.7504
        40.0004
 -10920704.82447  -8479748.55945
                  21351519.9454                                   21351515.1024
                                                                        47.5004
        34.0004
   1095429.07847    867231.99243
                  23753066.7034                                   23753059.9104
                                                                        42.2504
        22.2504
 -19910521.03148 -15468559.47346
                  21942526.0554                                   21942522.3284
                                                                        50.2504
        37.0004
   -896935.23446   -662335.33643
                  23784266.2664                                   23784261.1724
                                                                        40.7504
        21.5004
   -443076.48846   -301571.89844
                  23802558.9454                                   23802555.1994
                                                                        41.0004
        26.5004
 -12133445.17647  -9412718.57044
                  22666649.0474                                   22666644.7424
                                                                        44.5004
        29.0004
 09 10 18  0 30  0.0000000  0 10G02G04G10G05G13G23G29G16G07G25
  -7012803.54748  -5442773.99246
                  21042786.4304                                   21042780.1844
                                                                        52.2504
        41.2504
   5032991.93847   3930468.34445
                  23509808.5704                                   23509805.1454
                                                                        45.7504
        30.7504
 -22968886.86748 -17876506.95746
                  21176159.8754                                   21176155.8914
                                                                        50.5004
        40.0004
 -19920152.61748 -15509199.62946
                  21854340.3444                                   21854336.0354
                                                                        50.0004
        39.7504
  -9388049.98848  -7285472.06245
                  21643174.6484                                   21643169.6914
                                                                        48.0004
        34.2504
   2684896.27347   2105777.84043
                  24055532.0164                                   24055525.7894
                                                                        43.0004
        23.7504
 -18446796.39548 -14327994.81646
                  22221064.0004                                   22221060.2274
                                                                        49.7504
        37.0004
    542123.25446    459008.96143
                  24058109.9534                                   24058104.7464
                                                                        40.5004
        20.5004
    954305.67647    787297.21944
                  24068472.4454                                   24068468.2734
                                                                        42.5004
        25.5004
 -10689017.59847  -8287190.56644
                  22941514.8364                                   22941510.5434
                                                                        44.7504
        29.7504
 09 10 18  0 30 30.0000000  0 10G02G04G10G05G13G23G29G16G07G25
  -7046592.60248  -5469103.12946
                  21036356.3524                                   21036350.2194
                                                                        52.2504
        41.2504
   5054169.28147   3946970.15645
                  23513838.4774                                   23513834.9844
                                                                        46.0004
        30.5004
 -23118073.97748 -17992756.64546
                  21147770.3134                                   21147766.3444
                                                                        50.0004
        40.0004
 -20085007.84048 -15637658.24246
                  21822969.6254                                   21822965.3054
                                                                        48.5004
        39.7504
  -9430194.55947  -7318311.98445
                  21635154.5164                                   21635150.2114
                                                                        46.5004
        34.7504
   2699244.25446   2116958.07443
                  24058262.2664                                   24058255.8714
                                                                        41.5004
        22.5004
 -18557879.62548 -14414553.17646
                  22199925.8984                                   22199921.8984
                                                                        50.0004
        38.0004
    406316.52046    353185.55943
                  24032266.3524                                   24032260.8284
                                                                        39.7504
        19.7504
    776610.87946    648833.92643
                  24034658.0784                                   24034653.6054
                                                                        40.2504
        22.5004
 -10819463.48847  -8388836.70344
                  22916692.1254                                   22916687.2854
                                                                        45.0004
        29.7504
 09 10 18  0 31  0.0000000  0 10G02G04G10G05G13G23G29G16G07G25
  -7079831.73448  -5495003.73446
                  21030031.2584                                   21030025.2664
                                                                        52.5004
        41.0004
   5075571.76247   3963647.36745
                  23517910.9454                                   23517907.8444
                                                                        45.0004
        30.0004
 -23266751.57448 -18108609.30946
                  21119478.3284                                   21119474.3164
                                                                        51.5004
        40.2504
 -20249453.60248 -15765797.78546
                  21791676.4064                                   21791672.2464
                                                                        50.5004
        40.0004
  -9471718.82047  -7350668.55145
                  21627253.0474                                   21627248.3164
                                                                        47.7504
        34.5004
   2713889.53947   2128369.96543
                  24061048.9064                                   24061042.6214
                                                                        43.0004
        23.0004
 -18668346.72348 -14500631.43046
                  22178904.3284                                   22178901.0084
                                                                        49.7504
        37.5004
    271070.39546    247798.98843
                  24006530.2974                                   24006524.6604
                                                                        41.5004
        20.0004
    599266.92247    510643.94944
                  24000910.8054                                   24000906.1294
                                                                        43.0004
        25.0004
 -10949357.15647  -8490052.54744
                  22891973.5554                                   22891969.5704
                                                                        45.5004
        29.7504
 09 10 18  0 31 30.0000000  0 10G02G04G10G05G13G23G29G16G07G25
  -7112522.69148  -5520477.21146
                  21023810.3284                                   21023804.4534
                                                                        52.5004
        41.0004
   5097196.88747   3980497.99244
                  23522026.0314                                   23522022.6644
                                                                        45.2504
        27.7504
 -23414918.72748 -18224064.22746
                  21091282.8914                                   21091278.6564
                                                                        51.5004
        40.5004
 -20413488.71548 -15893617.35546
                  21760461.5234                                   21760457.6484
                                                                        51.0004
        40.5004
  -9512624.95747  -7382543.47345
                  21619468.7584                                   21619464.3484
                                                                        47.5004
        34.5004
   2728829.24646   2140011.32843
                  24063892.2504                                   24063886.0744
                                                                        41.5004
        21.5004
 -18778197.12948 -14586229.14546
                  22158000.5164                                   22157996.8324
                                                                        50.0004
        38.5004
    136386.08647    142850.12143
                  23980901.4144                                   23980895.3204
                                                                        42.7504
        21.5004
    422276.78947    372729.60544
                  23967230.6094                                   23967226.3204
                                                                        44.0004
        27.2504
 -11078697.39147  -8590837.13344
                  22867361.2894                                   22867357.0044
                                                                        45.5004
        29.0004
 09 10 18  0 32  0.0000000  0 10G02G04G10G05G13G23G29G16G07G25
  -7144666.58248  -5545524.40246
                  21017693.6804                                   21017687.1844
                                                                        51.5004
        41.0004
   5119042.65247   3997520.58644
                  23526183.2114                                   23526179.9064
                                                                        45.5004
        28.2504
 -23562572.97748 -18339119.47746
                  21063185.3204                                   21063181.1374
                                                                        51.5004
        40.5004
 -20577110.37148 -16021114.75446
                  21729325.5314                                   21729321.4694
                                                                        51.0004
        39.7504
  -9552914.70748  -7413938.09445
                  21611802.0474                                   21611797.2734
                                                                        48.2504
        34.5004
   2744061.16446   2151880.35243
                  24066790.3914                                   24066784.0474
                                                                        41.2504
        21.2504
 -18887429.02348 -14671344.91046
                  22137214.3524                                   22137211.1454
                                                                        50.0004
        37.7504
      2266.17647     38341.09043
                  23955378.3054                                   23955372.8244
                                                                        42.5004
        22.5004
    245643.07447    235093.01244
                  23933618.0704                                   23933614.6024
                                                                        43.5004
        28.2504
 -11207482.51647  -8691189.18045
                  22842854.2974                                   22842850.0784
                                                                        46.5004
        30.0004
 09 10 18  0 32 30.0000000  0 10G02G04G10G05G13G23G29G16G07G25
  -7176267.02748  -5570148.14546
                  21011680.1414                                   21011673.9964
                                                                        52.7504
        40.7504
   5141105.07847   4014712.09844
                  23530381.5944                                   23530378.5204
                                                                        45.7504
        28.5004
 -23709715.58248 -18453776.04746
                  21035185.1174                                   21035181.0474
                                                                        52.0004
        41.0004
 -20740319.61348 -16148290.77746
                  21698267.9774                                   21698263.7934
                                                                        50.7504
        40.5004
  -9592591.89548  -7444855.38745
                  21604251.4304                                   21604247.1844
                                                                        48.5004
        34.2504
   2759580.00446   2163972.92243
                  24069744.0234                                   24069737.1884
                                                                        41.5004
        22.5004
 -18996044.64848 -14755980.44946
                  22116545.3524                                   22116542.1564
                                                                        49.7504
        37.7504
   -131290.06647    -65728.70743
                  23929964.3284                                   23929958.3754
                                                                        42.2504
        22.0004
     69367.02047     97735.12144
                  23900074.5084                                   23900069.6684
                                                                        43.2504
        28.0004
 -11335712.98047  -8791109.01644
                  22818452.5084                                   22818448.0394
                                                                        45.5004
        29.0004
 09 10 18  0 33  0.0000000  0 10G02G04G10G05G13G23G29G16G07G25
  -7207324.55548  -5594348.82446
                  21005769.9694                                   21005763.9614
                                                                        52.2504
        41.5004
   5163382.42247   4032071.03144
                  23534620.7114                                   23534618.0084
                                                                        45.7504
        28.7504
 -23856344.19948 -18568032.10546
                  21007282.2504                                   21007278.3324
                                                                        51.7504
        40.2504
 -20903113.88348 -16275143.44546
                  21667288.9774                                   21667284.7194
                                                                        51.0004
        40.5004
  -9631657.68448  -7475296.26245
                  21596817.5944                                   21596813.1214
                                                                        48.5004
        34.0004
   2775384.12947   2176287.78944
                  24072751.3364                                   24072744.9454
                                                                        42.7504
        26.0004
 -19104041.68748 -14840133.98846
                  22095994.2274                                   22095990.6604
                                                                        49.5004
        37.5004
   -264279.79346   -169357.05543
                  23904657.0474                                   23904651.6334
                                                                        41.5004
        22.5004
   -106548.22547    -39341.58144
                  23866599.0944                                   23866594.4144
                                                                        45.2504
        29.2504
 -11463386.70747  -8890595.03945
                  22794156.8984                                   22794152.7894
                                                                        45.7504
        30.7504
 09 10 18  0 33 30.0000000  0 10G02G04G10G05G13G23G29G16G07G25
  -7237840.39548  -5618127.39846
                  20999963.1484                                   20999957.0434
                                                                        52.7504
        41.5004
   5185873.17647   4049596.28945
                  23538901.4224                                   23538898.2504
                                                                        45.7504
        30.0004
 -24002457.05548 -18681886.27746
                  20979478.0474                                   20979473.9024
                                                                        52.0004
        40.2504
 -21065491.37948 -16401671.35546
                  21636389.8364                                   21636385.4224
                                                                        51.0004
        40.5004
  -9670113.47748  -7505261.82445
                  21589499.6804                                   21589495.1024
                                                                        48.7504
        35.2504
   2791471.35947   2188823.27343
                  24075812.9534                                   24075806.9494
                                                                        42.0004
        22.5004
 -19211419.44148 -14923804.96946
                  22075561.1254                                   22075557.1134
                                                                        50.0004
        37.0004
   -396701.45346   -272542.71943
                  23879457.3984                                   23879453.6334
                                                                        41.5004
        22.7504
   -282099.14547   -176134.47744
                  23833192.1484                                   23833188.1604
                                                                        44.0004
        26.7504
 -11590501.73847  -8989645.70744
                  22769967.9774                                   22769964.0984
                                                                        45.5004
        29.7504
 09 10 18  0 34  0.0000000  0 10G02G04G10G05G13G23G29G16G07G25
  -7267816.10948  -5641485.10246
                  20994258.9454                                   20994253.0274
                                                                        52.5004
        40.7504
   5208574.68847   4067285.76644
                  23543220.5864                                   23543217.6604
                                                                        46.2504
        29.2504
 -24148053.14548 -18795337.78946
                  20951771.8914                                   20951768.1334
                                                                        52.0004
        40.2504
 -21227450.50448 -16527873.26646
                  21605569.6484                                   21605565.7814
                                                                        51.2504
        40.0004
  -9707961.93048  -7534754.11345
                  21582297.6094                                   21582292.6524
                                                                        49.2504
        34.5004
   2807838.03946   2201576.49643
                  24078926.9304                                   24078920.7504
                                                                        40.0004
        22.0004
 -19318177.76248 -15006993.27046
                  22055245.8444                                   22055241.8484
                                                                        50.0004
        37.2504
   -528553.70347   -375284.69544
                  23854367.5784                                   23854362.3094
                                                                        42.7504
        26.0004
   -457283.72747   -312641.85244
                  23799855.2034                                   23799851.2624
                                                                        43.5004
        26.0004
 -11717057.33647  -9088260.44945
                  22745884.9614                                   22745881.3324
                                                                        45.7504
        30.0004
 09 10 18  0 34 30.0000000  0 10G02G04G10G05G13G23G29G16G07G25
  -7297255.64848  -5664425.00846
                  20988656.9064                                   20988650.5824
                                                                        52.2504
        41.0004
   5231482.34047   4085135.84044
                  23547580.6024                                   23547577.6954
                                                                        45.2504
        28.5004
 -24293133.16848 -18908387.16046
                  20924164.1174                                   20924160.0394
                                                                        51.5004
        40.0004
 -21388992.21148 -16653749.91046
                  21574829.1484                                   21574825.1484
                                                                        50.5004
        40.2504
  -9745207.06648  -7563776.30545
                  21575209.6804                                   21575205.4064
                                                                        49.0004
        34.2504
   2824479.30146   2214543.70743
                  24082094.1804                                   24082087.0944
                                                                        39.7504
        22.0004
 -19424317.79748 -15089699.78546
                  22035048.0164                                   22035044.1914
                                                                        48.7504
        38.0004
   -659837.23847   -477583.54344
                  23829384.8134                                   23829380.0784
                                                                        42.2504
        24.5004
   -632101.20347   -448863.23444
                  23766588.7034                                   23766583.6884
                                                                        42.7504
        25.2504
 -11843054.34047  -9186439.93745
                  22721908.7894                                   22721904.5004
                                                                        46.0004
        30.0004
 09 10 18  0 35  0.0000000  0 10G02G04G10G05G13G23G29G16G07G25
  -7326159.42648  -5686947.43446
                  20983156.8134                                   20983150.6094
                                                                        51.7504
        41.0004
   5254595.34447   4103145.93844
                  23551978.0474                                   23551975.0704
                                                                        44.0004
        27.7504
 -24437694.38348 -19021032.27346
                  20896655.0234                                   20896651.1454
                                                                        51.7504
        40.2504
 -21550112.73048 -16779298.37146
                  21544169.1884                                   21544164.5904
                                                                        52.0004
        40.2504
  -9781849.53548  -7592328.89145
                  21568236.9534                                   21568232.3554
                                                                        49.5004
        34.2504
   2841394.39846   2227724.29743
                  24085313.1414                                   24085306.0314
                                                                        38.5004
        20.7504
 -19529837.14548 -15171922.66046
                  22014968.3914                                   22014964.6134
                                                                        49.7504
        37.5004
   -790548.60947   -579436.56243
                  23804510.6954                                   23804506.4304
                                                                        42.0004
        22.7504
   -806547.03947   -584795.00143
                  23733392.3984                                   23733387.8094
                                                                        43.0004
        22.7504
 -11968489.83647  -9284181.87545
                  22698039.2034                                   22698034.7504
                                                                        45.5004
        30.0004
 09 10 18  0 35 30.0000000  0 10G02G04G10G05G13G23G29G16G07G25
  -7354526.93048  -5709051.96946
                  20977758.6254                                   20977752.6604
                                                                        52.2504
        41.0004
   5277913.67247   4121316.08644
                  23556415.6884                                   23556412.2504
                                                                        44.5004
        28.2504
 -24581733.96948 -19133270.90646
                  20869245.3364                                   20869241.4844
                                                                        52.0004
        40.5004
 -21710809.54348 -16904516.66046
                  21513589.6484                                   21513585.3014
                                                                        50.5004
        40.5004
  -9817889.54348  -7620412.00845
                  21561378.7034                                   21561374.5664
                                                                        49.5004
        34.7504
   2858581.78546   2241117.01643
                  24088583.0004                                   24088577.0594
                                                                        39.2504
        21.0004
 -19634734.25848 -15253660.66446
                  21995006.8284                                   21995003.0704
                                                                        49.0004
        37.5004
   -920685.15646   -680841.66043
                  23779746.4924                                   23779742.3284
                                                                        40.7504
        22.7504
   -980616.98047   -720433.89144
                  23700267.8204                                   23700263.5124
                                                                        43.5004
        25.7504
 -12093360.89847  -9381483.99645
                  22674276.8054                                   22674272.7384
                                                                        45.2504
        30.2504
 09 10 18  0 36  0.0000000  0 10G02G04G10G05G13G23G29G16G07G25
  -7382361.17648  -5730741.00446
                  20972461.8984                                   20972455.8484
                                                                        51.5004
        41.0004
   5301433.56647   4139643.23444
                  23560891.4224                                   23560888.2584
                                                                        43.7504
        28.7504
 -24725251.09448 -19245102.43746
                  20841935.0004                                   20841931.0274
                                                                        51.2504
        40.7504
 -21871081.74648 -17029404.08246
                  21483090.5004                                   21483086.5394
                                                                        50.7504
        40.7504
  -9853329.99648  -7648027.94145
                  21554634.3364                                   21554629.6684
                                                                        48.7504
        34.0004
   2876038.15246   2254719.35943
                  24091905.2344                                   24091899.0704
                                                                        41.5004
        22.7504
 -19739008.81648 -15334913.57446
                  21975164.3284                                   21975160.5824
                                                                        49.0004
        38.5004
  -1050245.88347   -781798.05943
                  23755092.3674                                   23755087.3524
                                                                        42.7504
        22.7504
  -1154309.41847   -855778.62944
                  23667215.7034                                   23667211.6484
                                                                        45.0004
        28.2504
 -12217667.19947  -9478346.04345
                  22650622.0864                                   22650617.8164
                                                                        46.0004
        30.2504
 09 10 18  0 36 30.0000000  0 10G02G04G10G05G13G23G29G16G07G25
  -7409664.00448  -5752015.94146
                  20967266.2584                                   20967260.4574
                                                                        51.5004
        40.7504
   5325152.57447   4158125.53544
                  23565404.7194                                   23565401.8834
                                                                        43.7504
        28.5004
 -24868245.33648 -19356526.52746
                  20814724.2664                                   20814720.1054
                                                                        51.7504
        40.5004
 -22030928.42248 -17153959.95346
                  21452672.9384                                   21452668.8914
                                                                        50.5004
        40.7504
  -9888173.58248  -7675178.78145
                  21548004.4534                                   21547999.5434
                                                                        49.7504
        33.7504
   2893759.69947   2268528.33244
                  24095277.8204                                   24095270.9454
                                                                        43.0004
        24.5004
 -19842661.39148 -15415681.80946
                  21955439.7194                                   21955435.8284
                                                                        49.7504
        38.2504
  -1179230.35547   -882305.43743
                  23730547.9064                                   23730542.5164
                                                                        42.2504
        23.0004
  -1327621.98047   -990827.30944
                  23634235.5234                                   23634231.6604
                                                                        45.0004
        29.5004
 -12341408.03547  -9574767.46144
                  22627075.1174                                   22627070.8204
                                                                        46.0004
        29.5004
 09 10 18  0 37  0.0000000  0  9G02G04G10G05G13G29G16G07G25
  -7436436.74248  -5772877.80946
                  20962171.6254                                   20962165.5164
                                                                        51.0004
        40.5004
   5349068.75047   4176761.50444
                  23569956.3204                                   23569952.8244
                                                                        44.5004
        27.7504
 -25010714.76648 -19467541.66446
                  20787613.0164                                   20787608.8674
                                                                        51.5004
        40.5004
 -22190347.52748 -17278182.64846
                  21422336.6804                                   21422332.2424
                                                                        50.5004
        41.0004
  -9922422.34848  -7701866.10545
                  21541486.8834                                   21541482.3674
                                                                        49.2504
        34.0004
 -19945690.64848 -15495964.35546
                  21935834.1724                                   21935829.7704
                                                                        49.2504
        38.5004
  -1307636.26246   -982361.98443
                  23706112.7974                                   23706107.2894
                                                                        41.0004
        23.5004
  -1500551.91047  -1125577.80944
                  23601327.9384                                   23601324.1884
                                                                        43.7504
        29.0004
 -12464581.98447  -9670747.19545
                  22603636.1884                                   22603631.6414
                                                                        45.7504
        30.2504
 09 10 18  0 37 30.0000000  0  9G02G04G10G05G13G29G16G07G25
  -7462678.89148  -5793326.24646
                  20957178.1724                                   20957171.8324
                                                                        51.0004
        40.5004
   5373181.92247   4195551.01244
                  23574544.3834                                   23574541.9224
                                                                        43.7504
        28.5004
 -25152656.19948 -19578145.38346
                  20760602.5784                                   20760598.8014
                                                                        51.5004
        40.7504
 -22349335.32448 -17402069.24646
                  21392082.2344                                   21392078.1524
                                                                        50.5004
        40.7504
  -9956075.76248  -7728089.54745
                  21535082.6884                                   21535078.4064
                                                                        48.7504
        33.5004
 -20048093.92648 -15575759.11346
                  21916347.5004                                   21916343.3404
                                                                        49.0004
        38.0004
  -1435460.09046  -1081964.95743
                  23681788.7194                                   23681783.7344
                                                                        41.2504
        22.7504
  -1673094.02747  -1260026.19144
                  23568494.5784                                   23568490.2544
                                                                        44.2504
        29.5004
 -12587185.38747  -9766282.30145
                  22580305.3674                                   22580301.0704
                                                                        45.7504
        30.0004
 09 10 18  0 38  0.0000000  0  9G02G04G10G05G13G29G16G07G25
  -7488392.83648  -5813363.09046
                  20952284.4694                                   20952278.5984
                                                                        51.0004
        40.0004
   5397489.50047   4214491.97344
                  23579170.4144                                   23579167.5594
                                                                        42.5004
        28.0004
 -25294068.95348 -19688337.12546
                  20733692.5864                                   20733688.5234
                                                                        50.7504
        40.5004
 -22507890.79348 -17525618.95746
                  21361910.4144                                   21361905.6764
                                                                        50.7504
        40.7504
  -9989136.71548  -7753851.33645
                  21528791.6254                                   21528786.8914
                                                                        48.2504
        34.0004
 -20149871.03548 -15655065.96146
                  21896979.9534                                   21896976.0044
                                                                        49.0004
        37.5004
  -1562700.93746  -1181113.67643
                  23657575.2734                                   23657570.2774
                                                                        41.0004
        22.5004
  -1845246.32047  -1394170.77744
                  23535734.7504                                   23535730.6054
                                                                        43.5004
        28.7504
 -12709217.62147  -9861372.35545
                  22557082.9304                                   22557078.7854
                                                                        46.2504
        30.0004
 09 10 18  0 38 30.0000000  0  9G02G04G10G05G13G29G16G07G25
  -7513574.90648  -5832985.48846
                  20947492.5944                                   20947486.9224
                                                                        51.0004
        40.7504
   5421994.55547   4233586.78944
                  23583833.2424                                   23583830.6094
                                                                        42.2504
        27.5004
 -25434946.20748 -19798111.60546
                  20706884.4924                                   20706880.3914
                                                                        51.7504
        40.5004
 -22666007.03948 -17648826.41846
                  21331821.7504                                   21331817.2894
                                                                        49.7504
        40.7504
 -10021602.03548  -7779148.99245
                  21522613.7194                                   21522609.3284
                                                                        48.2504
        34.0004
 -20251016.61348 -15733880.69946
                  21877732.4384                                   21877728.5634
                                                                        48.0004
        38.0004
  -1689352.16846  -1279802.94143
                  23633474.6254                                   23633469.2934
                                                                        39.5004
        22.5004
  -2017000.62946  -1528005.19144
                  23503049.8984                                   23503046.5434
                                                                        40.2504
        28.5004
 -12830672.37147  -9956012.44145
                  22533971.5084                                   22533966.6374
                                                                        45.7504
        30.2504
 09 10 18  0 39  0.0000000  0  9G02G04G10G05G13G29G16G07G25
  -5962808.04348  -4624595.73446
                  21242593.8674                                   21242587.7304
                                                                        51.2504
        40.5004
   7022111.78947   5480431.35244
                  23888325.6334                                   23888322.6254
                                                                        43.0004
        28.2504
 -23999864.16848 -18679865.88346
                  20979971.4844                                   20979967.7034
                                                                        51.5004
        40.2504
 -21248259.29348 -16544087.92246
                  21601610.0394                                   21601605.8834
                                                                        50.5004
        40.7504
  -8478054.96148  -6576385.04745
                  21816340.7034                                   21816336.2504
                                                                        49.0004
        33.2504
 -18776108.77048 -14584601.85546
                  22158397.8444                                   22158393.9144
                                                                        49.0004
        37.5004
   -239990.39546   -150430.09843
                  23909277.5944                                   23909273.8834
                                                                        41.0004
        22.2504
   -612930.79346   -433924.65244
                  23770235.7424                                   23770231.5394
                                                                        39.0004
        25.0004
 -11376126.62547  -8822600.15244
                  22810762.4534                                   22810757.6024
                                                                        45.7504
        29.5004
 09 10 18  0 39 30.0000000  0  9G02G04G10G05G13G29G16G07G25
  -5986940.33648  -4643400.10546
                  21238001.8754                                   21237995.7774
                                                                        50.7504
        41.0004
   7046995.73847   5499821.46944
                  23893061.0234                                   23893058.1484
                                                                        45.0004
        27.5004
 -24139676.32048 -18788810.41446
                  20953365.8984                                   20953362.1884
                                                                        50.2504
        40.0004
 -21405502.03548 -16666614.72746
                  21571687.7344                                   21571683.4734
                                                                        49.7504
        40.5004
  -8509344.82448  -6600766.76645
                  21810386.6724                                   21810382.1564
                                                                        48.7504
        34.0004
 -18875998.94548 -14662438.35546
                  22139389.0084                                   22139385.6724
                                                                        48.0004
        38.2504
   -365467.88346   -248204.75043
                  23885401.0784                                   23885396.2464
                                                                        40.7504
        22.5004
   -783890.48846   -567139.95344
                  23737703.6174                                   23737698.8634
                                                                        41.2504
        26.5004
 -11496432.30147  -8916344.83644
                  22787868.6414                                   22787864.5904
                                                                        45.5004
        29.2504
 09 10 18  0 40  0.0000000  0  9G02G04G10G05G13G29G16G07G25
  -6010553.43048  -4661799.92246
                  21233508.1024                                   21233502.2234
                                                                        50.7504
        40.2504
   7072062.65647   5519354.11744
                  23897831.2194                                   23897827.9024
                                                                        44.2504
        27.5004
 -24278956.83648 -18897340.70346
                  20926861.6484                                   20926857.7664
                                                                        50.2504
        40.2504
 -21562308.73048 -16788801.76646
                  21541848.4384                                   21541844.3134
                                                                        50.2504
        41.0004
  -8540052.87948  -6624695.10245
                  21804543.0554                                   21804538.8364
                                                                        49.0004
        32.7504
 -18975263.84448 -14739787.62546
                  22120499.6724                                   22120496.5704
                                                                        49.0004
        38.0004
   -490358.94146   -345522.45743
                  23861635.1254                                   23861629.9654
                                                                        41.5004
        22.0004
   -954451.67247   -700044.70344
                  23705247.2194                                   23705242.7544
                                                                        43.2504
        28.2504
 -11616164.64147  -9009642.75445
                  22765084.2504                                   22765080.3524
                                                                        45.7504
        30.2504
 09 10 18  0 40 30.0000000  0  9G02G04G10G05G13G29G16G07G25
  -6033651.37148  -4679798.32846
                  21229112.9384                                   21229106.5204
                                                                        50.5004
        40.5004
   7097308.12147   5539025.82044
                  23902634.5634                                   23902632.0594
                                                                        43.0004
        25.0004
 -24417706.75448 -19005457.52746
                  20900458.9694                                   20900454.8014
                                                                        51.0004
        40.7504
 -21718679.87148 -16910649.41046
                  21512091.8284                                   21512087.8134
                                                                        50.5004
        41.2504
  -8570184.12548  -6648174.00045
                  21798809.0944                                   21798804.6414
                                                                        48.5004
        33.5004
 -19073905.04348 -14816650.90246
                  22101729.0314                                   22101725.5274
                                                                        48.7504
        38.7504
   -614664.91846   -442384.29743
                  23837980.0084                                   23837975.1374
                                                                        40.5004
        22.2504
  -1124614.35947   -832638.97344
                  23672866.5164                                   23672860.8524
                                                                        43.5004
        27.5004
 -11735324.95747  -9102494.94545
                  22742408.9224                                   22742404.6764
                                                                        46.0004
        30.2504
 09 10 18  0 41  0.0000000  0  9G02G04G10G05G13G29G16G07G25
  -6056238.07448  -4697398.36746
                  21224814.6804                                   21224808.9574
                                                                        50.5004
        40.0004
   7122727.71547   5558833.10944
                  23907472.4454                                   23907468.9734
                                                                        43.0004
        25.2504
 -24555927.42248 -19113161.93046
                  20874156.4454                                   20874152.3714
                                                                        50.0004
        40.2504
 -21874616.02348 -17032158.05546
                  21482418.2734                                   21482413.6254
                                                                        50.5004
        41.0004
  -8599742.55148  -6671206.55145
                  21793184.1954                                   21793179.6254
                                                                        48.5004
        33.0004
 -19171924.49648 -14893029.68746
                  22083076.7344                                   22083073.2664
                                                                        49.0004
        37.5004
   -738386.93746   -538791.05943
                  23814437.1724                                   23814431.6254
                                                                        40.5004
        21.5004
  -1294377.77747   -964922.09844
                  23640561.2504                                   23640556.7894
                                                                        44.0004
        28.2504
 -11853914.29747  -9194902.23845
                  22719841.8754                                   22719837.9384
                                                                        46.0004
        30.5004
 09 10 18  0 41 30.0000000  0  9G02G04G10G05G13G29G16G07G25
  -6078315.32448  -4714601.43046
                  21220613.6644                                   21220607.4144
                                                                        51.0004
        39.5004
   7148319.71147   5578774.94944
                  23912342.6884                                   23912339.1764
                                                                        43.0004
        24.7504
 -24693618.10548 -19220453.37546
                  20847954.4924                                   20847950.2774
                                                                        51.2504
        40.5004
 -22030116.71548 -17153327.42246
                  21452827.5234                                   21452822.9144
                                                                        50.2504
        41.0004
  -8628730.73048  -6693794.76245
                  21787668.4304                                   21787663.2894
                                                                        49.2504
        33.0004
 -19269322.43047 -14968924.18446
                  22064542.7504                                   22064538.8554
                                                                        47.5004
        38.2504
   -861523.46546   -634741.58643
                  23791004.6484                                   23790999.3364
                                                                        39.5004
        20.5004
  -1463739.73047  -1096892.40644
                  23608332.4144                                   23608327.7624
                                                                        43.5004
        28.5004
 -11971931.67647  -9286863.81645
                  22697384.3444                                   22697379.8204
                                                                        46.2504
        30.0004
 09 10 18  0 42  0.0000000  0  9G02G04G10G05G13G29G16G07G25
  -6099886.16448  -4731409.88346
                  21216508.8754                                   21216502.6724
                                                                        50.7504
        40.2504
   7174080.18847   5598847.94944
                  23917244.6564                                   23917241.5394
                                                                        42.7504
        26.7504
 -24830778.27348 -19327331.42246
                  20821853.7734                                   20821849.6524
                                                                        51.2504
        40.7504
 -22185180.70348 -17274156.49646
                  21423319.5314                                   21423315.4304
                                                                        51.0004
        41.0004
  -8657151.98448  -6715941.20345
                  21782260.0784                                   21782255.0124
                                                                        48.5004
        33.0004
 -19366099.23048 -15044334.68046
                  22046126.5004                                   22046123.0514
                                                                        48.2504
        38.5004
   -984074.39146   -730235.81243
                  23767684.1644                                   23767678.6524
                                                                        40.7504
        21.5004
  -1632698.02746  -1228548.13344
                  23576180.7504                                   23576176.6484
                                                                        41.7504
        27.5004
 -12089377.21547  -9378379.80145
                  22675034.7194                                   22675030.7194
                                                                        46.0004
        31.0004
 09 10 18  0 42 30.0000000  0  9G02G04G10G05G13G29G16G07G25
  -6120950.59848  -4747823.72346
                  21212500.3834                                   21212494.0904
                                                                        51.0004
        40.5004
   7200008.92247   5619052.09444
                  23922179.0164                                   23922176.0784
                                                                        44.5004
        27.7504
 -24967404.92248 -19433793.74246
                  20795854.7114                                   20795850.6724
                                                                        51.0004
        41.0004
 -22339805.17248 -17394643.10246
                  21393895.4844                                   21393891.0664
                                                                        50.7504
        41.2504
  -8685006.83648  -6737646.28145
                  21776959.2584                                   21776954.3914
                                                                        48.5004
        33.2504
 -19462252.62947 -15119259.41046
                  22027828.9384                                   22027825.5984
                                                                        47.7504
        38.0004
  -1106036.90246   -825271.53543
                  23744475.3364                                   23744470.3244
                                                                        41.7504
        23.0004
  -1801248.96546  -1359886.48844
                  23544106.1724                                   23544102.7274
                                                                        40.2504
        28.7504
 -12206248.32847  -9469448.18445
                  22652794.9614                                   22652790.8204
                                                                        46.2504
        30.5004
 09 10 18  0 43  0.0000000  0  9G02G04G10G05G13G29G16G07G25
  -6141506.99648  -4763841.70346
                  21208588.5704                                   21208582.3364
                                                                        50.7504
        40.0004
   7226107.00047   5639388.17244
                  23927145.2114                                   23927142.4414
                                                                        44.5004
        24.5004
 -25103493.53148 -19539836.81246
                  20769958.0864                                   20769953.8204
                                                                        52.2504
        41.2504
 -22493984.96548 -17514783.19146
                  21364556.0864                                   21364551.8524
                                                                        51.0004
        41.0004
  -8712294.12148  -6758909.09845
                  21771766.6414                                   21771761.8134
                                                                        49.0004
        33.7504
 -19557779.55948 -15193695.97346
                  22009650.7114                                   22009647.1644
                                                                        48.5004
        38.5004
  -1227406.52747   -919845.25044
                  23721379.7274                                   23721374.3244
                                                                        42.5004
        24.2504
  -1969386.28146  -1490902.53544
                  23512110.2974                                   23512106.8054
                                                                        40.5004
        28.5004
 -12322540.47347  -9560065.45345
                  22630665.6954                                   22630661.9494
                                                                        46.2504
        30.5004
 09 10 18  0 43 30.0000000  0  9G02G04G10G05G13G29G16G07G25
  -6161560.99648  -4779468.19146
                  21204772.5634                                   21204766.2154
                                                                        51.2504
        40.2504
   7252368.06647   5659851.25044
                  23932142.1334                                   23932139.4844
                                                                        43.0004
        25.0004
 -25239046.91048 -19645462.80146
                  20744162.9064                                   20744158.9614
                                                                        52.2504
        40.5004
 -22647722.65248 -17634578.77746
                  21335301.1644                                   21335296.9264
                                                                        50.7504
        41.0004
  -8739020.04348  -6779734.50445
                  21766681.1254                                   21766676.5354
                                                                        48.5004
        33.0004
 -19652682.74648 -15267646.50446
                  21991591.4144                                   21991588.1804
                                                                        48.2504
        38.2504
  -1348185.49646  -1013958.72343
                  23698395.4844                                   23698391.4064
                                                                        41.2504
        23.2504
  -2137111.01646  -1621597.07444
                  23480193.7734                                   23480190.0394
                                                                        41.5004
        29.5004
 -12438256.68447  -9650233.92245
                  22608645.3364                                   22608641.1564
                                                                        46.0004
        31.0004
 09 10 18  0 44  0.0000000  0  9G02G04G10G05G13G29G16G07G25
  -6181115.21948  -4794705.25046
                  21201051.3134                                   21201045.7624
                                                                        51.2504
        40.2504
   7278789.98847   5680439.79344
                  23937170.3914                                   23937168.0124
                                                                        43.7504
        27.2504
 -25374064.48848 -19750671.32046
                  20718470.0164                                   20718465.9184
                                                                        51.2504
        40.5004
 -22801017.29348 -17754029.14546
                  21306130.0864                                   21306125.8134
                                                                        51.7504
        41.0004
  -8765187.55548  -6800124.78145
                  21761701.1334                                   21761696.8364
                                                                        48.2504
        32.2504
 -19746963.19148 -15341111.78546
                  21973650.4454                                   21973647.0124
                                                                        48.7504
        38.0004
  -1468373.52747  -1107611.72744
                  23675524.9924                                   23675520.5784
                                                                        42.0004
        24.2504
  -2304421.11747  -1751968.50844
                  23448355.9534                                   23448351.3954
                                                                        42.5004
        29.5004
 -12553396.46547  -9739953.22745
                  22586735.0784                                   22586731.2774
                                                                        46.5004
        31.0004
 09 10 18  0 44 30.0000000  0  9G02G04G10G05G13G29G16G07G25
  -6200170.43448  -4809553.47346
                  21197425.4144                                   21197419.5474
                                                                        51.2504
        40.2504
   7305371.03547   5701152.36744
                  23942228.6484                                   23942224.9574
                                                                        43.7504
        25.5004
 -25508544.56648 -19855460.98046
                  20692879.0554                                   20692875.1524
                                                                        51.5004
        41.0004
 -22953866.41848 -17873132.35546
                  21277043.7344                                   21277039.3674
                                                                        51.7504
        41.5004
  -8790797.82448  -6820080.83245
                  21756827.6724                                   21756823.1844
                                                                        48.2504
        32.5004
 -19840619.42248 -15414090.66046
                  21955828.1174                                   21955824.5784
                                                                        49.5004
        38.0004
  -1587967.96547  -1200802.19144
                  23652767.4924                                   23652762.7154
                                                                        42.5004
        24.7504
  -2471313.41047  -1882014.42644
                  23416598.0474                                   23416592.4774
                                                                        44.5004
        29.0004
 -12667958.06247  -9829222.00445
                  22564934.8984                                   22564930.9144
                                                                        46.2504
        30.5004
 09 10 18  0 45  0.0000000  0  9G02G04G10G05G13G29G16G07G25
  -6218728.50448  -4824014.31246
                  21193893.9924                                   21193887.7854
                                                                        51.5004
        39.7504
   7332108.93847   5721987.00843
                  23947316.3524                                   23947312.9064
                                                                        42.7504
        23.2504
 -25642486.24648 -19959831.11346
                  20667391.1094                                   20667386.8324
                                                                        51.0004
        40.5004
 -23106268.60248 -17991887.31646
                  21248042.4534                                   21248038.1724
                                                                        52.0004
        41.2504
  -8815853.52748  -6839604.75845
                  21752060.1094                                   21752055.0944
                                                                        49.0004
        33.5004
 -19933652.11748 -15486583.67246
                  21938124.4924                                   21938121.3874
                                                                        49.5004
        38.5004
  -1706968.71947  -1293530.03544
                  23630122.1884                                   23630117.4734
                                                                        42.7504
        26.5004
  -2637785.15247  -2011732.63344
                  23384919.5394                                   23384913.6024
                                                                        42.2504
        27.7504
 -12781940.55947  -9918039.50445
                  22543244.1334                                   22543240.5204
                                                                        46.0004
        30.7504
 09 10 18  0 45 30.0000000  0  9G02G04G10G05G13G29G16G07G25
  -6236787.01248  -4838085.88746
                  21190457.3364                                   21190451.7304
                                                                        50.7504
        40.0004
   7359006.14147   5742945.93044
                  23952435.4454                                   23952432.2034
                                                                        42.0004
        25.2504
 -25775883.61748 -20063777.10946
                  20642006.3364                                   20642002.0944
                                                                        50.7504
        41.0004
 -23258218.04348 -18110289.48446
                  21219127.3524                                   21219122.8594
                                                                        51.2504
        40.7504
  -8840352.50048  -6858694.87945
                  21747398.2274                                   21747393.2384
                                                                        49.2504
        33.5004
 -20026055.97348 -15558586.67246
                  21920540.7504                                   21920537.0634
                                                                        49.0004
        38.0004
  -1825369.73846  -1385790.57444
                  23607591.2814                                   23607586.5744
                                                                        41.2504
        25.5004
  -2803829.34847  -2141117.73444
                  23353321.8444                                   23353316.3014
                                                                        42.0004
        27.7504
 -12895338.88747 -10006401.82445
                  22521665.7894                                   22521661.2664
                                                                        46.0004
        31.2504
 09 10 18  0 46  0.0000000  0  9G02G04G10G05G13G29G16G07G25
  -6254353.18048  -4851773.80946
                  21187114.7894                                   21187108.4454
                                                                        51.0004
        39.5004
   7386054.63346   5764022.70344
                  23957582.0704                                   23957580.0474
                                                                        41.5004
        25.7504
 -25908741.43048 -20167302.68046
                  20616724.1484                                   20616720.1844
                                                                        51.7504
        41.2504
 -23409719.44948 -18228342.53946
                  21190297.7194                                   21190293.4734
                                                                        51.7504
        41.5004
  -8864302.30948  -6877357.07045
                  21742840.3984                                   21742835.9224
                                                                        48.2504
        32.7504
 -20117836.35948 -15630103.86346
                  21903075.5234                                   21903072.1414
                                                                        49.2504
        37.5004
  -1943175.52747  -1477587.29344
                  23585173.7424                                   23585168.3984
                                                                        42.7504
        26.0004
  -2969449.17646  -2270172.12144
                  23321805.1804                                   23321800.4844
                                                                        41.5004
        27.5004
 -13008157.61347 -10094312.51645
                  22500196.8594                                   22500192.5394
                                                                        46.5004
        30.5004
 09 10 18  0 46 30.0000000  0  9G02G04G10G05G13G29G16G07G25
  -6271426.86348  -4865077.98446
                  21183865.5004                                   21183859.5124
                                                                        51.2504
        39.5004
   7413254.59846   5785217.46544
                  23962758.1024                                   23962755.0394
                                                                        41.7504
        27.2504
 -26041056.09448 -20270405.01246
                  20591545.5944                                   20591542.0124
                                                                        51.7504
        41.0004
 -23560768.32448 -18346042.96146
                  21161553.6024                                   21161549.5554
                                                                        51.2504
        41.0004
  -8887703.54348  -6895591.80545
                  21738387.4304                                   21738382.4104
                                                                        48.5004
        32.5004
 -20208991.15648 -15701133.57446
                  21885729.9924                                   21885726.1214
                                                                        49.7504
        38.0004
  -2060382.66847  -1568917.52344
                  23562869.7814                                   23562864.7894
                                                                        43.0004
        26.0004
  -3134639.27347  -2398891.63344
                  23290370.7194                                   23290366.0824
                                                                        43.0004
        27.0004
 -13120393.61347 -10181769.12945
                  22478839.2974                                   22478835.3554
                                                                        45.7504
        31.0004
 09 10 18  0 47  0.0000000  0  9G02G04G10G05G13G29G16G07G25
  -6288008.29348  -4877998.57846
                  21180710.4224                                   21180704.1564
                                                                        51.7504
        40.0004
   7440605.69946   5806529.98843
                  23967962.5004                                   23967959.8634
                                                                        41.7504
        23.0004
 -26172825.10548 -20373082.16446
                  20566470.8284                                   20566466.4064
                                                                        52.0004
        41.0004
 -23711361.89148 -18463388.59846
                  21132896.9224                                   21132892.5354
                                                                        51.2504
        41.7504
  -8910556.70748  -6913399.46545
                  21734038.5704                                   21734033.3594
                                                                        48.5004
        32.0004
 -20299518.78548 -15771674.59446
                  21868502.5634                                   21868498.6414
                                                                        50.2504
        38.2504
  -2176988.82046  -1659779.45743
                  23540679.6024                                   23540675.2464
                                                                        41.2504
        22.7504
  -3299395.51246  -2527273.07044
                  23259018.4304                                   23259014.0314
                                                                        41.0004
        28.5004
 -13232044.28947 -10268769.65245
                  22457592.4454                                   22457588.0474
                                                                        45.7504
        31.0004
 09 10 18  0 47 30.0000000  0  9G02G04G10G05G13G29G16G07G25
  -6304098.08648  -4890536.06246
                  21177648.3054                                   21177642.1024
                                                                        51.0004
        39.5004
   7468106.59846   5827959.36344
                  23973195.9534                                   23973192.8054
                                                                        41.0004
        24.7504
 -26304046.03548 -20475332.23446
                  20541500.2734                                   20541496.2194
                                                                        51.5004
        41.5004
 -23861497.41448 -18580377.30946
                  21104327.3204                                   21104323.1684
                                                                        51.2504
        41.5004
  -8932863.46147  -6930781.37145
                  21729793.7424                                   21729788.8674
                                                                        47.5004
        31.7504
 -20389417.25448 -15841725.34446
                  21851395.2274                                   21851391.8674
                                                                        49.7504
        38.5004
  -2292991.32046  -1750171.01243
                  23518605.2114                                   23518600.4884
                                                                        41.5004
        22.5004
  -3463714.70746  -2655313.92644
                  23227749.3674                                   23227744.6094
                                                                        40.2504
        28.7504
 -13343108.05147 -10355312.84845
                  22436458.2194                                   22436453.8014
                                                                        45.5004
        30.7504
 09 10 18  0 48  0.0000000  0  9G02G04G10G05G13G29G16G07G25
  -6319700.62948  -4902693.90646
                  21174679.7344                                   21174673.4804
                                                                        51.0004
        39.5004
   7495752.91446   5849501.90243
                  23978456.8984                                   23978453.4734
                                                                        41.5004
        22.5004
 -26434720.53948 -20577156.52746
                  20516633.5784                                   20516629.8404
                                                                        51.2504
        40.7504
 -24011176.02048 -18697009.99646
                  21075844.3914                                   21075839.9964
                                                                        50.7504
        41.7504
  -8954627.46148  -6947740.33645
                  21725652.1804                                   21725647.6884
                                                                        48.7504
        32.5004
 -20478689.47348 -15911288.11346
                  21834407.3674                                   21834403.9064
                                                                        49.5004
        38.2504
  -2408391.64146  -1840093.32043
                  23496644.8914                                   23496640.5004
                                                                        41.0004
        22.5004
  -3627596.28546  -2783013.79745
                  23196563.8364                                   23196559.4574
                                                                        41.7504
        30.0004
 -13453585.89547 -10441399.47745
                  22415434.6954                                   22415430.4844
                                                                        46.5004
        31.2504
 09 10 18  0 48 30.0000000  0  9G02G04G10G05G13G29G16G07G25
  -4759396.60548  -3686872.60946
                  21471595.6254                                   21471589.4104
                                                                        51.0004
        39.7504
   9098962.69546   7098756.40244
                  24283537.4454                                   24283534.1684
                                                                        40.7504
        24.0004
 -24989422.25448 -19450950.05546
                  20791664.5864                                   20791660.6564
                                                                        52.2504
        41.0004
 -22584970.72748 -17585681.19947
                  21347242.2034                                   21347238.0204
                                                                        51.5004
        42.0004
  -7400430.63348  -5736677.87145
                  22021405.7734                                   22021401.0354
                                                                        48.0004
        32.2504
 -18991911.10948 -14752759.52046
                  22117331.9144                                   22117328.6844
                                                                        50.0004
        38.2504
   -947764.25846   -701942.09843
                  23774593.2114                                   23774588.4734
                                                                        41.7504
        23.0004
  -2215611.32847  -1682765.75445
                  23465255.6484                                   23465251.4454
                                                                        42.2504
        30.7504
 -11988053.06247  -9299425.83245
                  22694316.1174                                   22694312.0354
                                                                        46.7504
        30.7504
 09 10 18  0 49  0.0000000  0  9G02G04G10G05G13G29G16G07G25
  -4774028.62148  -3698274.17646
                  21468811.2424                                   21468805.4104
                                                                        51.5004
        40.0004
   9126895.01247   7120521.82044
                  24288852.6254                                   24288849.9654
                                                                        42.0004
        24.5004
 -25118998.63748 -19551918.67246
                  20767007.2664                                   20767003.4184
                                                                        52.2504
        41.5004
 -22733729.39148 -17701597.03146
                  21318934.5864                                   21318930.5394
                                                                        51.7504
        41.5004
  -7421116.48047  -5752796.72345
                  22017469.4454                                   22017464.9224
                                                                        47.7504
        31.5004
 -19079928.35248 -14821344.39546
                  22100583.1724                                   22100579.5594
                                                                        49.0004
        37.7504
  -1061955.54347   -790922.29343
                  23752864.0944                                   23752858.6724
                                                                        42.5004
        22.7504
  -2378608.22747  -1809776.29744
                  23434238.6644                                   23434234.0004
                                                                        44.5004
        29.7504
 -12097355.86347  -9384596.83645
                  22673516.6804                                   22673512.1954
                                                                        45.5004
        31.2504
 09 10 18  0 49 30.0000000  0  9G02G04G10G05G13G29G16G07G25
  -4788177.36348  -3709299.17646
                  21466118.9064                                   21466112.5704
                                                                        50.0004
        39.7504
   9154968.03147   7142396.90644
                  24294195.6564                                   24294192.2074
                                                                        43.7504
        26.5004
 -25248024.37948 -19652458.20346
                  20742454.0554                                   20742450.4184
                                                                        52.0004
        41.5004
 -22882025.61348 -17817152.53546
                  21290714.5864                                   21290710.6094
                                                                        51.2504
        41.2504
  -7441265.81247  -5768497.50445
                  22013635.2344                                   22013631.0044
                                                                        47.5004
        31.7504
 -19167317.90248 -14889440.14546
                  22083953.2274                                   22083949.4414
                                                                        49.0004
        38.0004
  -1175540.52047   -879430.06243
                  23731249.1884                                   23731244.3134
                                                                        43.0004
        23.7504
  -2541158.36747  -1936438.72745
                  23403305.9614                                   23403301.4024
                                                                        42.7504
        30.0004
 -12206069.25047  -9469308.57045
                  22652829.1644                                   22652824.6454
                                                                        46.2504
        30.7504
 09 10 18  0 50  0.0000000  0  9G02G04G10G05G13G29G16G07G25
  -4801846.05548  -3719950.10946
                  21463517.9304                                   21463511.4574
                                                                        50.7504
        39.5004
   9183177.96147   7164378.59044
                  24299563.4614                                   24299560.5744
                                                                        43.7504
        25.5004
 -25376498.96948 -19752568.27046
                  20718006.5474                                   20718002.2624
                                                                        52.0004
        41.2504
 -23029858.76248 -17932347.18446
                  21262582.8204                                   21262578.9964
                                                                        51.5004
        41.5004
  -7460882.41848  -5783783.17245
                  22009902.0474                                   22009897.5824
                                                                        48.0004
        32.2504
 -19254080.55948 -14957047.40646
                  22067442.7504                                   22067439.1374
                                                                        49.5004
        38.2504
  -1288519.03947   -967465.27044
                  23709749.6414                                   23709744.7734
                                                                        43.0004
        24.0004
  -2703260.39847  -2062751.98444
                  23372459.0234                                   23372454.0904
                                                                        43.5004
        29.7504
 -12314193.59447  -9553561.27745
                  22632253.5314                                   22632249.6094
                                                                        45.5004
        30.5004
 09 10 18  0 50 30.0000000  0  9G02G04G10G05G13G29G16G07G25
  -4815036.30948  -3730228.21946
                  21461007.6644                                   21461001.5554
                                                                        51.2504
        39.2504
   9211523.68447   7186466.19543
                  24304957.2504                                   24304954.0274
                                                                        42.7504
        22.7504
 -25504420.77748 -19852247.61346
                  20693663.8834                                   20693659.8714
                                                                        51.7504
        41.0004
 -23177226.87548 -18047179.48046
                  21234539.4384                                   21234534.9344
                                                                        51.0004
        41.5004
  -7479968.12948  -5798655.16045
                  22006270.6724                                   22006265.9144
                                                                        48.7504
        32.0004
 -19340215.65248 -15024165.66846
                  22051052.0784                                   22051048.3244
                                                                        49.2504
        38.0004
  -1400889.24647  -1055026.45744
                  23688366.9614                                   23688361.9534
                                                                        42.5004
        24.5004
  -2864911.34447  -2188713.79344
                  23341697.7664                                   23341693.1994
                                                                        44.0004
        29.0004
 -12421727.80547  -9637354.18745
                  22611790.6884                                   22611786.5704
                                                                        45.7504
        30.5004
 09 10 18  0 51  0.0000000  0  9G02G04G10G05G13G29G16G07G25
  -4827749.30148  -3740134.44946
                  21458588.5944                                   21458581.9384
                                                                        50.5004
        39.5004
   9240003.42647   7208658.16043
                  24310376.5004                                   24310373.5164
                                                                        42.5004
        23.0004
 -25631789.12148 -19951495.68746
                  20669426.1724                                   20669422.2814
                                                                        52.2504
        40.7504
 -23324128.41448 -18161648.21146
                  21206585.2344                                   21206581.1954
                                                                        51.2504
        41.7504
  -7498525.07447  -5813115.10545
                  22002738.9774                                   22002734.4734
                                                                        47.5004
        32.2504
 -19425723.32048 -15090795.02046
                  22034780.6414                                   22034776.6724
                                                                        49.2504
        38.5004
  -1512650.88747  -1142113.43443
                  23667099.1094                                   23667094.6254
                                                                        43.5004
        23.2504
  -3026107.71947  -2314321.33244
                  23311023.0314                                   23311018.5204
                                                                        43.5004
        27.7504
 -12528670.68747  -9720686.30945
                  22591440.4064                                   22591435.7504
                                                                        45.2504
        30.5004
 09 10 18  0 51 30.0000000  0  9G02G04G10G05G13G29G16G07G25
  -4839987.42648  -3749670.66046
                  21456259.5784                                   21456253.3054
                                                                        50.5004
        39.0004
   9268614.94547   7230952.89543
                  24315821.3054                                   24315818.3094
                                                                        42.5004
        23.7504
 -25758602.26648 -20050311.11346
                  20645294.7974                                   20645290.7544
                                                                        52.0004
        41.0004
 -23470561.56648 -18275751.96947
                  21178719.8984                                   21178715.2544
                                                                        51.5004
        42.0004
  -7516555.43447  -5827164.74645
                  21999308.2194                                   21999303.6914
                                                                        47.5004
        31.7504
 -19510602.72748 -15156934.81646
                  22018628.3524                                   22018624.1564
                                                                        49.2504
        38.5004
  -1623802.24247  -1228724.86344
                  23645948.3914                                   23645942.5044
                                                                        42.5004
        24.5004
  -3186847.76247  -2439573.31244
                  23280435.0394                                   23280430.6454
                                                                        43.5004
        28.5004
 -12635021.66447  -9803557.19945
                  22571202.2584                                   22571197.6644
                                                                        45.0004
        31.0004
 09 10 18  0 52  0.0000000  0  9G02G04G10G05G13G29G16G07G25
  -4851748.62148  -3758835.24646
                  21454021.6644                                   21454015.2154
                                                                        50.5004
        39.2504
   9297359.82447   7253351.54344
                  24321291.5784                                   24321288.4734
                                                                        44.0004
        25.7504
 -25884856.30948 -20148690.89146
                  20621269.4774                                   20621265.1414
                                                                        52.0004
        41.0004
 -23616521.56648 -18389487.03146
                  21150944.9064                                   21150940.2664
                                                                        50.0004
        41.5004
  -7534058.25047  -5840803.31245
                  21995977.5084                                   21995972.8054
                                                                        47.0004
        31.2504
 -19594850.96947 -15222582.80146
                  22002596.1804                                   22002592.3594
                                                                        47.7504
        38.0004
  -1734339.20747  -1314857.57843
                  23624914.1884                                   23624908.0124
                                                                        43.0004
        22.7504
  -3347124.47746  -2564464.19144
                  23249935.2814                                   23249931.5004
                                                                        41.2504
        28.2504
 -12740776.27047  -9885963.38745
                  22551077.8594                                   22551073.3364
                                                                        44.7504
        31.0004
 09 10 18  0 52 30.0000000  0  9G02G04G10G05G13G29G16G07G25
  -4863033.47348  -3767628.65246
                  21451874.0704                                   21451868.0434
                                                                        50.7504
        39.0004
   9326237.19947   7275853.35244
                  24326786.5474                                   24326783.6294
                                                                        43.2504
        25.5004
 -26010548.75448 -20246633.04746
                  20597350.8834                                   20597346.6954
                                                                        52.5004
        41.2504
 -23762005.44948 -18502851.09847
                  21123260.1724                                   21123255.6884
                                                                        51.2504
        42.0004
  -7551033.97347  -5854031.15245
                  21992747.0394                                   21992742.4534
                                                                        46.7504
        31.5004
 -19678466.58248 -15287737.82846
                  21986684.9694                                   21986681.0554
                                                                        49.7504
        38.7504
  -1844259.10947  -1400509.46543
                  23603997.3834                                   23603991.0314
                                                                        42.5004
        22.7504
  -3506934.42647  -2688991.38744
                  23219524.9774                                   23219520.0554
                                                                        43.2504
        29.7504
 -12845932.44547  -9967903.26645
                  22531067.0784                                   22531063.0234
                                                                        45.2504
        30.5004
 09 10 18  0 53  0.0000000  0  9G02G04G10G05G13G29G16G07G25
  -4873849.50848  -3776056.75046
                  21449815.8984                                   21449809.9304
                                                                        51.0004
        38.7504
   9355239.61346   7298452.53143
                  24332305.0704                                   24332302.4414
                                                                        41.5004
        22.5004
 -26135684.07448 -20344141.09446
                  20573538.4304                                   20573534.2504
                                                                        51.5004
        40.7504
 -23907017.58248 -18615847.56647
                  21095665.0234                                   21095660.8054
                                                                        50.5004
        42.0004
  -7567491.53547  -5866855.22745
                  21989615.0164                                   21989611.0004
                                                                        47.5004
        31.5004
 -19761455.50848 -15352404.53546
                  21970892.7814                                   21970888.9304
                                                                        48.5004
        38.5004
  -1953566.92247  -1485684.40643
                  23583196.0164                                   23583190.2664
                                                                        43.7504
        23.7504
  -3666280.55947  -2813157.20345
                  23189202.2504                                   23189197.6134
                                                                        44.5004
        30.2504
 -12950495.23047 -10049380.74645
                  22511169.7814                                   22511165.4224
                                                                        45.0004
        31.0004
 09 10 18  0 53 30.0000000  0  9G02G04G10G05G13G29G16G07G25
  -4884199.81248  -3784121.93046
                  21447846.1884                                   21447840.6254
                                                                        50.0004
        39.2504
   9384363.82847   7321146.73444
                  24337847.7344                                   24337844.8164
                                                                        42.5004
        24.7504
 -26260262.53148 -20441215.21546
                  20549831.7424                                   20549827.8484
                                                                        52.2504
        41.0004
 -24051557.40248 -18728475.98047
                  21068160.0394                                   21068155.8714
                                                                        51.0004
        42.0004
  -7583434.16047  -5879278.06245
                  21986581.8594                                   21986577.4734
                                                                        47.2504
        31.7504
 -19843818.28548 -15416583.32846
                  21955219.8134                                   21955215.7234
                                                                        49.0004
        37.7504
  -2062262.67247  -1570382.39143
                  23562511.9844                                   23562506.0744
                                                                        42.5004
        22.5004
  -3825161.69547  -2936960.66045
                  23158968.1174                                   23158964.1954
                                                                        43.5004
        30.5004
 -13054465.19547 -10130396.29345
                  22491384.7114                                   22491380.3834
                                                                        44.5004
        31.0004
 09 10 18  0 54  0.0000000  0  9G02G04G10G05G13G29G16G07G25
  -4894084.55548  -3791824.34046
                  21445965.5784                                   21445959.2234
                                                                        50.7504
        39.5004
   9413610.10946   7343936.17243
                  24343413.2194                                   24343409.7584
                                                                        41.5004
        22.7504
 -26384281.63748 -20537853.47746
                  20526231.8754                                   20526227.5274
                                                                        52.5004
        41.2504
 -24195622.19148 -18840734.26647
                  21040745.2424                                   21040741.1804
                                                                        50.5004
        42.5004
  -7598861.89147  -5891299.67645
                  21983645.7894                                   21983641.4104
                                                                        47.2504
        31.0004
 -19925553.90648 -15480273.42646
                  21939665.7194                                   21939661.7814
                                                                        48.5004
        38.2504
  -2170344.31646  -1654601.83643
                  23541944.6334                                   23541939.2344
                                                                        41.5004
        22.7504
  -3983573.23447  -3060398.23845
                  23128824.0164                                   23128819.3554
                                                                        45.0004
        30.7504
 -13157839.62147 -10210947.79345
                  22471713.1484                                   22471708.7274
                                                                        45.0004
        30.7504
 09 10 18  0 54 30.0000000  0  9G02G04G10G05G13G29G16G07G25
  -4903507.29348  -3799166.74646
                  21444172.0784                                   21444166.3204
                                                                        50.0004
        39.0004
   9442974.29746   7366817.37543
                  24349000.8284                                   24348997.9654
                                                                        40.0004
        23.5004
 -26507741.50448 -20634055.99246
                  20502738.2974                                   20502734.2664
                                                                        51.7504
        41.2504
 -24339211.46148 -18952622.00446
                  21013421.3204                                   21013416.8014
                                                                        51.2504
        41.5004
  -7613779.23447  -5902923.59445
                  21980807.2424                                   21980802.2234
                                                                        47.5004
        31.2504
 -20006663.53948 -15543475.73846
                  21924231.3204                                   21924227.2584
                                                                        49.5004
        38.5004
  -2277811.89147  -1738342.79744
                  23521494.3284                                   23521489.1054
                                                                        42.0004
        25.0004
  -4141514.25847  -3183469.15645
                  23098768.7194                                   23098763.7034
                                                                        44.5004
        30.5004
 -13260619.57847 -10291036.05945
                  22452155.0314                                   22452150.7234
                                                                        44.0004
        31.0004
 09 10 18  0 55  0.0000000  0  9G02G04G10G05G13G29G16G07G25
  -4912469.18048  -3806150.04746
                  21442466.7734                                   21442460.4694
                                                                        50.7504
        38.5004
   9472455.32046   7389789.62143
                  24354610.6254                                   24354607.8134
                                                                        41.0004
        22.2504
 -26630640.30548 -20729821.27746
                  20479351.2894                                   20479347.4454
                                                                        52.7504
        41.5004
 -24482323.46948 -19064137.85247
                  20986187.9694                                   20986183.8094
                                                                        51.5004
        42.0004
  -7628187.65647  -5914150.91845
                  21978065.0704                                   21978060.5664
                                                                        47.7504
        31.0004
 -20087146.84448 -15606189.99646
                  21908915.9384                                   21908911.4534
                                                                        49.0004
        38.0004
  -2384664.01647  -1821604.21144
                  23501160.7344                                   23501155.4494
                                                                        43.0004
        25.0004
  -4298980.93447  -3306170.43045
                  23068803.7194                                   23068798.7774
                                                                        44.2504
        31.0004
 -13362803.72747 -10370660.06245
                  22432709.6644                                   22432705.5554
                                                                        44.2504
        31.7504
 09 10 18  0 55 30.0000000  0  9G02G04G10G05G13G29G16G07G25
  -4920977.56248  -3812779.98046
                  21440847.6804                                   21440841.5164
                                                                        49.5004
        38.5004
   9502045.32047   7412846.64843
                  24360242.1334                                   24360238.8914
                                                                        42.5004
        23.0004
 -26752982.93748 -20825153.21546
                  20456070.4224                                   20456066.3404
                                                                        52.2504
        41.7504
 -24624962.09448 -19175284.84446
                  20959045.0164                                   20959040.5634
                                                                        51.0004
        41.7504
  -7642095.26647  -5924988.01245
                  21975419.0164                                   21975414.1724
                                                                        47.0004
        31.5004
 -20167009.29348 -15668420.47746
                  21893718.4384                                   21893714.6094
                                                                        48.5004
        38.0004
  -2490905.52047  -1904389.79343
                  23480943.5634                                   23480938.6054
                                                                        43.0004
        22.5004
  -4455976.93047  -3428504.94545
                  23038928.2584                                   23038923.7974
                                                                        44.2504
        30.5004
 -13464396.98447 -10449823.64845
                  22413377.3914                                   22413373.3634
                                                                        44.2504
        31.5004
 09 10 18  0 56  0.0000000  0  9G02G04G10G05G13G29G16G07G25
  -4929028.24248  -3819053.25446
                  21439315.9614                                   21439309.6804
                                                                        49.5004
        38.2504
   9531748.84846   7435992.10544
                  24365894.5784                                   24365891.7934
                                                                        41.5004
        25.2504
 -26874762.03148 -20920046.02046
                  20432896.4454                                   20432892.4414
                                                                        52.5004
        41.5004
 -24767119.56648 -19286056.90646
                  20931993.0554                                   20931988.6024
                                                                        50.7504
        41.5004
  -7655498.69547  -5935432.23045
                  21972867.9614                                   21972863.5554
                                                                        46.5004
        31.0004
 -20246244.92248 -15730162.52346
                  21878640.1564                                   21878636.5314
                                                                        48.2504
        38.0004
  -2596529.30947  -1986694.03544
                  23460844.0944                                   23460839.3094
                                                                        42.5004
        24.7504
  -4612493.22747  -3550465.67244
                  23009143.7194                                   23009139.3554
                                                                        44.7504
        29.0004
 -13565392.54747 -10528521.48045
                  22394158.1954                                   22394154.2664
                                                                        43.5004
        31.7504
 09 10 18  0 56 30.0000000  0  9G02G04G10G05G13G29G16G07G25
  -4936625.83248  -3824973.48046
                  21437870.0394                                   21437863.9064
                                                                        50.0004
        39.0004
   9561561.17247   7459222.40643
                  24371567.5474                                   24371564.9454
                                                                        42.0004
        23.0004
 -26995979.60948 -21014501.27346
                  20409829.6884                                   20409825.6994
                                                                        52.2504
        41.0004
 -24908797.51248 -19396455.30547
                  20905032.7584                                   20905028.4844
                                                                        51.0004
        42.7504
  -7668401.87547  -5945486.66045
                  21970413.0554                                   21970408.5354
                                                                        46.5004
        30.7504
 -20324856.71948 -15791418.47346
                  21863680.9454                                   21863677.1294
                                                                        49.5004
        38.5004
  -2701537.41046  -2068518.54744
                  23440861.2974                                   23440856.6454
                                                                        41.5004
        24.0004
  -4768530.11347  -3672052.84845
                  22979450.6884                                   22979446.2304
                                                                        44.0004
        30.0004
 -13665792.61347 -10606755.28545
                  22375053.0394                                   22375049.0204
                                                                        43.7504
        31.2504
 09 10 18  0 57  0.0000000  0  9G02G04G10G05G13G29G16G07G25
  -4943771.21548  -3830541.32046
                  21436510.1564                                   21436504.0664
                                                                        49.5004
        38.5004
   9591481.70347   7482537.07043
                  24377261.1564                                   24377258.5234
                                                                        43.0004
        23.7504
 -27116634.05548 -21108517.72746
                  20386869.8834                                   20386865.6454
                                                                        52.0004
        41.0004
 -25049993.55948 -19506478.19947
                  20878163.8594                                   20878159.8014
                                                                        51.5004
        42.2504
  -7680807.14847  -5955153.10245
                  21968051.9534                                   21968047.9414
                                                                        46.2504
        31.5004
 -20402844.17248 -15852187.91846
                  21848840.3674                                   21848836.7074
                                                                        49.2504
        39.5004
  -2805928.44547  -2149862.17644
                  23420996.9774                                   23420992.0944
                                                                        43.0004
        25.0004
  -4924083.94547  -3793263.59845
                  22949850.2114                                   22949845.8134
                                                                        44.0004
        30.0004
 -13765595.65247 -10684523.87545
                  22356060.7734                                   22356057.3324
                                                                        44.0004
        30.7504
 09 10 18  0 57 30.0000000  0  9G02G04G10G05G13G29G16G07G25
  -3375046.69148  -2608158.57046
                  21735028.6174                                   21735022.4184
                                                                        50.0004
        39.0004
  11196926.69947   8733533.24243
                  24682766.7814                                   24682764.4534
                                                                        43.2504
        22.7504
 -25661299.97748 -19974491.17246
                  20663810.7114                                   20663806.7154
                                                                        52.5004
        41.0004
 -23615281.67248 -18388520.88747
                  21151180.4534                                   21151176.5394
                                                                        51.7504
        42.2504
  -6117296.68747  -4736833.27045
                  22265577.8674                                   22265573.3244
                                                                        46.2504
        31.2504
 -18904784.52348 -14684868.71546
                  22133911.7974                                   22133907.9694
                                                                        48.5004
        39.0004
  -1334277.74247  -1003121.37544
                  23701042.7114                                   23701038.0594
                                                                        42.0004
        24.2504
  -3503727.77047  -2686492.53545
                  23220135.1804                                   23220130.3634
                                                                        44.2504
        30.7504
 -12289378.19147  -9534224.54745
                  22636975.7894                                   22636971.6914
                                                                        44.7504
        31.2504
 09 10 18  0 58  0.0000000  0  9G02G04G10G05G13G29G16G07G25
  -3381292.42648  -2613025.39846
                  21733839.9614                                   21733833.7624
                                                                        48.7504
        38.5004
  11227058.71946   8757012.95343
                  24688500.8364                                   24688496.9064
                                                                        41.7504
        19.2504
 -25780823.07048 -20067626.04346
                  20641066.2424                                   20641062.3134
                                                                        52.0004
        41.0004
 -23755507.93448 -18497788.10546
                  21124496.3984                                   21124492.2114
                                                                        51.5004
        41.7504
  -6128712.07447  -4745728.37145
                  22263406.1174                                   22263401.2854
                                                                        45.7504
        31.0004
 -18981521.65648 -14744663.88746
                  22119309.4384                                   22119305.2934
                                                                        49.7504
        38.5004
  -1437429.85247  -1083499.63743
                  23681413.0394                                   23681408.8524
                                                                        42.7504
        23.0004
  -3658306.93447  -2806943.81245
                  23190719.4614                                   23190714.8594
                                                                        44.0004
        30.0004
 -12387984.15647  -9611060.37945
                  22618211.4694                                   22618207.9344
                                                                        44.5004
        31.2504
 09 10 18  0 58 30.0000000  0  9G02G04G10G05G13G29G16G07G25
  -3387089.18048  -2617542.36746
                  21732737.0864                                   21732731.4104
                                                                        49.2504
        38.5004
  11257294.91846   8780573.74643
                  24694254.1954                                   24694251.2074
                                                                        40.7504
        21.5004
 -25899777.48848 -20160317.78946
                  20618429.7034                                   20618425.8524
                                                                        52.0004
        41.5004
 -23895245.22348 -18606674.29747
                  21097905.1884                                   21097901.1724
                                                                        51.5004
        42.0004
  -6139633.57447  -4754238.61745
                  22261327.8134                                   22261323.5204
                                                                        46.2504
        31.0004
 -19057631.75048 -14803970.44946
                  22104825.6884                                   22104822.1804
                                                                        49.0004
        38.2504
  -1539959.57447  -1163392.90244
                  23661903.0864                                   23661897.8984
                                                                        43.2504
        24.5004
  -3812393.01647  -2927010.86745
                  23161397.8444                                   23161393.3204
                                                                        44.7504
        31.0004
 -12485988.81247  -9687427.64145
                  22599562.5704                                   22599557.8914
                                                                        45.0004
        30.7504
 09 10 18  0 59  0.0000000  0  9G02G04G10G05G13G29G16G07G25
  -3392442.94948  -2621714.17246
                  21731718.4454                                   21731712.0554
                                                                        49.5004
        39.0004
  11287630.15646   8804211.45743
                  24700027.0474                                   24700024.2384
                                                                        39.2504
        21.7504
 -26018166.19948 -20252568.73046
                  20595901.4144                                   20595897.3984
                                                                        52.2504
        41.2504
 -24034496.00048 -18715181.40247
                  21071407.0554                                   21071402.6564
                                                                        51.7504
        42.0004
  -6150068.03547  -4762369.35945
                  22259342.1094                                   22259337.2584
                                                                        46.2504
        30.0004
 -19133119.50448 -14862792.08646
                  22090461.0394                                   22090457.4064
                                                                        49.2504
        38.5004
  -1641870.31247  -1242803.85944
                  23642509.4144                                   23642504.5004
                                                                        44.0004
        26.2504
  -3965987.02047  -3046694.45745
                  23132169.7504                                   23132165.3444
                                                                        44.5004
        30.2504
 -12583395.43447  -9763328.92645
                  22581026.6094                                   22581022.2934
                                                                        44.7504
        30.2504
 09 10 18  0 59 30.0000000  0  9G02G04G10G05G13G29G16G07G25
  -3397358.62948  -2625544.60946
                  21730782.6884                                   21730777.0314
                                                                        48.5004
        38.5004
  11318059.38746   8827922.64144
                  24705818.1094                                   24705814.7384
                                                                        41.5004
        24.5004
 -26135991.26248 -20344380.46546
                  20573479.8984                                   20573475.9734
                                                                        52.5004
        40.7504
 -24173262.19948 -18823310.91047
                  21045000.0864                                   21044996.1334
                                                                        52.0004
        42.0004
  -6160020.77047  -4770124.76645
                  22257448.2894                                   22257443.1954
                                                                        46.5004
        30.5004
 -19207988.03548 -14921131.21546
                  22076213.8134                                   22076210.6294
                                                                        50.0004
        38.2504
  -1743164.58647  -1321734.45744
                  23623234.0634                                   23623228.8524
                                                                        43.0004
        25.2504
  -4119090.20747  -3165995.60545
                  23103035.4064                                   23103030.4844
                                                                        43.2504
        31.0004
 -12680207.03947  -9838766.55145
                  22562603.4384                                   22562599.8164
                                                                        45.7504
        31.2504
 09 10 18  1  0  0.0000000  0  9G02G04G10G05G13G29G16G07G25
  -3401831.54748  -2629030.02046
                  21729931.8444                                   21729925.8324
                                                                        49.7504
        38.0004
  11348587.22347   8851710.59844
                  24711627.1724                                   24711624.2894
                                                                        42.5004
        26.2504
 -26253245.40248 -20435747.33246
                  20551167.2894                                   20551163.1994
                                                                        52.0004
        41.5004
 -24311535.70748 -18931056.50047
                  21018687.8594                                   21018683.7194
                                                                        52.2504
        42.7504
  -6169488.06247  -4777501.87945
                  22255646.9304                                   22255641.8164
                                                                        47.0004
        30.5004
 -19282231.41848 -14978983.20746
                  22062085.8834                                   22062082.0474
                                                                        49.7504
        38.5004
  -1843835.04347  -1400178.95744
                  23604077.3364                                   23604072.0554
                                                                        43.0004
        25.5004
  -4271692.78147  -3284906.68745
                  23073996.3754                                   23073991.0394
                                                                        45.0004
        31.5004
 -12776416.12147  -9913734.66845
                  22544295.6954                                   22544291.6414
                                                                        44.2504
        31.2504
 09 10 18  1  0 30.0000000  0  8G02G10G05G13G29G16G07G25
  -3405866.55948  -2632174.19946
                  21729163.7734                                   21729157.5164
                                                                        49.0004
        38.0004
 -26369930.32048 -20526670.64146
                  20528962.7664                                   20528958.9844
                                                                        52.0004
        41.2504
 -24449317.39848 -19038418.85947
                  20992468.7344                                   20992464.5514
                                                                        51.2504
        42.5004
  -6178474.78547  -4784504.50845
                  22253936.6484                                   22253932.0354
                                                                        45.7504
        30.5004
 -19355851.71948 -15036349.68446
                  22048076.6644                                   22048073.1914
                                                                        49.0004
        38.2504
  -1943883.22347  -1478138.57844
                  23585038.4694                                   23585034.0824
                                                                        43.2504
        26.0004
  -4423795.68047  -3403428.43445
                  23045051.7424                                   23045046.5824
                                                                        44.2504
        30.7504
 -12872025.29347  -9988235.34845
                  22526101.8674                                   22526098.0594
                                                                        44.2504
        30.5004
 09 10 18  1  1  0.0000000  0  8G02G10G05G13G29G16G07G25
  -3409462.93448  -2634976.57446
                  21728479.4304                                   21728473.5434
                                                                        49.2504
        38.2504
 -26486042.78148 -20617147.88346
                  20506866.9614                                   20506863.5554
                                                                        52.5004
        41.0004
 -24586603.82448 -19145395.28947
                  20966344.2974                                   20966339.2114
                                                                        52.0004
        42.0004
  -6186980.60247  -4791132.44145
                  22252317.6564                                   22252313.6024
                                                                        46.2504
        30.2504
 -19428847.89548 -15093229.82446
                  22034185.7114                                   22034182.3484
                                                                        50.0004
        38.5004
  -2043306.71947  -1555611.43444
                  23566119.0004                                   23566114.4304
                                                                        42.5004
        25.7504
  -4575393.36347  -3521556.49645
                  23016203.4694                                   23016199.2894
                                                                        43.5004
        30.5004
 -12967031.30547 -10062266.01245
                  22508023.1644                                   22508019.0474
                                                                        44.5004
        31.0004
 09 10 18  1  1 30.0000000  0  8G02G10G05G13G29G16G07G25
  -3412623.69948  -2637439.49646
                  21727878.3204                                   21727871.9064
                                                                        48.7504
        38.0004
 -26601583.08248 -20707179.29746
                  20484881.0784                                   20484876.8364
                                                                        52.2504
        41.5004
 -24723394.97348 -19251985.80547
                  20940313.8984                                   20940309.4534
                                                                        51.5004
        42.0004
  -6195009.46547  -4797388.73044
                  22250790.1484                                   22250785.6024
                                                                        45.7504
        29.7504
 -19501221.44548 -15149624.80146
                  22020413.4844                                   22020409.8324
                                                                        49.5004
        38.7504
  -2142105.92247  -1632597.82444
                  23547318.3594                                   23547312.9264
                                                                        44.2504
        27.0004
  -4726484.45347  -3639289.78945
                  22987451.6414                                   22987447.2424
                                                                        43.5004
        31.0004
 -13061435.03547 -10135827.38745
                  22490058.2274                                   22490054.2774
                                                                        44.7504
        31.2504
 09 10 18  1  2  0.0000000  0  8G02G10G05G13G29G16G07G25
  -3415347.21548  -2639561.70346
                  21727359.9844                                   21727353.8484
                                                                        49.0004
        38.0004
 -26716546.28148 -20796760.99646
                  20463003.9924                                   20463000.1644
                                                                        52.2504
        41.2504
 -24859685.14148 -19358185.94547
                  20914378.5784                                   20914373.7814
                                                                        52.2504
        42.2504
  -6202559.47347  -4803271.87545
                  22249353.5084                                   22249349.1174
                                                                        46.5004
        30.5004
 -19572967.60948 -15205530.90246
                  22006760.7424                                   22006757.0864
                                                                        49.5004
        38.2504
  -2240275.88747  -1709093.90244
                  23528637.1644                                   23528631.9694
                                                                        43.0004
        26.2504
  -4877063.22347  -3756623.85545
                  22958797.4384                                   22958793.3834
                                                                        43.2504
        30.5004
 -13155232.26247 -10208916.14145
                  22472209.4694                                   22472205.5944
                                                                        45.2504
        31.5004
 09 10 18  1  2 30.0000000  0  8G02G10G05G13G29G16G07G25
  -3417639.42248  -2641347.86746
                  21726923.5864                                   21726917.5864
                                                                        48.5004
        37.7504
 -26830935.89148 -20885895.75446
                  20441236.4144                                   20441232.0904
                                                                        52.2504
        41.5004
 -24995477.05548 -19463997.81647
                  20888537.8054                                   20888533.3794
                                                                        53.0004
        42.0004
  -6209638.41847  -4808787.95745
                  22248006.6564                                   22248001.8634
                                                                        46.0004
        30.5004
 -19644091.30948 -15260951.96546
                  21993226.3754                                   21993222.4964
                                                                        50.0004
        38.7504
  -2337820.73047  -1785102.87944
                  23510075.1564                                   23510070.3054
                                                                        44.0004
        26.5004
  -5027131.04747  -3873559.79345
                  22930240.8204                                   22930236.4884
                                                                        44.0004
        31.5004
 -13248426.69947 -10281535.20345
                  22454475.2734                                   22454471.1054
                                                                        45.2504
        31.2504
 09 10 18  1  3  0.0000000  0  8G02G10G05G13G29G16G07G25
  -3419504.56247  -2642801.26246
                  21726568.7974                                   21726562.6024
                                                                        47.7504
        38.0004
 -26944753.11748 -20974584.49646
                  20419577.8054                                   20419573.4454
                                                                        52.5004
        41.5004
 -25130771.32448 -19569421.91847
                  20862792.4144                                   20862788.0634
                                                                        52.2504
        42.5004
  -6216249.48047  -4813939.44145
                  22246748.3054                                   22246744.0514
                                                                        46.5004
        30.5004
 -19714595.53148 -15315890.31246
                  21979810.0004                                   21979806.2974
                                                                        50.0004
        38.5004
  -2434741.76647  -1860625.75044
                  23491631.6884                                   23491626.1564
                                                                        42.7504
        26.2504
  -5176687.62147  -3990097.35545
                  22901780.9064                                   22901776.4734
                                                                        43.5004
        31.0004
 -13341020.01247 -10353685.85245
                  22436855.3284                                   22436851.2624
                                                                        44.5004
        31.5004
 09 10 18  1  3 30.0000000  0  8G02G10G05G13G29G16G07G25
  -3420946.17248  -2643924.61346
                  21726294.6254                                   21726288.6174
                                                                        48.5004
        37.5004
 -27057999.37148 -21062828.34446
                  20398027.5704                                   20398023.6054
                                                                        52.5004
        41.2504
 -25265569.12548 -19674459.16447
                  20837141.2974                                   20837137.0044
                                                                        52.0004
        42.5004
  -6222397.02347  -4818729.75444
                  22245578.4774                                   22245573.5744
                                                                        45.2504
        29.5004
 -19784482.66848 -15370347.83646
                  21966510.8444                                   21966506.9804
                                                                        50.5004
        38.5004
  -2531040.62147  -1935663.81244
                  23473306.2814                                   23473301.5204
                                                                        43.0004
        26.5004
  -5325731.74647  -4106235.58245
                  22873419.0784                                   22873414.4264
                                                                        45.0004
        31.2504
 -13433013.61347 -10425369.18045
                  22419349.5394                                   22419345.4494
                                                                        45.2504
        31.7504
 09 10 18  1  4  0.0000000  0  8G02G10G05G13G29G16G07G25
  -3421969.04348  -2644721.65646
                  21726099.8594                                   21726093.4844
                                                                        48.7504
        37.5004
 -27170676.57848 -21150628.77346
                  20376586.0164                                   20376582.0004
                                                                        52.2504
        41.2504
 -25399871.23448 -19779110.14147
                  20811584.6174                                   20811580.1644
                                                                        52.7504
        43.0004
  -6228087.07447  -4823163.57044
                  22244495.4694                                   22244491.1454
                                                                        45.2504
        29.5004
 -19853755.26648 -15424326.47746
                  21953328.8914                                   21953324.9844
                                                                        50.2504
        38.0004
  -2626719.13347  -2010218.48844
                  23455098.7664                                   23455094.2274
                                                                        43.0004
        26.7504
  -5474264.63347  -4221975.46945
                  22845154.0474                                   22845149.2894
                                                                        43.5004
        30.2504
 -13524410.33247 -10496587.36745
                  22401957.4614                                   22401953.0944
                                                                        45.0004
        31.7504
 09 10 18  1  4 30.0000000  0  8G02G10G05G13G29G16G07G25
  -3422576.34048  -2645194.86746
                  21725983.9614                                   21725977.8204
                                                                        49.0004
        37.5004
 -27282784.43448 -21237985.55546
                  20355252.5554                                   20355248.8554
                                                                        52.2504
        41.7504
 -25533677.57048 -19883374.79747
                  20786122.1094                                   20786117.4064
                                                                        52.5004
        43.0004
  -6233322.64547  -4827243.21944
                  22243498.9614                                   22243495.0474
                                                                        43.5004
        28.7504
 -19922415.20748 -15477827.73046
                  21940263.0004                                   21940259.5394
                                                                        49.5004
        38.5004
  -2721777.88347  -2084290.23044
                  23437009.9454                                   23437004.7384
                                                                        42.5004
        26.0004
  -5622284.30947  -4337315.44945
                  22816987.0634                                   22816982.0904
                                                                        45.0004
        31.2504
 -13615210.45747 -10567340.71145
                  22384678.7974                                   22384674.9184
                                                                        44.5004
        32.2504
 09 10 18  1  5  0.0000000  0  8G02G10G05G13G29G16G07G25
  -3422770.99248  -2645346.57046
                  21725947.4454                                   21725940.7114
                                                                        48.5004
        38.0004
 -27394323.34448 -21324899.01246
                  20334027.2734                                   20334023.7544
                                                                        52.7504
        41.2504
 -25666987.29748 -19987252.49647
                  20760753.9924                                   20760749.7114
                                                                        51.7504
        42.2504
  -6238107.37547  -4830971.61745
                  22242588.9304                                   22242584.6334
                                                                        45.0004
        30.0004
 -19990463.65648 -15530852.49646
                  21927314.0314                                   21927310.4844
                                                                        50.0004
        38.7504
  -2816217.44947  -2157879.50844
                  23419038.7734                                   23419033.7664
                                                                        42.2504
        25.0004
  -5769789.88747  -4452254.86745
                  22788917.3284                                   22788912.5164
                                                                        44.2504
        32.2504
 -13705414.96947 -10637629.96945
                  22367513.2814                                   22367509.2664
                                                                        45.2504
        30.5004
 09 10 18  1  5 30.0000000  0  8G02G10G05G13G29G16G07G25
  -3422553.61748  -2645177.21546
                  21725988.8444                                   21725982.5984
                                                                        48.0004
        37.7504
 -27505291.23448 -21411367.49246
                  20312910.8914                                   20312906.8714
                                                                        52.5004
        41.2504
 -25799798.50448 -20090741.75447
                  20735481.1094                                   20735476.7934
                                                                        52.7504
        42.2504
  -6242442.16047  -4834349.38745
                  22241763.5554                                   22241759.3594
                                                                        45.0004
        30.0004
 -20057900.19148 -15583400.45346
                  21914481.0784                                   21914477.2814
                                                                        50.0004
        38.0004
  -2910036.34047  -2230985.12944
                  23401185.9064                                   23401180.5554
                                                                        42.5004
        24.5004
  -5916777.09847  -4566790.35945
                  22760946.8984                                   22760941.9654
                                                                        46.0004
        31.0004
 -13795022.27047 -10707453.87545
                  22350461.5634                                   22350457.6604
                                                                        45.5004
        30.7504
 09 10 18  1  6  0.0000000  0  8G02G10G05G13G29G16G07G25
  -3421931.74248  -2644692.66046
                  21726107.1564                                   21726101.2774
                                                                        48.0004
        37.5004
 -27615693.27748 -21497395.05147
                  20291902.0864                                   20291898.0044
                                                                        52.2504
        42.0004
 -25932115.25448 -20193845.72347
                  20710301.7734                                   20710297.5164
                                                                        52.2504
        42.5004
  -6246334.79347  -4837382.61344
                  22241023.2034                                   22241018.7584
                                                                        44.5004
        29.7504
 -20124730.54748 -15635476.04746
                  21901763.8914                                   21901760.1604
                                                                        49.7504
        38.0004
  -3003239.53146  -2303610.99644
                  23383449.5784                                   23383444.1054
                                                                        41.5004
        24.7504
  -6063249.43747  -4680924.65645
                  22733073.8834                                   22733069.5664
                                                                        43.7504
        30.5004
 -13884037.39147 -10776816.31645
                  22333522.3204                                   22333518.8134
                                                                        44.2504
        31.7504
 09 10 18  1  6 30.0000000  0  8G02G10G05G13G29G16G07G25
  -1845483.45748  -1416291.42646
                  22026095.2344                                   22026088.8404
                                                                        48.5004
        37.2504
 -26150100.81248 -20355374.93446
                  20570794.9614                                   20570791.1844
                                                                        52.5004
        41.5004
 -24488507.57848 -19068956.63747
                  20985011.1884                                   20985006.9654
                                                                        52.2504
        42.7504
  -4674364.09847  -3612470.40244
                  22540158.9304                                   22540155.2234
                                                                        44.7504
        29.2504
 -18615528.96148 -14459474.81246
                  22188955.2114                                   22188951.5904
                                                                        49.2504
        38.5004
  -1520399.34846  -1148151.11344
                  23665624.8524                                   23665619.7424
                                                                        41.7504
        26.0004
  -4633775.50047  -3567048.84845
                  23005093.5634                                   23005088.8524
                                                                        44.7504
        30.7504
 -12397033.22747  -9618111.77745
                  22616490.2194                                   22616486.1564
                                                                        44.2504
        30.5004
 09 10 18  1  7  0.0000000  0  8G02G10G05G13G29G16G07G25
  -1844050.38748  -1415174.75446
                  22026368.3134                                   22026361.6334
                                                                        48.7504
        36.7504
 -26259360.38348 -20440512.26646
                  20550003.4844                                   20549999.5044
                                                                        52.0004
        41.5004
 -24619822.77048 -19171280.16447
                  20960022.8364                                   20960018.5314
                                                                        52.2504
        42.7504
  -4677372.69947  -3614814.81244
                  22539586.9454                                   22539582.6454
                                                                        45.0004
        29.0004
 -18681140.62148 -14510600.78546
                  22176469.8594                                   22176466.1914
                                                                        49.5004
        39.0004
  -1612361.75046  -1219810.13344
                  23648125.3134                                   23648120.2464
                                                                        41.0004
        27.2504
  -4779203.32047  -3680369.24245
                  22977419.5314                                   22977414.9454
                                                                        45.2504
        30.7504
 -12484855.66047  -9686544.85545
                  22599778.2194                                   22599774.2814
                                                                        45.5004
        31.5004
 09 10 18  1  7 30.0000000  0  8G02G10G05G13G29G16G07G25
  -1842213.52748  -1413743.47346
                  22026717.3134                                   22026711.1884
                                                                        48.0004
        36.5004
 -26368046.17648 -20525202.49246
                  20529321.3444                                   20529317.5554
                                                                        52.7504
        41.7504
 -24750633.82048 -19273210.87147
                  20935130.2344                                   20935125.9534
                                                                        52.2504
        43.0004
  -4679941.22347  -3616816.29744
                  22539098.2194                                   22539093.8054
                                                                        44.2504
        29.0004
 -18746142.19148 -14561251.34846
                  22164100.4064                                   22164096.8284
                                                                        49.7504
        38.5004
  -1703701.19146  -1290983.73444
                  23630743.5004                                   23630738.6094
                                                                        41.7504
        26.0004
  -4924103.27047  -3793278.29745
                  22949846.3134                                   22949841.1644
                                                                        45.5004
        30.7504
 -12572079.71547  -9754511.64845
                  22583179.7734                                   22583175.4534
                                                                        44.2504
        31.5004
 09 10 18  1  8  0.0000000  0  8G02G10G05G13G29G16G07G25
  -1839977.06647  -1412000.80146
                  22027142.8984                                   22027137.0004
                                                                        47.5004
        37.0004
 -26476160.50448 -20609447.42246
                  20508748.0164                                   20508744.2274
                                                                        52.5004
        41.2504
 -24880942.04748 -19374749.74647
                  20910333.5944                                   20910329.0944
                                                                        52.5004
        42.2504
  -4682074.96547  -3618478.98444
                  22538692.1644                                   22538687.7894
                                                                        44.0004
        29.5004
 -18810536.95748 -14611429.09446
                  22151846.5394                                   22151842.7934
                                                                        49.2504
        38.5004
  -1794420.85947  -1361674.38744
                  23613480.5234                                   23613475.5664
                                                                        42.0004
        26.0004
  -5068475.91847  -3905776.46145
                  22922373.0084                                   22922368.1374
                                                                        44.7504
        31.5004
 -12658708.01647  -9822014.21945
                  22566695.3204                                   22566691.1134
                                                                        45.0004
        31.2504
 09 10 18  1  8 30.0000000  0  8G02G10G05G13G29G16G07G25
  -1837342.29348  -1409947.75046
                  22027644.5474                                   22027638.2774
                                                                        48.0004
        36.7504
 -26583701.75048 -20693245.78946
                  20488283.4384                                   20488279.5434
                                                                        52.5004
        41.7504
 -25010745.39548 -19475895.21947
                  20885632.7274                                   20885628.3204
                                                                        52.7504
        42.5004
  -4683775.19147  -3619803.82844
                  22538368.9534                                   22538363.8714
                                                                        44.7504
        29.0004
 -18874324.85948 -14661133.95346
                  22139707.8524                                   22139704.2194
                                                                        49.5004
        38.7504
  -1884519.43747  -1431881.06644
                  23596335.2344                                   23596330.5704
                                                                        42.5004
        27.0004
  -5212317.75847  -4017860.99245
                  22895000.8204                                   22894996.2074
                                                                        45.0004
        30.5004
 -12744739.58247  -9889051.82845
                  22550323.5704                                   22550319.3874
                                                                        44.5004
        32.0004
 09 10 18  1  9  0.0000000  0  8G02G10G05G13G29G16G07G25
  -1834312.86747  -1407587.18746
                  22028221.0164                                   22028214.4414
                                                                        47.2504
        37.0004
 -26690669.84448 -20776597.54746
                  20467927.9614                                   20467924.1804
                                                                        52.0004
        41.2504
 -25140043.90248 -19576647.29747
                  20861027.7664                                   20861023.4184
                                                                        52.7504
        42.7504
  -4685045.72347  -3620793.82444
                  22538127.1024                                   22538122.5664
                                                                        43.0004
        29.2504
 -18937507.33648 -14710367.04346
                  22127685.0234                                   22127681.4654
                                                                        49.7504
        38.0004
  -1973997.30147  -1501604.10244
                  23579308.0084                                   23579303.1644
                                                                        42.2504
        24.7504
  -5355628.40647  -4129531.63345
                  22867729.5164                                   22867724.7854
                                                                        45.5004
        32.2504
 -12830175.50847  -9955625.30545
                  22534065.9304                                   22534061.4574
                                                                        45.2504
        31.7504
 09 10 18  1  9 30.0000000  0  8G02G10G05G13G29G16G07G25
  -1830889.24648  -1404919.44946
                  22028872.3914                                   22028866.1994
                                                                        48.0004
        36.5004
 -26797063.52348 -20859501.71946
                  20447682.0864                                   20447678.2584
                                                                        52.5004
        41.5004
 -25268834.84448 -19677003.87547
                  20836519.9454                                   20836515.5514
                                                                        52.7504
        42.7504
  -4685888.10947  -3621450.25444
                  22537966.5634                                   22537961.8794
                                                                        44.5004
        29.2504
 -19000084.13748 -14759128.19146
                  22115776.9774                                   22115773.1684
                                                                        49.7504
        38.0004
  -2062853.42247  -1570842.63744
                  23562399.3674                                   23562394.7234
                                                                        42.0004
        25.7504
  -5498404.37147  -4240785.64845
                  22840560.5554                                   22840555.4924
                                                                        46.2504
        32.5004
 -12915014.50847 -10021733.62945
                  22517921.5634                                   22517917.5944
                                                                        45.7504
        31.5004
 09 10 18  1 10  0.0000000  0  8G02G10G05G13G29G16G07G25
  -1827073.32447  -1401946.03946
                  22029598.6484                                   22029592.6604
                                                                        47.7504
        36.5004
 -26902881.99248 -20941957.65646
                  20427545.5234                                   20427541.5904
                                                                        52.0004
        41.2504
 -25397117.08648 -19776964.06647
                  20812108.3134                                   20812104.1954
                                                                        53.0004
        42.5004
  -4686304.72747  -3621774.89844
                  22537887.1174                                   22537882.5474
                                                                        43.7504
        27.7504
 -19062056.20348 -14807418.11346
                  22103984.1414                                   22103980.1644
                                                                        49.5004
        38.2504
  -2151087.80547  -1639596.70344
                  23545609.4694                                   23545604.3794
                                                                        42.5004
        25.0004
  -5640642.94947  -4351620.88345
                  22813492.9224                                   22813488.8364
                                                                        46.5004
        32.0004
 -12999256.32447 -10087376.61745
                  22501890.4844                                   22501886.4454
                                                                        44.5004
        31.2504
 09 10 18  1 10 30.0000000  0  8G02G10G05G13G29G16G07G25
  -1822869.12148  -1398670.06646
                  22030398.7114                                   22030392.8014
                                                                        48.2504
        37.0004
 -27008126.38748 -21023966.29346
                  20407518.3204                                   20407514.2424
                                                                        52.5004
        41.7504
 -25524890.93748 -19876528.10247
                  20787793.9064                                   20787789.8524
                                                                        52.5004
        43.2504
  -4686299.84047  -3621771.09844
                  22537888.0234                                   22537883.7854
                                                                        44.2504
        29.2504
 -19123425.12148 -14855238.03946
                  22092305.6644                                   22092301.9064
                                                                        48.5004
        37.7504
  -2238701.17247  -1707866.84844
                  23528936.9304                                   23528931.9734
                                                                        42.2504
        26.2504
  -5782343.81647  -4462037.14845
                  22786528.7664                                   22786523.8914
                                                                        45.2504
        32.2504
 -13082902.93047 -10152555.80945
                  22485973.5394                                   22485969.2974
                                                                        44.5004
        31.5004
 09 10 18  1 11  0.0000000  0  8G02G10G05G13G29G16G07G25
  -1818277.76647  -1395092.41046
                  22031272.4224                                   22031266.3484
                                                                        47.2504
        37.0004
 -27112795.51648 -21105526.65246
                  20387600.4694                                   20387596.7504
                                                                        53.0004
        41.5004
 -25652154.55948 -19975694.56647
                  20763576.6484                                   20763571.9654
                                                                        53.0004
        43.0004
  -4685874.96947  -3621440.05144
                  22537968.8054                                   22537965.0004
                                                                        43.7504
        28.5004
 -19184191.50448 -14902588.47346
                  22080742.1644                                   22080738.7464
                                                                        49.5004
        37.5004
  -2325692.84446  -1775652.56244
                  23512382.5084                                   23512377.9304
                                                                        41.7504
        26.5004
  -5923504.12947  -4572032.19945
                  22759666.3524                                   22759661.8524
                                                                        45.7504
        31.7504
 -13165953.10247 -10217270.21945
                  22470169.4064                                   22470165.3554
                                                                        44.5004
        30.0004
 09 10 18  1 11 30.0000000  0  8G02G10G05G13G29G16G07G25
  -1813301.05547  -1391214.50446
                  22032219.1484                                   22032213.3874
                                                                        47.7504
        36.7504
 -27216888.33648 -21186637.94146
                  20367792.0554                                   20367788.1254
                                                                        52.5004
        41.2504
 -25778906.23848 -20074462.09447
                  20739456.4144                                   20739452.2074
                                                                        52.7504
        43.2504
  -4685032.59047  -3620783.66044
                  22538129.0704                                   22538124.7774
                                                                        45.0004
        29.7504
 -19244355.48448 -14949469.49646
                  22069293.7274                                   22069290.1644
                                                                        48.7504
        38.0004
  -2412062.72747  -1842953.78144
                  23495947.1484                                   23495941.7304
                                                                        42.2504
        25.5004
  -6064121.22347  -4681603.96945
                  22732907.7504                                   22732902.9264
                                                                        46.2504
        32.5004
 -13248406.75047 -10281519.79345
                  22454478.9454                                   22454475.2074
                                                                        45.0004
        31.5004
 09 10 18  1 12  0.0000000  0  8G02G10G05G13G29G16G07G25
  -1807940.15248  -1387037.22346
                  22033239.8984                                   22033233.6804
                                                                        48.0004
        36.5004
 -27320403.79348 -21267299.33246
                  20348093.8754                                   20348089.4414
                                                                        51.7504
        41.2504
 -25905144.39548 -20172829.48447
                  20715434.2734                                   20715430.1334
                                                                        52.7504
        43.0004
  -4683774.06647  -3619802.98444
                  22538368.9844                                   22538364.3094
                                                                        44.7504
        28.0004
 -19303917.46548 -14995881.42246
                  22057959.5164                                   22057954.9494
                                                                        48.7504
        38.0004
  -2497810.19547  -1909769.99244
                  23479629.9694                                   23479624.5204
                                                                        43.2504
        26.5004
  -6204191.88347  -4790749.94145
                  22706253.1804                                   22706248.4454
                                                                        46.0004
        31.5004
 -13330263.16447 -10345304.00445
                  22438902.2114                                   22438898.0234
                                                                        44.7504
        31.5004
 09 10 18  1 12 30.0000000  0  8G02G10G05G13G29G16G07G25
  -1802198.69947  -1382563.43045
                  22034331.7034                                   22034326.1054
                                                                        47.0004
        35.2504
 -27423342.14848 -21347511.01646
                  20328505.1724                                   20328501.2194
                                                                        51.7504
        41.2504
 -26030868.57048 -20270796.37947
                  20691509.6954                                   20691505.7234
                                                                        52.2504
        42.7504
  -4682103.79347  -3618501.45744
                  22538686.4304                                   22538682.2034
                                                                        43.5004
        27.5004
 -19362879.00448 -15041825.46946
                  22046739.1414                                   22046735.6214
                                                                        49.0004
        38.0004
  -2582935.66047  -1976101.53944
                  23463431.5004                                   23463425.6054
                                                                        42.2504
        25.5004
  -6343715.39147  -4899469.55945
                  22679702.9454                                   22679698.0234
                                                                        46.5004
        30.7504
 -13411523.54347 -10408623.77345
                  22423438.9304                                   22423435.1374
                                                                        45.0004
        31.5004
 09 10 18  1 13  0.0000000  0  8G02G10G05G13G29G16G07G25
  -1796078.61348  -1377794.64546
                  22035496.6724                                   22035490.9104
                                                                        48.0004
        36.0004
 -27525702.98448 -21427272.68746
                  20309026.5004                                   20309022.6094
                                                                        51.7504
        41.5004
 -26156077.92648 -20368362.10947
                  20667683.0004                                   20667678.9144
                                                                        52.0004
        43.5004
  -4680023.20347  -3616880.21144
                  22539082.4534                                   22539078.6884
                                                                        44.2504
        27.7504
 -19421240.81248 -15087302.20746
                  22035633.5554                                   22035629.6174
                                                                        49.0004
        38.0004
  -2667438.88347  -2041948.20343
                  23447350.8284                                   23447344.9304
                                                                        43.2504
        23.7504
  -6482689.21547  -5007760.84845
                  22653257.0784                                   22653252.3594
                                                                        46.0004
        31.5004
 -13492187.60547 -10471478.88745
                  22408089.1954                                   22408085.2974
                                                                        45.2504
        31.7504
 09 10 18  1 13 30.0000000  0  8G02G10G05G13G29G16G07G25
  -1789579.62547  -1372730.51646
                  22036733.6954                                   22036727.7814
                                                                        47.5004
        36.5004
 -27627483.69548 -21506582.32046
                  20289658.3834                                   20289654.1454
                                                                        52.5004
        41.7504
 -26280768.85948 -20465523.87147
                  20643955.1954                                   20643950.8874
                                                                        52.5004
        43.0004
  -4677533.22347  -3614939.96944
                  22539556.7194                                   22539551.9184
                                                                        43.5004
        27.2504
 -19479001.45348 -15132310.50846
                  22024642.0164                                   22024637.9884
                                                                        49.0004
        37.7504
  -2751317.62947  -2107308.28144
                  23431388.8054                                   23431383.7974
                                                                        43.5004
        25.5004
  -6621109.91047  -5115621.12945
                  22626916.6174                                   22626911.6804
                                                                        47.0004
        32.0004
 -13572253.44947 -10533867.83245
                  22392852.5704                                   22392848.8324
                                                                        46.2504
        31.0004
 09 10 18  1 14  0.0000000  0  8G02G10G05G13G29G16G07G25
  -1782705.53548  -1367374.15646
                  22038041.9694                                   22038035.9924
                                                                        48.5004
        36.5004
 -27728685.59448 -21585440.94946
                  20270400.3984                                   20270396.1054
                                                                        53.0004
        41.0004
 -26404941.99248 -20562282.14547
                  20620325.7814                                   20620321.4694
                                                                        52.5004
        43.0004
  -4674638.07447  -3612684.01644
                  22540107.3284                                   22540102.8794
                                                                        43.5004
        26.0004
 -19536163.90248 -15176852.68046
                  22013764.2974                                   22013760.8134
                                                                        48.5004
        37.5004
  -2834574.36747  -2172183.66044
                  23415545.6884                                   23415540.6294
                                                                        44.0004
        25.2504
  -6758976.07447  -5223049.31245
                  22600681.4224                                   22600676.8954
                                                                        47.5004
        32.5004
 -13651722.83647 -10595792.01645
                  22377730.5084                                   22377726.3914
                                                                        46.2504
        31.0004
 09 10 18  1 14 30.0000000  0  8G02G10G05G13G29G16G07G25
  -1775458.68448  -1361727.34446
                  22039420.8284                                   22039414.7934
                                                                        48.2504
        36.2504
 -27829308.17648 -21663848.17246
                  20251252.5004                                   20251248.5124
                                                                        52.7504
        41.5004
 -26528596.16448 -20658636.03947
                  20596795.3834                                   20596791.2854
                                                                        53.2504
        42.2504
  -4671340.64547  -3610114.59444
                  22540735.1174                                   22540730.3444
                                                                        45.0004
        28.0004
 -19592729.27048 -15220929.59846
                  22003000.5164                                   22002996.2194
                                                                        48.0004
        37.7504
  -2917208.53147  -2236573.92244
                  23399820.8984                                   23399815.6604
                                                                        42.5004
        25.0004
  -6896286.18747  -5330044.19545
                  22574552.1644                                   22574547.9804
                                                                        46.5004
        32.7504
 -13730596.18447 -10657251.75045
                  22362721.5944                                   22362717.4844
                                                                        45.5004
        32.0004
 09 10 18  1 15  0.0000000  0  8G02G10G05G13G29G16G07G25
  -1767841.96948  -1355792.27346
                  22040870.3204                                   22040864.2304
                                                                        48.0004
        36.0004
 -27929352.02048 -21741804.42246
                  20232215.0704                                   20232211.0394
                                                                        52.5004
        41.7504
 -26651731.57848 -20754585.71947
                  20573363.4844                                   20573358.5664
                                                                        52.5004
        42.5004
  -4667643.89147  -3607233.98844
                  22541438.5004                                   22541433.9264
                                                                        45.5004
        28.0004
 -19648698.87947 -15264542.27746
                  21992349.6024                                   21992345.9844
                                                                        47.5004
        37.5004
  -2999221.07847  -2300479.81244
                  23384214.8284                                   23384209.3484
                                                                        43.0004
        24.5004
  -7033039.00847  -5436604.82445
                  22548529.0314                                   22548524.5824
                                                                        47.0004
        32.2504
 -13808874.47747 -10718247.82445
                  22347825.6024                                   22347821.8794
                                                                        45.7504
        31.7504
 09 10 18  1 15 30.0000000  0  8G02G10G05G13G29G16G07G25
  -1759854.19548  -1349568.04345
                  22042390.4304                                   22042384.1454
                                                                        48.0004
        35.5004
 -28028813.17648 -21819306.61346
                  20213287.9224                                   20213283.7544
                                                                        52.2504
        41.7504
 -26774343.26648 -20850127.29747
                  20550031.1484                                   20550026.8794
                                                                        52.7504
        42.7504
  -4663547.21947  -3604041.76244
                  22542217.9694                                   22542212.9884
                                                                        44.5004
        28.0004
 -19704070.74248 -15307689.18746
                  21981812.9614                                   21981808.9344
                                                                        48.2504
        37.7504
  -3080609.14547  -2363899.12144
                  23368727.0394                                   23368721.5784
                                                                        43.0004
        25.5004
  -7169228.89847  -5542726.80545
                  22522612.6094                                   22522608.1564
                                                                        46.2504
        32.5004
 -13886554.46947 -10778777.69945
                  22333043.5004                                   22333039.4614
                                                                        45.0004
        32.5004
 09 10 18  1 16  0.0000000  0  8G02G10G05G13G29G16G07G25
   -176081.75048   -115459.66445
                  22343772.2344                                   22343766.6604
                                                                        48.5004
        35.5004
 -26552272.09448 -20668755.11746
                  20494264.6024                                   20494260.3054
                                                                        52.2504
        41.2504
 -25321010.80148 -19717660.44947
                  20826590.9534                                   20826586.7304
                                                                        52.5004
        43.0004
  -3083637.74647  -2372943.48044
                  22842864.5784                                   22842860.6724
                                                                        44.7504
        28.0004
 -18183428.14148 -14122772.87946
                  22271181.4454                                   22271177.4694
                                                                        48.0004
        38.0004
  -1585953.86347  -1199232.67244
                  23653150.5864                                   23653144.9494
                                                                        43.0004
        24.7504
  -5729433.84447  -4420808.54745
                  22796596.9064                                   22796592.3284
                                                                        46.5004
        32.0004
 -12388217.95347  -9611242.76645
                  22618167.1024                                   22618163.3134
                                                                        45.0004
        30.5004
 09 10 18  1 16 30.0000000  0  8G02G10G05G13G29G16G07G25
   -167365.91847   -108668.07445
                  22345431.1334                                   22345424.6134
                                                                        47.5004
        35.5004
 -26650574.72348 -20745354.55546
                  20475557.9454                                   20475553.8134
                                                                        52.5004
        41.0004
 -25442580.30548 -19812389.92247
                  20803457.1484                                   20803452.8134
                                                                        52.5004
        43.0004
  -3078756.71947  -2369140.09444
                  22843793.5164                                   22843788.9694
                                                                        43.2504
        28.0004
 -18237614.77748 -14164996.23046
                  22260870.2974                                   22260866.6994
                                                                        48.2504
        38.5004
  -1666100.33247  -1261684.47344
                  23637899.0474                                   23637894.1764
                                                                        43.0004
        27.0004
  -5864500.47747  -4526055.23845
                  22770894.7664                                   22770890.0164
                                                                        46.5004
        32.2504
 -12464709.86747  -9670846.85245
                  22603611.3914                                   22603607.6604
                                                                        45.2504
        31.2504
 09 10 18  1 17  0.0000000  0  8G02G10G05G13G29G16G07G25
   -158291.84048   -101597.37546
                  22347157.6254                                   22347151.7424
                                                                        48.5004
        36.0004
 -26748300.21948 -20821504.30546
                  20456961.5554                                   20456957.2304
                                                                        52.2504
        41.5004
 -25563629.69948 -19906714.12947
                  20780421.9844                                   20780417.9264
                                                                        52.5004
        43.5004
  -3073489.82847  -2365036.07044
                  22844795.4384                                   22844791.5664
                                                                        44.5004
        27.2504
 -18291212.95347 -14206761.04746
                  22250671.1954                                   22250666.8794
                                                                        47.7504
        38.0004
  -1745628.87147  -1323654.77744
                  23622765.2194                                   23622760.2934
                                                                        43.7504
        26.0004
  -5999004.66047  -4630863.66845
                  22745299.2194                                   22745294.4064
                                                                        47.0004
        33.0004
 -12540610.59847  -9729990.28145
                  22589168.0704                                   22589164.1214
                                                                        45.7504
        30.7504
