     2.11           OBSERVATION DATA    G (GPS)             RINEX VERSION / TYPE
teqc  2019Feb25                         20221121 12:28:41UTCPGM / RUN BY / DATE
OSX ker:10.11.6|Core i5|gcc 4.3 -m64|OSX ker:10.10+|=+      COMMENT
BIT 2 OF LLI FLAGS DATA COLLECTED UNDER A/S CONDITION       COMMENT
04712971                                                    MARKER NAME
2971                                                        MARKER NUMBER
-Unknown-           -Unknown-                               OBSERVER / AGENCY
0220400471          TRIMBLE R7          2.30                REC # / TYPE / VERS
-Unknown-           TRM39105.00     NONE                    ANT # / TYPE
  1449459.0497 -1709242.8172  5952442.0169                  APPROX POSITION XYZ
        0.0000        0.0000        0.0000                  ANTENNA: DELTA H/E/N
     1     1                                                WAVELENGTH FACT L1/2
    20    L1    L2    L5    L6    L7    L8    C1    P1    C2# / TYPES OF OBSERV
          P2    C5    C6    C7    C8    S1    S2    S5    S6# / TYPES OF OBSERV
          S7    S8                                          # / TYPES OF OBSERV
    30.0000                                                 INTERVAL
    15                                                      LEAP SECONDS
Forced Modulo Decimation to 30 seconds                      COMMENT
 SNR is mapped to RINEX snr flag value [0-9]                COMMENT
  L1 & L2: min(max(int(snr_dBHz/6), 0), 9)                  COMMENT
teqc edited: Beidou # 1 - 37 excluded                       COMMENT
  2009    10    24    23    11    0.0000000     GPS         TIME OF FIRST OBS
                                                            END OF HEADER
 09 10 24 23 11  0.0000000  0  8G02G04G05G10G13G23G25G29
   -141879.59458    -71894.64557
                  20557885.6094                                   20557880.0394
                                                                        52.5004
        43.0004
    -27939.59058    -15626.55956
                  21717472.9144                                   21717469.7344
                                                                        50.5004
        38.7504
   -279854.04357   -140908.34455
                  23622507.6954                                   23622504.0084
                                                                        45.7504
        32.5004
   -272857.46957   -143086.51255
                  22696412.9924                                   22696409.8524
                                                                        46.5004
        33.2504
   -163763.36758    -82936.96956
                  21395386.0234                                   21395381.5204
                                                                        50.5004
        37.2504
    -53992.56258    -28016.94155
                  22442637.2504                                   22442630.8484
                                                                        48.5004
        33.7504
   -246788.60557   -127828.36754
                  24208432.9924                                   24208429.9804
                                                                        43.7504
        27.0004
   -238874.26257   -121625.64855
                  23183288.3054                                   23183285.4924
                                                                        44.5004
        32.7504
 09 10 24 23 11 30.0000000  0  8G02G04G05G10G13G23G25G29
   -247564.51648   -154246.50847
                  20537774.2424                                   20537768.6334
                                                                        52.2504
        43.2504
    -51574.10548    -34043.07846
                  21712975.4924                                   21712972.2734
                                                                        50.0004
        38.2504
   -488155.76247   -303221.39545
                  23582869.0084                                   23582865.2074
                                                                        45.0004
        30.2504
   -474903.07447   -300524.63345
                  22657965.4064                                   22657962.6644
                                                                        45.5004
        33.0004
   -285399.97748   -177718.72746
                  21372239.1334                                   21372234.9654
                                                                        49.7504
        37.0004
    -95454.64848    -60324.96945
                  22434747.1724                                   22434741.3164
                                                                        48.5004
        33.0004
   -434200.51247   -273863.44544
                  24172769.3054                                   24172766.6454
                                                                        43.0004
        25.5004
   -415853.94947   -259531.76245
                  23149610.2034                                   23149607.0944
                                                                        44.5004
        32.5004
 09 10 24 23 12  0.0000000  0  8G02G04G05G10G13G23G25G29
   -352717.80548   -236184.12147
                  20517764.3914                                   20517758.6024
                                                                        52.5004
        43.5004
    -74846.25448    -52177.23446
                  21708547.3834                                   21708543.5274
                                                                        50.7504
        38.7504
   -696305.36347   -465415.83245
                  23543259.4924                                   23543256.0664
                                                                        43.7504
        30.7504
   -676693.10247   -457763.60545
                  22619566.1484                                   22619563.0784
                                                                        46.5004
        33.7504
   -406423.30548   -272022.71546
                  21349209.0944                                   21349204.8444
                                                                        49.7504
        36.5004
   -136435.01647    -92257.69945
                  22426948.5864                                   22426943.0044
                                                                        47.7504
        32.7504
   -621356.31247   -419699.02044
                  24137154.6884                                   24137151.8404
                                                                        42.2504
        24.5004
   -592459.87147   -397146.62945
                  23116002.7504                                   23116000.2504
                                                                        45.2504
        32.7504
 09 10 24 23 12 30.0000000  0  8G02G04G05G10G13G23G25G29
   -457047.91048   -317480.32047
                  20497910.8594                                   20497905.2624
                                                                        52.5004
        43.5004
    -97466.56648    -69803.47346
                  21704242.5164                                   21704239.4064
                                                                        50.2504
        38.5004
   -904009.79747   -627263.42245
                  23503734.7424                                   23503731.0084
                                                                        44.0004
        31.0004
   -877934.13347   -614574.77045
                  22581271.7114                                   22581267.9064
                                                                        46.5004
        34.0004
   -526541.23048   -365621.14546
                  21326351.4064                                   21326347.5204
                                                                        50.2504
        37.2504
   -176644.40648   -123589.65645
                  22419297.1094                                   22419291.0394
                                                                        48.0004
        32.2504
   -807961.66846   -565105.60543
                  24101644.4454                                   24101641.5554
                                                                        40.2504
        23.0004
   -768397.92247   -534241.02345
                  23082523.0784                                   23082519.8204
                                                                        45.0004
        32.5004
 09 10 24 23 13  0.0000000  0  8G02G04G05G10G13G23G25G29
   -560458.35248   -398059.87147
                  20478232.5944                                   20478227.0164
                                                                        52.0004
        43.0004
   -119340.91848    -86848.44146
                  21700080.1174                                   21700077.1414
                                                                        50.7504
        38.5004
  -1111171.25047   -788687.90245
                  23464312.8674                                   23464310.2894
                                                                        43.5004
        33.0004
  -1078528.18447   -770881.79345
                  22543099.5394                                   22543095.8954
                                                                        47.2504
        34.0004
   -645656.95748   -458438.44546
                  21303684.6024                                   21303680.7544
                                                                        49.5004
        37.0004
   -215988.57448   -154247.39545
                  22411810.2664                                   22411804.0634
                                                                        48.2504
        32.2504
   -993917.93446   -710006.38743
                  24066257.2274                                   24066255.1024
                                                                        39.0004
        20.0004
   -943570.02047   -670738.57845
                  23049189.0704                                   23049185.1454
                                                                        46.0004
        33.5004
 09 10 24 23 13 30.0000000  0  8G02G04G05G10G13G23G25G29
   -662910.52348   -477892.70347
                  20458736.4454                                   20458730.4144
                                                                        52.0004
        42.7504
   -140432.89848   -103283.75446
                  21696066.5234                                   21696063.0434
                                                                        50.7504
        38.5004
  -1317749.31247   -949657.77045
                  23425002.3284                                   23424999.5234
                                                                        44.5004
        32.7504
  -1278434.58647   -926653.00445
                  22505058.3984                                   22505055.7734
                                                                        47.5004
        34.0004
   -763731.88748   -550444.73046
                  21281214.9454                                   21281210.9924
                                                                        50.0004
        36.7504
   -254431.34048   -184202.77045
                  22404495.0314                                   22404488.8404
                                                                        48.0004
        32.5004
  -1179184.50846   -854369.79743
                  24031002.8594                                   24030999.6134
                                                                        40.0004
        20.2504
  -1117935.98847   -806608.05945
                  23016007.7894                                   23016004.6604
                                                                        45.0004
        32.5004
 09 10 24 23 14  0.0000000  0  8G02G04G05G10G13G23G25G29
   -764391.28948   -556968.61747
                  20439425.2894                                   20439419.6374
                                                                        52.0004
        43.5004
   -160731.75448   -119101.05546
                  21692203.5084                                   21692200.3134
                                                                        51.2504
        38.0004
  -1523729.18447  -1110161.53145
                  23385806.0314                                   23385802.7854
                                                                        45.7504
        33.7504
  -1477638.73447  -1081876.96545
                  22467150.9454                                   22467147.5984
                                                                        47.0004
        33.7504
   -880753.04348   -641629.95346
                  21258946.9534                                   21258942.9654
                                                                        50.2504
        37.0004
   -291962.26647   -213447.65645
                  22397352.9844                                   22397347.0354
                                                                        46.7504
        31.2504
  -1363745.32447   -998183.28543
                  23995882.4844                                   23995878.4734
                                                                        42.5004
        20.7504
  -1291480.25447   -941837.20345
                  22982983.0314                                   22982980.1024
                                                                        44.5004
        32.7504
 09 10 24 23 14 30.0000000  0  8G02G04G05G10G13G23G25G29
   -864902.60548   -635289.14147
                  20420298.6804                                   20420293.0904
                                                                        52.7504
        43.2504
   -180241.41448   -134303.41046
                  21688491.1334                                   21688488.4224
                                                                        51.0004
        38.7504
  -1729110.84047  -1270199.10945
                  23346723.1564                                   23346719.8164
                                                                        45.7504
        33.5004
  -1676140.26247  -1236553.45745
                  22429377.4454                                   22429373.7774
                                                                        46.7504
        33.5004
   -996721.59048   -731995.03946
                  21236878.7504                                   21236874.1524
                                                                        50.2504
        37.0004
   -328585.51647   -241985.26245
                  22390383.8364                                   22390377.8674
                                                                        47.7504
        31.7504
  -1547599.98047  -1141446.55143
                  23960895.5784                                   23960891.7544
                                                                        43.5004
        22.2504
  -1464202.53147  -1076425.87145
                  22950114.5784                                   22950112.1134
                                                                        43.5004
        33.0004
 09 10 24 23 15  0.0000000  0  8G02G04G05G10G13G23G25G29
   -964450.97748   -712859.30547
                  20401355.3054                                   20401349.5704
                                                                        52.2504
        42.7504
   -198971.20348   -148898.03946
                  21684926.8914                                   21684923.7624
                                                                        50.7504
        38.5004
  -1933899.64847  -1429774.76645
                  23307753.1564                                   23307749.5004
                                                                        46.5004
        32.5004
  -1873944.30947  -1390686.49645
                  22391736.3364                                   22391733.2464
                                                                        47.0004
        33.5004
  -1111643.75448   -821544.70746
                  21215009.7894                                   21215005.4924
                                                                        50.2504
        37.0004
   -364310.32447   -269822.75845
                  22383585.7194                                   22383578.9964
                                                                        46.7504
        30.0004
  -1730753.02347  -1284163.18443
                  23926043.1334                                   23926039.6684
                                                                        42.7504
        22.7504
  -1636107.44947  -1210377.64845
                  22917402.6174                                   22917399.4064
                                                                        44.7504
        32.5004
 09 10 24 23 15 30.0000000  0  8G02G04G05G10G13G23G25G29
  -1063037.22348   -789679.76647
                  20382594.9064                                   20382589.4774
                                                                        52.0004
        43.5004
   -216923.62948   -162886.93446
                  21681510.6724                                   21681507.6254
                                                                        49.7504
        38.0004
  -2138094.72347  -1588887.85245
                  23268895.6484                                   23268891.7154
                                                                        45.0004
        31.2504
  -2071049.69947  -1544275.11745
                  22354229.0234                                   22354225.5824
                                                                        47.5004
        34.5004
  -1225520.40248   -910279.68446
                  21193339.6094                                   21193335.4304
                                                                        50.0004
        36.7504
   -399139.54747   -296962.39145
                  22376957.7734                                   22376951.2344
                                                                        47.5004
        30.2504
  -1913202.84047  -1426331.82444
                  23891323.3284                                   23891320.6334
                                                                        42.0004
        25.2504
  -1807194.28147  -1343691.98845
                  22884845.7504                                   22884843.0744
                                                                        44.2504
        33.5004
 09 10 24 23 16  0.0000000  0  8G02G04G05G10G13G23G25G29
  -1160684.28548   -865768.37147
                  20364013.1024                                   20364007.7074
                                                                        52.2504
        43.0004
   -234124.38348   -176290.10946
                  21678237.4384                                   21678234.5984
                                                                        50.5004
        37.5004
  -2341717.27047  -1747554.75445
                  23230147.3914                                   23230144.4144
                                                                        44.2504
        31.7504
  -2267477.71548  -1697335.91845
                  22316849.5084                                   22316846.4884
                                                                        48.0004
        34.7504
  -1338374.59848   -998217.91046
                  21171864.0314                                   21171860.2544
                                                                        50.0004
        37.2504
   -433099.24247   -323424.48445
                  22370495.1564                                   22370488.9144
                                                                        47.2504
        31.5004
  -2094969.78547  -1567968.39844
                  23856734.9614                                   23856731.5944
                                                                        42.5004
        24.2504
  -1977483.96147  -1476385.16845
                  22852440.4774                                   22852437.6844
                                                                        44.5004
        33.5004
 09 10 24 23 16 30.0000000  0  8G02G04G05G10G13G23G25G29
  -1257403.06648   -941133.63347
                  20345608.3284                                   20345602.7274
                                                                        53.0004
        43.2504
   -250586.30148   -189117.61346
                  21675105.0084                                   21675101.7304
                                                                        50.5004
        37.7504
  -2544776.37147  -1905782.54345
                  23191506.4224                                   23191503.3954
                                                                        45.5004
        33.0004
  -2463237.31647  -1849875.85945
                  22279597.9224                                   22279594.4064
                                                                        47.7504
        34.2504
  -1450216.21948  -1085367.05946
                  21150581.3204                                   21150576.8634
                                                                        50.7504
        36.7504
   -466202.16847   -349218.96545
                  22364195.7504                                   22364189.6684
                                                                        47.2504
        31.2504
  -2276062.37547  -1709079.47343
                  23822274.0234                                   23822271.0594
                                                                        42.0004
        23.0004
  -2146985.07047  -1608463.89145
                  22820185.7584                                   22820182.6684
                                                                        45.5004
        34.0004
 09 10 24 23 17  0.0000000  0  8G02G04G05G10G13G23G25G29
  -1353203.54348  -1015783.31247
                  20327378.1954                                   20327372.6214
                                                                        52.5004
        43.7504
   -266321.68048   -201378.99246
                  21672110.2814                                   21672107.3874
                                                                        50.0004
        38.2504
  -2747280.41447  -2063577.86345
                  23152971.3134                                   23152968.2194
                                                                        45.0004
        33.2504
  -2658336.11748  -2001900.89145
                  22242471.6644                                   22242468.8164
                                                                        48.0004
        35.5004
  -1561055.69948  -1171735.35946
                  21129489.0944                                   21129485.0164
                                                                        49.2504
        36.7504
   -498460.80547   -374355.58645
                  22358057.4454                                   22358051.1214
                                                                        46.0004
        32.0004
  -2456487.93046  -1849670.65244
                  23787939.7814                                   23787937.2584
                                                                        40.2504
        25.2504
  -2315705.75447  -1739934.48045
                  22788079.5004                                   22788075.9384
                                                                        45.0004
        35.0004
 09 10 24 23 17 30.0000000  0  8G02G04G05G10G13G23G25G29
  -1448096.11348  -1089725.58647
                  20309320.6564                                   20309315.2974
                                                                        52.2504
        43.2504
   -281343.02348   -213083.98846
                  21669252.1174                                   21669249.0124
                                                                        50.7504
        37.5004
  -2949237.92647  -2220947.29745
                  23114540.3284                                   23114537.1954
                                                                        46.0004
        34.0004
  -2852782.85548  -2153417.76645
                  22205469.6174                                   22205466.5664
                                                                        48.0004
        34.5004
  -1670903.34448  -1257330.82446
                  21108585.6334                                   21108581.4804
                                                                        50.5004
        36.5004
   -529887.81647   -398844.16845
                  22352077.2194                                   22352071.1374
                                                                        47.7504
        32.2504
  -2636254.30546  -1989748.18043
                  23753731.3364                                   23753728.6334
                                                                        40.2504
        22.5004
  -2483654.33647  -1870803.46545
                  22756119.5554                                   22756116.5164
                                                                        45.5004
        34.0004
 09 10 24 23 18  0.0000000  0  8G02G04G05G10G13G23G25G29
  -1542089.99248  -1162967.58247
                  20291434.1254                                   20291428.7464
                                                                        52.0004
        44.0004
   -295661.66048   -224241.39546
                  21666527.1884                                   21666524.0474
                                                                        50.5004
        37.5004
  -3150656.54347  -2377896.83645
                  23076211.5314                                   23076208.0164
                                                                        45.7504
        34.5004
  -3046585.08648  -2304432.45345
                  22168590.5084                                   22168587.1214
                                                                        48.0004
        34.5004
  -1779768.33248  -1342160.64546
                  21087869.6094                                   21087865.3204
                                                                        49.5004
        36.7504
   -560494.94148   -422693.86345
                  22346253.1644                                   22346247.0704
                                                                        48.5004
        32.2504
  -2815368.68446  -2129317.71943
                  23719647.2194                                   23719643.5824
                                                                        41.0004
        22.5004
  -2650837.96947  -2001076.39845
                  22724305.4614                                   22724302.1954
                                                                        44.7504
        32.5004
 09 10 24 23 18 30.0000000  0  8G02G04G05G10G13G23G25G29
    -59774.50848     -7916.52047
                  20573509.4844                                   20573503.7114
                                                                        51.7504
        43.0004
   1266127.82848    992737.39546
                  21963726.1724                                   21963723.1094
                                                                        50.2504
        37.5004
  -1776120.34047  -1306829.61345
                  23337777.5164                                   23337773.9574
                                                                        46.5004
        34.0004
  -1664327.04348  -1227348.23845
                  22431625.1954                                   22431621.5634
                                                                        48.0004
        34.0004
   -312239.06648   -198631.27346
                  21367130.8204                                   21367126.4884
                                                                        50.0004
        37.0004
    985123.64847    781684.25845
                  22640374.2584                                   22640367.9924
                                                                        46.5004
        31.7504
  -1418415.20746  -1040782.45743
                  23985478.6174                                   23985474.5744
                                                                        41.7504
        23.5004
  -1241841.46147   -903157.00045
                  22992428.8444                                   22992425.1414
                                                                        44.5004
        33.0004
 09 10 24 23 19  0.0000000  0  8G02G04G05G10G13G23G25G29
   -152006.88748    -79785.87547
                  20555958.1334                                   20555952.7934
                                                                        51.5004
        42.7504
   1253171.79348    982641.73846
                  21961260.5474                                   21961257.4804
                                                                        49.5004
        37.7504
  -1976491.65647  -1462963.09845
                  23299647.3364                                   23299644.0044
                                                                        45.5004
        32.5004
  -1856869.79348  -1377381.53145
                  22394985.6414                                   22394982.1524
                                                                        48.5004
        35.0004
   -419173.53148   -281956.76246
                  21346781.7734                                   21346777.6564
                                                                        49.5004
        37.2504
    956112.98047    759078.52045
                  22634853.8754                                   22634847.5394
                                                                        46.5004
        31.0004
  -1596254.13747  -1179358.32043
                  23951636.8364                                   23951632.7854
                                                                        42.5004
        22.7504
  -1407524.55147  -1032260.61745
                  22960900.2504                                   22960897.0514
                                                                        45.0004
        32.7504
 09 10 24 23 19 30.0000000  0  8G02G04G05G10G13G23G25G29
   -243380.13348   -150985.79747
                  20538570.3444                                   20538564.9774
                                                                        52.0004
        43.0004
   1240872.50448    973057.92246
                  21958920.1644                                   21958916.9534
                                                                        49.7504
        37.2504
  -2176358.51247  -1618703.50445
                  23261614.4384                                   23261610.6914
                                                                        45.7504
        32.5004
  -2048801.60547  -1526938.76645
                  22358461.9304                                   22358459.1254
                                                                        47.5004
        34.7504
   -525164.10248   -364546.77746
                  21326612.4224                                   21326608.2344
                                                                        49.5004
        36.7504
    927875.39547    737075.20745
                  22629480.1724                                   22629474.0084
                                                                        46.2504
        31.5004
  -1773472.86347  -1317450.81243
                  23917913.0004                                   23917909.2074
                                                                        42.2504
        22.5004
  -1572476.29347  -1160794.35245
                  22929510.5394                                   22929507.3914
                                                                        44.5004
        33.5004
 09 10 24 23 20  0.0000000  0  8G02G04G05G10G13G23G25G29
   -333901.23448   -221521.75847
                  20521344.7974                                   20521339.3484
                                                                        52.2504
        43.0004
   1229220.57448    963978.53146
                  21956703.0864                                   21956700.2464
                                                                        50.5004
        37.5004
  -2375725.50047  -1774054.37145
                  23223676.3054                                   23223672.1374
                                                                        47.2504
        33.2504
  -2240127.29747  -1676023.70345
                  22322054.1024                                   22322050.8674
                                                                        47.2504
        35.0004
   -630217.79348   -446406.75046
                  21306621.5784                                   21306616.8484
                                                                        49.0004
        37.0004
    900401.29347    715666.80545
                  22624252.0234                                   22624245.9184
                                                                        44.7504
        30.2504
  -1950075.96947  -1455063.59043
                  23884306.4614                                   23884302.7464
                                                                        42.0004
        22.7504
  -1736701.62947  -1288762.10945
                  22898259.5164                                   22898256.3714
                                                                        44.2504
        32.7504
 09 10 24 23 20 30.0000000  0  8G02G04G05G10G13G23G25G29
   -423578.87948   -291400.44547
                  20504279.6564                                   20504274.3634
                                                                        51.5004
        43.0004
   1218205.27348    955395.30146
                  21954606.4614                                   21954603.4534
                                                                        49.0004
        37.0004
  -2574599.76247  -1929021.29745
                  23185831.3984                                   23185828.1604
                                                                        47.5004
        34.5004
  -2430854.09847  -1824641.94945
                  22285759.6724                                   22285756.8594
                                                                        47.2504
        34.7504
   -734343.35548   -527543.58646
                  21286807.0084                                   21286802.4734
                                                                        49.5004
        37.0004
    873679.76247    694844.81645
                  22619166.7344                                   22619161.0704
                                                                        45.5004
        31.5004
  -2126069.75446  -1592201.58243
                  23850816.2894                                   23850812.2154
                                                                        41.5004
        22.7504
  -1900206.94547  -1416168.82845
                  22867145.3754                                   22867142.2544
                                                                        44.2504
        33.5004
 09 10 24 23 21  0.0000000  0  8G02G04G05G10G13G23G25G29
   -512427.37948   -360633.05147
                  20487372.3204                                   20487366.8094
                                                                        51.5004
        43.5004
   1207810.00848    947295.19946
                  21952628.0084                                   21952625.2584
                                                                        49.5004
        36.7504
  -2772994.00847  -2083614.17245
                  23148078.3204                                   23148074.9494
                                                                        47.2504
        35.0004
  -2620994.33647  -1972803.10945
                  22249577.5554                                   22249574.6334
                                                                        47.5004
        35.5004
   -837555.28948   -607968.52046
                  21267166.2114                                   21267162.1294
                                                                        48.7504
        37.2504
    847693.87147    674596.06345
                  22614221.9224                                   22614216.3834
                                                                        46.2504
        31.0004
  -2301466.09446  -1728873.96943
                  23817438.6024                                   23817435.6994
                                                                        40.0004
        22.2504
  -2063004.55947  -1543024.07845
                  22836166.1174                                   22836163.4774
                                                                        44.2504
        33.7504
 09 10 24 23 21 30.0000000  0  8G02G04G05G10G13G23G25G29
   -600451.47348   -429223.20747
                  20470621.9924                                   20470616.2734
                                                                        51.5004
        43.0004
   1198028.10948    939673.05546
                  21950766.8204                                   21950763.6454
                                                                        48.0004
        36.7504
  -2970910.78147  -2237834.99645
                  23110415.8674                                   23110412.3484
                                                                        47.7504
        34.5004
  -2810550.46147  -2120509.14845
                  22213505.7894                                   22213502.9494
                                                                        47.0004
        35.5004
   -939857.58248   -687684.55546
                  21247698.8914                                   21247694.9884
                                                                        48.2504
        37.0004
    822436.96947    654915.35945
                  22609416.0554                                   22609409.3714
                                                                        47.2504
        30.7504
  -2476267.12946  -1865082.46143
                  23784175.1174                                   23784171.9804
                                                                        39.5004
        23.5004
  -2225096.96147  -1669329.79745
                  22805320.9064                                   22805318.0164
                                                                        44.2504
        34.0004
 09 10 24 23 22  0.0000000  0  8G02G04G05G10G13G23G25G29
   -687661.02048   -497178.64147
                  20454026.5704                                   20454021.2344
                                                                        51.0004
        43.5004
   1188848.02048    932519.98046
                  21949019.6644                                   21949016.4884
                                                                        49.5004
        37.5004
  -3168358.12147  -2391690.01245
                  23072842.7424                                   23072839.9964
                                                                        47.7504
        34.0004
  -2999529.82847  -2267765.77345
                  22177543.7194                                   22177540.8954
                                                                        47.0004
        35.7504
  -1041260.09848   -766699.52346
                  21228402.6334                                   21228398.3634
                                                                        49.0004
        37.0004
    797896.77347    635793.11345
                  22604746.2734                                   22604739.4534
                                                                        46.2504
        30.0004
  -2650480.07046  -2000832.76244
                  23751023.7114                                   23751020.7894
                                                                        40.7504
        26.0004
  -2386492.17647  -1795092.21945
                  22774608.4454                                   22774605.6524
                                                                        45.2504
        35.0004
 09 10 24 23 22 30.0000000  0  8G02G04G05G10G13G23G25G29
   -774064.46148   -564505.98447
                  20437584.5234                                   20437578.9774
                                                                        52.2504
        43.2504
   1180258.33248    925826.86346
                  21947385.0394                                   21947381.3754
                                                                        49.0004
        37.0004
  -3365342.71547  -2545184.48045
                  23035357.8834                                   23035355.1604
                                                                        47.5004
        33.7504
  -3187939.46547  -2414578.44545
                  22141691.1954                                   22141688.1294
                                                                        47.0004
        35.5004
  -1141771.59048   -845020.14546
                  21209276.0864                                   21209271.8444
                                                                        48.7504
        37.0004
    774062.31347    617220.78544
                  22600211.0004                                   22600204.1454
                                                                        46.0004
        29.2504
  -2824110.86747  -2136129.44544
                  23717983.2584                                   23717980.1524
                                                                        42.5004
        26.5004
  -2547195.99247  -1920315.87545
                  22744027.3594                                   22744024.4964
                                                                        45.5004
        35.2504
 09 10 24 23 23  0.0000000  0  8G02G04G05G10G13G23G25G29
   -859673.34848   -631214.26247
                  20421293.7274                                   20421287.8674
                                                                        51.5004
        42.7504
   1172246.23048    919583.78546
                  21945860.4224                                   21945856.6804
                                                                        49.7504
        36.2504
  -3561873.67247  -2698325.45745
                  22997959.5634                                   22997955.8324
                                                                        47.5004
        34.2504
  -3375788.49648  -2560954.30545
                  22105944.6804                                   22105941.4104
                                                                        48.0004
        35.5004
  -1241402.72348   -922654.75846
                  21190316.7584                                   21190312.9574
                                                                        48.7504
        37.0004
    750919.75847    599187.63345
                  22595807.0944                                   22595800.2424
                                                                        45.7504
        30.7504
  -2997168.13746  -2270979.22344
                  23685051.7734                                   23685048.1994
                                                                        41.5004
        26.0004
  -2707218.16847  -2045008.42245
                  22713576.0314                                   22713572.9064
                                                                        45.5004
        34.5004
 09 10 24 23 23 30.0000000  0  8G02G04G05G10G13G23G25G29
   -944488.89548   -697304.35547
                  20405153.7424                                   20405148.0434
                                                                        52.2504
        43.0004
   1164808.28148    913788.14146
                  21944444.5554                                   21944441.1644
                                                                        49.7504
        37.2504
  -3757950.43447  -2851112.51645
                  22960647.0864                                   22960643.1804
                                                                        47.5004
        34.2504
  -3563076.12547  -2706892.76245
                  22070305.0704                                   22070301.6684
                                                                        46.7504
        35.7504
  -1340155.09048   -999604.62146
                  21171524.6804                                   21171520.8484
                                                                        49.5004
        37.0004
    728465.50447    581690.83645
                  22591533.7274                                   22591527.3834
                                                                        46.2504
        30.7504
  -3169651.25447  -2405381.77744
                  23652229.6024                                   23652225.3794
                                                                        42.5004
        24.5004
  -2866557.63347  -2169169.00445
                  22683254.7034                                   22683251.2774
                                                                        44.2504
        34.0004
 09 10 24 23 24  0.0000000  0  8G02G04G05G10G13G23G25G29
  -1028520.30948   -762783.37147
                  20389163.1024                                   20389157.7344
                                                                        52.0004
        43.7504
   1157932.66848    908430.54746
                  21943136.0004                                   21943133.1024
                                                                        49.7504
        37.0004
  -3953580.69947  -3003551.66045
                  22923419.8674                                   22923415.8094
                                                                        47.7504
        33.7504
  -3749809.78548  -2852399.53146
                  22034771.3134                                   22034767.8554
                                                                        49.0004
        36.2504
  -1438038.16448  -1075877.12946
                  21152898.1484                                   21152893.9024
                                                                        49.7504
        37.2504
    706687.91047    564721.28945
                  22587389.5554                                   22587383.7464
                                                                        46.2504
        31.5004
  -3341566.54347  -2539341.79344
                  23619514.6414                                   23619511.2734
                                                                        42.2504
        26.7504
  -3025221.72347  -2292803.27345
                  22653062.0004                                   22653058.6604
                                                                        44.2504
        33.5004
 09 10 24 23 24 30.0000000  0  8G02G04G05G10G13G23G25G29
  -1111773.67648   -827656.14547
                  20373320.8524                                   20373314.8524
                                                                        52.0004
        43.2504
   1151611.80948    903505.23046
                  21941933.1804                                   21941930.2194
                                                                        49.5004
        37.0004
  -4148768.14147  -3155645.75045
                  22886277.1174                                   22886272.8714
                                                                        47.7504
        34.5004
  -3935992.85947  -2997477.27746
                  21999341.1414                                   21999337.9534
                                                                        47.7504
        36.0004
  -1535057.58248  -1151476.68746
                  21134436.2034                                   21134431.7704
                                                                        49.5004
        37.0004
    685578.88347    548272.68845
                  22583373.0394                                   22583367.0474
                                                                        46.0004
        31.2504
  -3512917.11746  -2672861.79744
                  23586907.7034                                   23586904.3014
                                                                        40.5004
        24.0004
  -3183214.48847  -2415914.49245
                  22622996.6174                                   22622993.6094
                                                                        44.5004
        33.5004
 09 10 24 23 25  0.0000000  0  8G02G04G05G10G13G23G25G29
  -1194259.97748   -891931.20747
                  20357623.9384                                   20357618.3554
                                                                        51.5004
        42.7504
   1145832.61348    899001.97346
                  21940833.7814                                   21940830.8594
                                                                        50.0004
        37.0004
  -4343521.95347  -3307401.94545
                  22849216.1094                                   22849212.7734
                                                                        47.2504
        34.7504
  -4121634.59848  -3142133.16845
                  21964015.0784                                   21964011.6134
                                                                        48.2504
        35.5004
  -1631224.63748  -1226412.05146
                  21116135.8594                                   21116131.7194
                                                                        49.5004
        37.2504
    665124.82047    532334.43045
                  22579480.3594                                   22579474.7704
                                                                        45.0004
        30.7504
  -3683711.71547  -2805948.55943
                  23554406.7814                                   23554402.8484
                                                                        42.0004
        23.0004
  -3340544.59447  -2538509.35945
                  22593057.6954                                   22593054.2584
                                                                        44.0004
        33.7504
 09 10 24 23 25 30.0000000  0  8G02G04G05G10G13G23G25G29
  -1275983.39148   -955611.77747
                  20342072.5004                                   20342066.7704
                                                                        51.2504
        42.7504
   1140588.89548    894915.94946
                  21939835.9774                                   21939832.7344
                                                                        49.7504
        36.7504
  -4537844.32447  -3458821.96145
                  22812237.7894                                   22812234.7034
                                                                        47.5004
        34.5004
  -4306737.05148  -3286368.83646
                  21928791.1564                                   21928788.0864
                                                                        48.7504
        36.5004
  -1726543.16048  -1300686.20346
                  21097997.2894                                   21097993.1024
                                                                        50.5004
        37.0004
    645319.36347    516901.59445
                  22575711.7424                                   22575705.8404
                                                                        46.0004
        30.5004
  -3853951.80546  -2938603.19943
                  23522010.3754                                   23522007.0594
                                                                        41.2504
        22.5004
  -3497213.94547  -2660589.29345
                  22563244.5164                                   22563241.2074
                                                                        44.5004
        32.7504
 09 10 24 23 26  0.0000000  0  8G02G04G05G10G13G23G25G29
  -1356946.91848  -1018700.14847
                  20326665.7344                                   20326660.2274
                                                                        52.0004
        42.5004
   1135875.59848    891243.29346
                  21938939.3834                                   21938935.6644
                                                                        49.5004
        36.0004
  -4731736.25047  -3609906.63345
                  22775341.8134                                   22775338.1024
                                                                        47.2504
        34.5004
  -4491301.38748  -3430185.21145
                  21893669.6484                                   21893666.5394
                                                                        48.7504
        35.7504
  -1821016.64848  -1374301.91046
                  21080019.7734                                   21080015.7384
                                                                        49.7504
        37.0004
    626156.81347    501969.72745
                  22572065.0634                                   22572058.6764
                                                                        45.5004
        30.0004
  -4023637.80546  -3070825.96143
                  23489720.3754                                   23489717.4064
                                                                        40.7504
        22.7504
  -3653223.66447  -2782155.25845
                  22533557.2194                                   22533553.7464
                                                                        45.0004
        33.7504
 09 10 24 23 26 30.0000000  0  8G02G04G05G10G13G23G25G29
    138260.75448    146396.73447
                  20611194.0474                                   20611188.4144
                                                                        51.0004
        42.5004
   2707099.80548   2115573.89146
                  22237932.9924                                   22237929.6644
                                                                        48.7504
        36.2504
  -3349780.37148  -2533057.86345
                  23038319.0004                                   23038315.6564
                                                                        48.0004
        35.0004
  -3099910.11748  -2345984.28946
                  22158442.6094                                   22158439.6724
                                                                        48.7504
        36.2504
   -339232.57448   -219664.95346
                  21361993.9924                                   21361989.8984
                                                                        50.2504
        36.7504
   2183044.86747   1715129.23844
                  22868330.9304                                   22868324.5744
                                                                        44.0004
        29.2504
  -2617352.70347  -1975019.41444
                  23757327.9064                                   23757324.4844
                                                                        43.0004
        25.0004
  -2233157.30147  -1675609.97745
                  22803786.6484                                   22803783.3014
                                                                        46.0004
        34.0004
 09 10 24 23 27  0.0000000  0  8G02G04G05G10G13G23G25G29
     58789.16848     84470.82047
                  20596070.9694                                   20596065.5984
                                                                        52.2504
        42.7504
   2703414.34848   2112702.12145
                  22237231.9224                                   22237228.4494
                                                                        49.0004
        35.5004
  -3542832.57848  -2683488.12945
                  23001583.0004                                   23001579.3364
                                                                        48.2504
        35.5004
  -3283418.55148  -2488977.86746
                  22123522.4844                                   22123518.7344
                                                                        48.0004
        36.0004
   -432042.79348   -291984.60546
                  21344332.4844                                   21344328.2734
                                                                        49.2504
        36.2504
   2165134.67647   1701173.25045
                  22864922.8524                                   22864916.8244
                                                                        47.2504
        30.0004
  -2785950.01247  -2106393.88744
                  23725245.0634                                   23725241.4774
                                                                        43.0004
        25.2504
  -2387868.42647  -1796164.01645
                  22774346.0004                                   22774342.9774
                                                                        46.5004
        34.5004
 09 10 24 23 27 30.0000000  0  8G02G04G05G10G13G23G25G29
    -19937.62948     23125.25847
                  20581089.9694                                   20581084.3404
                                                                        52.5004
        42.7504
   2700238.69948   2110227.59046
                  22236627.2584                                   22236623.8754
                                                                        49.0004
        36.5004
  -3735462.90648  -2833589.66845
                  22964926.2344                                   22964922.6804
                                                                        48.7504
        35.5004
  -3466396.59448  -2631558.17246
                  22088702.6954                                   22088699.1844
                                                                        48.2504
        36.0004
   -524022.46948   -363657.06246
                  21326829.4614                                   21326825.2624
                                                                        49.5004
        37.5004
   2147846.20747   1687701.70344
                  22861633.1564                                   22861627.0164
                                                                        46.2504
        29.2504
  -2954000.03947  -2237341.94944
                  23693266.2894                                   23693262.7154
                                                                        43.0004
        24.5004
  -2541928.08647  -1916210.51245
                  22745029.7584                                   22745026.5784
                                                                        46.0004
        35.2504
 09 10 24 23 28  0.0000000  0  8G02G04G05G10G13G23G25G29
    -97930.19548    -37648.13747
                  20566248.7344                                   20566242.9454
                                                                        52.5004
        43.0004
   2697559.77748   2108140.10946
                  22236117.7504                                   22236114.4534
                                                                        48.7504
        36.7504
  -3927680.25048  -2983369.41445
                  22928348.3674                                   22928344.9344
                                                                        48.5004
        35.2504
  -3648853.23448  -2773732.18046
                  22053981.8674                                   22053978.7734
                                                                        48.2504
        36.5004
   -615182.83248   -434691.12146
                  21309482.2344                                   21309478.0234
                                                                        49.7504
        37.5004
   2131165.78547   1674703.96144
                  22858458.8284                                   22858452.5274
                                                                        45.7504
        29.2504
  -3121511.32047  -2367870.12544
                  23661389.5004                                   23661386.5124
                                                                        43.5004
        26.5004
  -2695345.04347  -2035756.20745
                  22715835.3674                                   22715832.1094
                                                                        46.2504
        35.5004
 09 10 24 23 28 30.0000000  0  8G02G04G05G10G13G23G25G29
   -175195.16048    -97854.54347
                  20551545.3834                                   20551539.7034
                                                                        53.0004
        42.5004
   2695369.81648   2106433.65246
                  22235701.0234                                   22235697.4184
                                                                        48.2504
        36.0004
  -4119489.06648  -3132830.83645
                  22891848.3754                                   22891844.4844
                                                                        48.5004
        35.2504
  -3830792.92648  -2915503.40246
                  22019360.5234                                   22019357.1054
                                                                        48.0004
        37.5004
   -705529.80548   -505091.35546
                  21292289.7894                                   21292285.6094
                                                                        49.5004
        37.5004
   2115085.51647   1662173.88744
                  22855398.9454                                   22855392.8364
                                                                        45.7504
        29.5004
  -3288487.42647  -2497981.39144
                  23629614.7274                                   23629612.1134
                                                                        43.5004
        27.0004
  -2848123.53547  -2154804.39545
                  22686762.5004                                   22686759.2274
                                                                        45.7504
        35.5004
 09 10 24 23 29  0.0000000  0  8G02G04G05G10G13G23G25G29
   -251737.61748   -157497.98847
                  20536979.7894                                   20536974.2154
                                                                        52.5004
        42.5004
   2693661.45748   2105102.45346
                  22235375.4924                                   22235372.1134
                                                                        48.5004
        36.5004
  -4310891.76248  -3281975.78145
                  22855425.4064                                   22855422.4304
                                                                        48.0004
        35.0004
  -4012218.24248  -3056873.77346
                  21984836.2974                                   21984832.8594
                                                                        49.2504
        37.0004
   -795068.92648   -574862.10246
                  21275251.2504                                   21275247.0474
                                                                        49.0004
        37.0004
   2099597.28547   1650105.12544
                  22852451.5004                                   22852445.2194
                                                                        45.0004
        28.7504
  -3454930.67647  -2627677.43044
                  23597942.9844                                   23597938.7384
                                                                        44.5004
        26.2504
  -3000266.37947  -2273357.25045
                  22657810.5944                                   22657807.3204
                                                                        45.7504
        34.7504
 09 10 24 23 29 30.0000000  0  8G02G04G05G10G13G23G25G29
   -327558.31248   -216579.02747
                  20522551.6564                                   20522545.9534
                                                                        52.7504
        42.5004
   2692432.05548   2104144.46146
                  22235141.9384                                   22235138.8674
                                                                        49.5004
        36.2504
  -4501887.65247  -3430803.75445
                  22819080.1174                                   22819077.3954
                                                                        47.5004
        35.5004
  -4193127.80548  -3197842.27746
                  21950410.0864                                   21950407.2074
                                                                        48.0004
        36.2504
   -883800.92648   -644003.90646
                  21258365.8914                                   21258361.5004
                                                                        48.0004
        37.2504
   2084698.36747   1638495.55144
                  22849616.3204                                   22849610.7424
                                                                        44.7504
        29.2504
  -3620839.44547  -2756956.98044
                  23566370.7504                                   23566367.0004
                                                                        43.5004
        24.7504
  -3151772.15247  -2391413.65245
                  22628979.7894                                   22628976.7894
                                                                        46.5004
        34.7504
 09 10 24 23 30  0.0000000  0  8G02G04G05G10G13G23G25G29
   -402665.65248   -275104.16847
                  20508259.3984                                   20508253.2974
                                                                        51.7504
        42.5004
   2691671.35948   2103551.66445
                  22234996.7274                                   22234993.3674
                                                                        49.5004
        35.5004
  -4692482.56648  -3579319.30946
                  22782811.5234                                   22782808.0664
                                                                        48.5004
        36.5004
  -4373527.59048  -3338413.53946
                  21916081.1414                                   21916078.4184
                                                                        49.0004
        36.5004
   -971734.12148   -712523.28146
                  21241632.5314                                   21241628.5744
                                                                        49.2504
        36.7504
   2070378.12947   1627336.90644
                  22846890.6254                                   22846885.2734
                                                                        45.5004
        29.0004
  -3786219.07847  -2885824.20344
                  23534900.0784                                   23534895.9304
                                                                        42.7504
        24.0004
  -3302646.87547  -2508978.32845
                  22600269.7034                                   22600266.2154
                                                                        46.0004
        34.7504
 09 10 24 23 30 30.0000000  0  8G02G04G05G10G13G23G25G29
   -477064.24648   -333076.96947
                  20494101.4614                                   20494095.7664
                                                                        52.5004
        42.5004
   2691372.93448   2103319.15245
                  22234939.9224                                   22234936.7774
                                                                        48.7504
        35.5004
  -4882679.21147  -3727524.50046
                  22746618.3834                                   22746614.9654
                                                                        47.5004
        36.5004
  -4553420.10948  -3478589.52046
                  21881848.8834                                   21881845.5744
                                                                        48.5004
        36.0004
  -1058873.39848   -780424.03146
                  21225050.6644                                   21225046.4534
                                                                        49.5004
        37.0004
   2056629.60247   1616623.73844
                  22844275.0554                                   22844269.1484
                                                                        46.0004
        29.7504
  -3951071.73847  -3014280.76244
                  23503529.8834                                   23503525.9184
                                                                        42.2504
        25.5004
  -3452893.32847  -2626053.45745
                  22571678.1334                                   22571675.1454
                                                                        47.0004
        35.0004
 09 10 24 23 31  0.0000000  0  8G02G04G05G10G13G23G25G29
   -550754.85948   -390498.09847
                  20480078.6024                                   20480072.7114
                                                                        52.5004
        42.7504
   2691534.59448   2103445.18045
                  22234970.8984                                   22234967.5824
                                                                        49.0004
        35.7504
  -5072475.52747  -3875417.77346
                  22710501.5474                                   22710497.9224
                                                                        47.7504
        36.5004
  -4732803.78548  -3618369.00046
                  21847713.3524                                   21847709.9494
                                                                        48.2504
        36.5004
  -1145219.44548   -847706.68046
                  21208619.6564                                   21208615.3444
                                                                        49.7504
        37.2504
   2043450.21147   1606354.07445
                  22841767.2974                                   22841761.3364
                                                                        46.7504
        30.2504
  -4115395.35547  -3142325.10244
                  23472259.9064                                   23472255.9964
                                                                        42.0004
        25.2504
  -3602509.54747  -2742637.43745
                  22543206.9144                                   22543203.6914
                                                                        46.5004
        34.5004
 09 10 24 23 31 30.0000000  0  8G02G04G05G10G13G23G25G29
   -623741.37548   -447370.60947
                  20466189.6644                                   20466183.7074
                                                                        52.2504
        42.5004
   2692150.33248   2103924.99645
                  22235088.0864                                   22235084.9384
                                                                        49.2504
        35.0004
  -5261873.39847  -4023000.53946
                  22674459.9534                                   22674456.5354
                                                                        47.0004
        36.7504
  -4911680.09848  -3757753.11346
                  21813674.2194                                   21813671.0594
                                                                        49.2504
        36.7504
  -1230776.16448   -914374.25046
                  21192338.7424                                   21192334.3554
                                                                        50.2504
        36.7504
   2030833.65247   1596522.96145
                  22839366.7344                                   22839360.4804
                                                                        47.0004
        30.2504
  -4279191.00847  -3269958.00043
                  23441090.2734                                   23441086.5044
                                                                        42.2504
        23.5004
  -3751497.48047  -2858731.85945
                  22514856.0234                                   22514852.3014
                                                                        46.7504
        34.7504
 09 10 24 23 32  0.0000000  0  8G02G04G05G10G13G23G25G29
   -696028.44948   -503698.12947
                  20452434.0314                                   20452427.7424
                                                                        52.5004
        42.7504
   2693213.93048   2104753.73846
                  22235290.3594                                   22235287.0474
                                                                        48.7504
        36.0004
  -5450875.35547  -4170274.78145
                  22638493.8444                                   22638490.4774
                                                                        47.2504
        35.7504
  -5090051.47748  -3896743.76646
                  21779731.3204                                   21779727.7894
                                                                        49.0004
        37.0004
  -1315548.08248   -980430.31246
                  21176207.6174                                   21176203.1564
                                                                        50.7504
        37.0004
   2018773.28147   1587125.25844
                  22837071.6484                                   22837065.3364
                                                                        45.5004
        28.5004
  -4442460.44147  -3397180.88344
                  23410020.9694                                   23410017.2384
                                                                        42.0004
        26.0004
  -3899859.18447  -2974338.30945
                  22486623.2274                                   22486619.6724
                                                                        47.2504
        34.7504
 09 10 24 23 32 30.0000000  0  8G02G04G05G10G13G23G25G29
   -767619.60248   -559483.41447
                  20438810.2424                                   20438804.7734
                                                                        53.2504
        43.0004
   2694719.98848   2105927.30945
                  22235577.3134                                   22235574.0514
                                                                        48.7504
        35.5004
  -5639482.64847  -4317241.50445
                  22602603.3674                                   22602600.0474
                                                                        47.5004
        35.5004
  -5267919.25048  -4035341.99246
                  21745884.2034                                   21745880.9144
                                                                        49.7504
        37.2504
  -1399539.35948  -1045878.04746
                  21160224.3364                                   21160219.6134
                                                                        50.5004
        36.7504
   2007263.18447   1578156.31644
                  22834881.0394                                   22834875.0744
                                                                        46.0004
        28.7504
  -4605204.60247  -3523994.44544
                  23379052.1174                                   23379048.2344
                                                                        43.7504
        26.2504
  -4047596.39847  -3089458.18445
                  22458509.9534                                   22458506.2544
                                                                        47.7504
        34.5004
 09 10 24 23 33  0.0000000  0  8G02G04G05G10G13G23G25G29
   -838517.07048   -614728.20347
                  20425318.9924                                   20425313.2304
                                                                        52.0004
        42.5004
   2696664.67648   2107442.65245
                  22235947.2194                                   22235944.0394
                                                                        49.2504
        35.5004
  -5827695.14547  -4463900.59446
                  22566787.7664                                   22566784.2974
                                                                        47.0004
        36.7504
  -5445282.79348  -4173547.32846
                  21712133.1094                                   21712129.8754
                                                                        48.7504
        37.2504
  -1482751.46548  -1110718.64146
                  21144389.5554                                   21144385.2074
                                                                        50.0004
        37.2504
   1996299.36347   1569613.06644
                  22832794.6644                                   22832788.5594
                                                                        44.7504
        28.2504
  -4767422.93447  -3650398.31244
                  23348183.1644                                   23348179.4144
                                                                        42.7504
        28.5004
  -4194708.64847  -3204091.04745
                  22430515.0704                                   22430511.6374
                                                                        46.5004
        35.5004
 09 10 24 23 33 30.0000000  0  8G02G04G05G10G13G23G25G29
   -908725.66848   -669436.20747
                  20411958.9774                                   20411953.3754
                                                                        52.0004
        42.2504
   2699040.88348   2109294.22345
                  22236399.2734                                   22236396.0664
                                                                        48.5004
        34.5004
  -6015515.59847  -4610254.22746
                  22531046.6724                                   22531043.1294
                                                                        46.5004
        36.5004
  -5622145.17248  -4311362.14846
                  21678477.2424                                   21678473.5124
                                                                        48.7504
        36.7504
  -1565189.90648  -1174956.38746
                  21128702.2344                                   21128697.7814
                                                                        51.0004
        37.2504
   1985874.43847   1561489.71144
                  22830810.5944                                   22830804.5824
                                                                        44.5004
        26.7504
  -4929117.50847  -3776394.00444
                  23317413.3754                                   23317409.7464
                                                                        43.2504
        28.5004
  -4341198.99247  -3318239.33645
                  22402639.2734                                   22402635.4494
                                                                        47.7504
        35.2504
 09 10 24 23 34  0.0000000  0  8G02G04G05G10G13G23G25G29
   -978247.45748   -723609.00447
                  20398729.0164                                   20398723.5904
                                                                        52.7504
        42.5004
   2701845.52048   2111479.62945
                  22236932.9384                                   22236929.1884
                                                                        48.5004
        35.0004
  -6202943.44947  -4756301.90646
                  22495380.5554                                   22495377.1804
                                                                        47.5004
        36.7504
  -5798505.89848  -4448786.08646
                  21644917.0474                                   21644913.5634
                                                                        49.7504
        36.7504
  -1646856.54348  -1238592.71946
                  21113161.2114                                   21113157.0274
                                                                        51.7504
        36.5004
   1975984.66447   1553783.38344
                  22828928.8984                                   22828922.9574
                                                                        45.0004
        26.2504
  -5090287.54347  -3901980.98844
                  23286743.8134                                   23286740.3094
                                                                        42.5004
        27.0004
  -4487066.66847  -3431902.42245
                  22374881.8054                                   22374877.9064
                                                                        47.2504
        35.7504
 09 10 24 23 34 30.0000000  0  8G02G04G05G10G13G23G25G29
  -1047084.16848   -777248.01247
                  20385629.9614                                   20385624.0634
                                                                        52.2504
        42.2504
   2705074.33248   2113995.54345
                  22237547.3674                                   22237544.0594
                                                                        48.7504
        34.7504
  -6389978.35247  -4902043.39146
                  22459788.8834                                   22459785.8554
                                                                        47.0004
        37.0004
  -5974364.39848  -4585818.64546
                  21611451.7974                                   21611448.3484
                                                                        49.5004
        36.7504
  -1727753.94148  -1301629.64846
                  21097767.2894                                   21097762.7704
                                                                        51.0004
        37.0004
   1966625.37547   1546490.38344
                  22827148.5004                                   22827142.0044
                                                                        45.2504
        28.7504
  -5250932.57046  -4027158.89144
                  23256174.0314                                   23256170.6374
                                                                        41.2504
        27.0004
  -4632311.57447  -3545080.23445
                  22347242.3054                                   22347238.8914
                                                                        47.0004
        35.2504
 09 10 24 23 35  0.0000000  0  8G02G04G05G10G13G23G25G29
  -1115239.40648   -830355.99247
                  20372660.0704                                   20372654.8634
                                                                        51.7504
        42.2504
   2708722.59848   2116838.32045
                  22238241.6094                                   22238238.6644
                                                                        48.0004
        34.2504
  -6576621.34047  -5047479.46546
                  22424272.1254                                   22424268.6524
                                                                        47.5004
        36.5004
  -6149721.91848  -4722460.83246
                  21578082.6884                                   21578079.3404
                                                                        49.7504
        37.2504
  -1807885.46548  -1364069.80146
                  21082518.6174                                   21082514.2734
                                                                        51.7504
        37.0004
   1957791.50047   1539606.83645
                  22825467.2274                                   22825461.0784
                                                                        45.2504
        30.0004
  -5411052.77046  -4151927.80144
                  23225704.4304                                   23225700.8134
                                                                        41.0004
        24.5004
  -4776935.09047  -3657773.86745
                  22319721.3754                                   22319718.0704
                                                                        47.0004
        35.0004
 09 10 24 23 35 30.0000000  0  8G02G04G05G10G13G23G25G29
    392704.43448    344665.18447
                  20659612.7344                                   20659606.7154
                                                                        52.2504
        43.2504
   4288204.02048   3347603.01645
                  22538807.0944                                   22538803.9924
                                                                        48.2504
        35.5004
  -5187448.71547  -3965007.29346
                  22688622.4224                                   22688618.8204
                                                                        47.7504
        37.2504
  -4749154.76248  -3631109.77346
                  21844602.0314                                   21844598.4804
                                                                        49.2504
        37.2504
   -311832.37148   -198314.15246
                  21367207.8364                                   21367203.3914
                                                                        51.0004
        36.7504
   3524896.52047   2760727.57444
                  23123677.4064                                   23123671.1094
                                                                        45.5004
        29.5004
  -3995224.79346  -3048685.19944
                  23495126.4454                                   23495123.4024
                                                                        40.5004
        25.2504
  -3345514.43747  -2542381.12145
                  22592111.8914                                   22592107.9804
                                                                        47.2504
        35.2504
 09 10 24 23 36  0.0000000  0  8G02G04G05G10G13G23G25G29
    325902.59048    292611.80147
                  20646900.5704                                   20646894.9184
                                                                        51.2504
        42.0004
   4292676.83248   3351088.29745
                  22539658.0944                                   22539654.8524
                                                                        48.5004
        34.7504
  -5373310.38347  -4109834.51646
                  22653254.6724                                   22653250.9264
                                                                        47.5004
        36.7504
  -4923512.04748  -3766972.53946
                  21811422.1334                                   21811419.5744
                                                                        49.0004
        37.7504
   -390441.46548   -259567.97746
                  21352248.9304                                   21352244.4844
                                                                        51.0004
        36.7504
   3517097.61347   2754650.50445
                  23122193.6254                                   23122187.4734
                                                                        45.5004
        30.0004
  -4154296.66446  -3172637.25444
                  23464856.3204                                   23464852.4104
                                                                        40.5004
        26.0004
  -3488897.16447  -2654107.91845
                  22564826.7894                                   22564822.9224
                                                                        47.2504
        35.2504
 09 10 24 23 36 30.0000000  0  8G02G04G05G10G13G23G25G29
    259776.82048    241085.22747
                  20634317.4694                                   20634311.2854
                                                                        51.7504
        42.0004
   4297558.48847   3354892.16845
                  22540586.9144                                   22540584.1254
                                                                        47.5004
        34.7504
  -5558778.85947  -4254355.41846
                  22617960.4224                                   22617957.4184
                                                                        47.5004
        36.7504
  -5097366.57448  -3902443.53146
                  21778338.9774                                   21778335.8714
                                                                        49.7504
        37.7504
   -468290.26248   -320229.37946
                  21337435.2034                                   21337430.7274
                                                                        51.0004
        36.5004
   3509812.19547   2748973.53544
                  23120806.5314                                   23120800.6914
                                                                        44.5004
        29.2504
  -4312841.27047  -3296178.55544
                  23434687.0554                                   23434682.3594
                                                                        42.2504
        24.0004
  -3631657.25847  -2765349.53145
                  22537660.2584                                   22537656.4654
                                                                        46.7504
        35.5004
 09 10 24 23 37  0.0000000  0  8G02G04G05G10G13G23G25G29
    194320.17248    190080.07047
                  20621861.1644                                   20621855.6684
                                                                        52.5004
        42.7504
   4302840.57047   3359008.06645
                  22541592.3594                                   22541589.5124
                                                                        47.5004
        35.5004
  -5743858.36348  -4398573.18046
                  22582741.0704                                   22582737.9454
                                                                        48.5004
        37.0004
  -5270722.88348  -4037526.34846
                  21745350.4534                                   21745347.0824
                                                                        49.5004
        38.5004
   -545385.99648   -380303.97346
                  21322764.1334                                   21322759.8874
                                                                        50.5004
        36.7504
   3503031.31347   2743689.68844
                  23119516.0784                                   23119510.4494
                                                                        43.7504
        28.5004
  -4470862.20747  -3419311.78144
                  23404616.7114                                   23404611.7774
                                                                        43.2504
        27.7504
  -3773798.73047  -2876109.08645
                  22510611.8054                                   22510608.3204
                                                                        46.5004
        35.0004
 09 10 24 23 37 30.0000000  0  8G02G04G05G10G13G23G25G29
    129526.04348    139591.16847
                  20609531.3204                                   20609525.5234
                                                                        51.2504
        42.5004
   4308514.66047   3363429.39845
                  22542672.3594                                   22542669.3984
                                                                        47.0004
        34.0004
  -5928553.19548  -4542491.23046
                  22547595.5554                                   22547591.3444
                                                                        48.5004
        37.7504
  -5443585.14848  -4172224.12146
                  21712455.6254                                   21712452.4224
                                                                        50.2504
        37.5004
   -621735.51248   -439797.09446
                  21308235.2734                                   21308231.0234
                                                                        50.5004
        36.2504
   3496746.08247   2738792.03144
                  23118320.1644                                   23118314.6604
                                                                        43.2504
        26.7504
  -4628363.62947  -3542040.18044
                  23374644.8594                                   23374640.2854
                                                                        42.2504
        26.7504
  -3915326.40647  -2986390.40245
                  22483680.1804                                   22483676.7034
                                                                        47.0004
        35.5004
 09 10 24 23 38  0.0000000  0  8G02G04G05G10G13G23G25G29
     65393.75448     89617.99247
                  20597327.3524                                   20597321.5904
                                                                        52.0004
        42.7504
   4314578.69947   3368154.59445
                  22543826.1334                                   22543822.8914
                                                                        47.5004
        34.0004
  -6112861.20348  -4686107.85246
                  22512522.1484                                   22512519.2154
                                                                        48.5004
        37.7504
  -5615950.90648  -4306535.05946
                  21679655.5084                                   21679652.1094
                                                                        49.5004
        37.5004
   -697339.34848   -498709.17246
                  21293848.2974                                   21293843.9304
                                                                        50.5004
        36.5004
   3490954.31347   2734278.90244
                  23117218.0704                                   23117212.3524
                                                                        43.2504
        26.7504
  -4785343.11747  -3664361.90244
                  23344772.3364                                   23344768.9964
                                                                        42.5004
        27.2504
  -4056238.37147  -3096191.94545
                  22456865.1724                                   22456861.4774
                                                                        46.5004
        35.5004
 09 10 24 23 38 30.0000000  0  8G02G04G05G10G13G23G25G29
      1926.27748     40162.83647
                  20585249.8524                                   20585243.9844
                                                                        51.2504
        42.2504
   4321034.10248   3373184.77345
                  22545054.8364                                   22545050.9184
                                                                        48.2504
        33.7504
  -6296777.10548  -4829418.91046
                  22477524.5474                                   22477521.1054
                                                                        48.2504
        37.7504
  -5787814.96148  -4440455.03946
                  21646950.9844                                   21646947.3204
                                                                        48.7504
        38.0004
   -772194.76248   -557038.06245
                  21279603.9844                                   21279599.5474
                                                                        50.7504
        35.7504
   3485656.74247   2730150.89544
                  23116210.1254                                   23116204.3164
                                                                        44.7504
        27.0004
  -4941794.74247  -3786272.25044
                  23315000.8444                                   23314997.5744
                                                                        42.0004
        27.7504
  -4196529.09447  -3205509.38745
                  22430168.7344                                   22430165.4264
                                                                        45.5004
        35.2504
 09 10 24 23 39  0.0000000  0  8G02G04G05G10G13G23G25G29
    -60883.12948     -8779.53547
                  20573297.6564                                   20573291.9144
                                                                        51.0004
        42.5004
   4327872.77347   3378513.58645
                  22546355.9844                                   22546352.7704
                                                                        47.5004
        34.2504
  -6480305.02747  -4972427.61746
                  22442600.1254                                   22442596.9734
                                                                        47.0004
        37.2504
  -5959181.80548  -4573987.59846
                  21614341.1024                                   21614337.3554
                                                                        50.0004
        38.0004
   -846308.52348   -614789.03146
                  21265500.6884                                   21265496.3054
                                                                        50.2504
        36.2504
   3480844.59047   2726401.11744
                  23115294.6174                                   23115288.5634
                                                                        43.7504
        26.7504
  -5097722.35946  -3907774.20744
                  23285328.3914                                   23285325.3324
                                                                        41.5004
        27.5004
  -4336203.06247  -3314346.22346
                  22403589.9614                                   22403585.8524
                                                                        47.7504
        36.0004
 09 10 24 23 39 30.0000000  0  8G02G04G05G10G13G23G25G29
   -123041.57448    -57214.66447
                  20561469.6484                                   20561463.6844
                                                                        51.7504
        42.2504
   4335085.38347   3384133.76245
                  22547728.7114                                   22547725.4184
                                                                        47.5004
        33.7504
  -6663450.48847  -5115138.32446
                  22407748.4304                                   22407745.2234
                                                                        47.5004
        37.7504
  -6130056.52048  -4707136.68746
                  21581824.4144                                   21581820.9384
                                                                        50.5004
        37.7504
   -919688.84848   -671968.51246
                  21251536.7274                                   21251532.4884
                                                                        50.5004
        36.7504
   3476508.71147   2723022.47744
                  23114469.7814                                   23114463.8324
                                                                        42.7504
        27.0004
  -5253130.77347  -4028871.63344
                  23255755.3524                                   23255752.1254
                                                                        42.0004
        27.2504
  -4475265.66448  -3422706.68446
                  22377126.9144                                   22377123.3284
                                                                        48.0004
        36.0004
 09 10 24 23 40  0.0000000  0  8G02G04G05G10G13G23G25G29
   -184546.96548   -105140.91447
                  20549765.4454                                   20549759.0744
                                                                        51.7504
        42.7504
   4342673.09447   3390046.22345
                  22549172.6884                                   22549169.3834
                                                                        46.2504
        35.2504
  -6846207.71547  -5257546.49246
                  22372970.7424                                   22372967.6484
                                                                        47.5004
        37.5004
  -6300434.09448  -4839898.42646
                  21549402.7194                                   21549399.5864
                                                                        48.7504
        38.0004
   -992332.77348   -728574.17246
                  21237712.6954                                   21237708.5394
                                                                        50.2504
        36.2504
   3472649.26647   2720015.03144
                  23113734.8054                                   23113729.1564
                                                                        44.0004
        27.2504
  -5408014.67247  -4149560.37144
                  23226281.6484                                   23226278.5634
                                                                        43.0004
        27.2504
  -4613711.93447  -3530586.88345
                  22350781.7424                                   22350778.3714
                                                                        47.2504
        35.7504
 09 10 24 23 40 30.0000000  0  8G02G04G05G10G13G23G25G29
   -245401.42248   -152559.94547
                  20538185.0784                                   20538179.3364
                                                                        51.2504
        42.5004
   4350632.28947   3396248.17645
                  22550687.0554                                   22550683.8364
                                                                        47.5004
        33.5004
  -7028576.75048  -5399652.16446
                  22338267.1024                                   22338263.4064
                                                                        48.0004
        37.5004
  -6470314.17248  -4972272.52046
                  21517075.6724                                   21517072.3484
                                                                        49.7504
        38.2504
  -1064242.89548   -784608.02746
                  21224029.2504                                   21224024.9144
                                                                        50.5004
        36.0004
   3469262.15247   2717375.67644
                  23113090.2344                                   23113085.0434
                                                                        42.2504
        27.0004
  -5562373.43746  -4269839.89144
                  23196908.9064                                   23196904.9454
                                                                        40.7504
        26.7504
  -4751542.00848  -3637986.94146
                  22324553.3134                                   22324550.1804
                                                                        48.2504
        36.5004
 09 10 24 23 41  0.0000000  0  8G02G04G05G10G13G23G25G29
   -305605.55548   -199472.25047
                  20526728.4844                                   20526722.5314
                                                                        52.0004
        42.5004
   4358960.67247   3402737.79345
                  22552271.8674                                   22552268.6294
                                                                        47.2504
        33.0004
  -7210556.19547  -5541454.30146
                  22303637.6484                                   22303634.2424
                                                                        47.5004
        37.5004
  -6639694.73048  -5104257.34846
                  21484843.3284                                   21484840.0634
                                                                        48.7504
        38.5004
  -1135419.93048   -840070.66046
                  21210484.5864                                   21210480.1724
                                                                        51.0004
        36.2504
   3466344.75447   2715102.28544
                  23112535.3984                                   23112529.9804
                                                                        43.0004
        28.0004
  -5716204.65647  -4389708.34844
                  23167634.8134                                   23167631.6414
                                                                        42.7504
        27.5004
  -4888754.03147  -3744905.40645
                  22298443.2424                                   22298439.5044
                                                                        47.0004
        35.5004
 09 10 24 23 41 30.0000000  0  8G02G04G05G10G13G23G25G29
   -365163.75448   -245881.21547
                  20515394.6564                                   20515389.2894
                                                                        50.7504
        42.5004
   4367652.35247   3409510.48845
                  22553925.7194                                   22553922.8244
                                                                        47.5004
        34.0004
  -7392147.38747  -5682953.92246
                  22269081.9534                                   22269078.0394
                                                                        46.5004
        38.0004
  -6808577.46148  -5235854.17646
                  21452705.9774                                   21452702.7544
                                                                        49.2504
        38.0004
  -1205868.96148   -894966.00446
                  21197078.4144                                   21197074.0124
                                                                        50.2504
        36.2504
   3463890.67647   2713189.91844
                  23112068.4844                                   23112062.6884
                                                                        42.5004
        28.0004
  -5869510.02747  -4509167.06244
                  23138461.7424                                   23138458.5944
                                                                        43.0004
        25.5004
  -5025350.06647  -3851343.89146
                  22272449.8674                                   22272446.0474
                                                                        47.5004
        36.2504
 09 10 24 23 42  0.0000000  0  9G02G04G05G10G13G23G25G29G16
   -424078.94948   -291789.14147
                  20504183.6174                                   20504177.7464
                                                                        51.0004
        42.2504
   4376703.33247   3416563.16845
                  22555648.2504                                   22555644.9384
                                                                        47.0004
        34.0004
  -7573350.16448  -5824150.85946
                  22234600.1484                                   22234596.8134
                                                                        48.0004
        37.5004
  -6976962.50448  -5367063.25446
                  21420663.3984                                   21420659.5554
                                                                        49.5004
        38.5004
  -1275592.41448   -949295.96546
                  21183810.5784                                   21183806.3874
                                                                        50.5004
        37.0004
   3461895.41447   2711635.08244
                  23111688.8054                                   23111683.2734
                                                                        43.5004
        27.7504
  -6022289.16047  -4628215.66844
                  23109389.0864                                   23109385.4454
                                                                        43.5004
        27.5004
  -5161330.39147  -3957302.56646
                  22246573.4224                                   22246569.8594
                                                                        47.0004
        36.2504
   4531976.84056   3568480.93853
                  24265361.8834                                   24265357.2194
                                                                        39.0004
        20.0004
 09 10 24 23 42 30.0000000  0  9G02G04G05G10G13G23G25G29G16
   -482355.54748   -337199.47347
                  20493094.1024                                   20493088.4064
                                                                        51.0004
        42.0004
   4386107.39547   3423890.96545
                  22557437.8444                                   22557434.8244
                                                                        47.7504
        33.7504
  -7754167.07447  -5965047.10246
                  22200191.8834                                   22200188.7814
                                                                        47.5004
        37.5004
  -7144852.28948  -5497886.43446
                  21388714.9144                                   21388711.2814
                                                                        49.5004
        38.0004
  -1344595.30948  -1003064.46946
                  21170679.6954                                   21170675.6724
                                                                        50.2504
        36.2504
   3460352.51247   2710432.75844
                  23111395.7504                                   23111389.2704
                                                                        45.0004
        27.5004
  -6174543.98047  -4746855.77044
                  23080416.3204                                   23080412.5864
                                                                        44.2504
        26.5004
  -5296697.33248  -4062783.30146
                  22220813.6254                                   22220810.1564
                                                                        48.0004
        36.2504
   4374249.23446   3445576.34842
                  24235346.6804                                   24235343.9344
                                                                        37.0004
        17.7504
 09 10 24 23 43  0.0000000  0  9G02G04G05G10G13G23G25G29G16
   -539998.21948   -382115.84847
                  20482125.0164                                   20482119.5744
                                                                        50.5004
        43.0004
   4395858.06647   3431488.85945
                  22559293.6414                                   22559290.2854
                                                                        47.2504
        33.7504
  -7934600.34447  -6105644.38346
                  22165856.5084                                   22165853.1954
                                                                        47.0004
        38.0004
  -7312249.37548  -5628325.73046
                  21356860.6884                                   21356856.8054
                                                                        49.5004
        38.2504
  -1412882.94948  -1056275.62146
                  21157684.9304                                   21157680.4614
                                                                        51.0004
        36.0004
   3459255.26247   2709577.75044
                  23111186.7734                                   23111180.7704
                                                                        45.0004
        26.7504
  -6326276.67247  -4865089.02344
                  23051542.8444                                   23051538.5164
                                                                        43.5004
        28.0004
  -5431453.44548  -4167788.06246
                  22195170.0554                                   22195167.2304
                                                                        48.0004
        36.0004
   4217044.01646   3323078.85243
                  24205432.0084                                   24205428.6174
                                                                        38.2504
        19.7504
 09 10 24 23 43 30.0000000  0  9G02G04G05G10G13G23G25G29G16
   -597010.58248   -426541.06247
                  20471275.9774                                   20471270.0704
                                                                        51.0004
        42.2504
   4405950.72347   3439353.23845
                  22561213.9384                                   22561210.4804
                                                                        47.7504
        33.2504
  -8114650.66848  -6245943.26646
                  22131594.3914                                   22131590.3984
                                                                        48.0004
        38.0004
  -7479154.05548  -5758381.27046
                  21325099.5164                                   21325095.9104
                                                                        49.7504
        38.2504
  -1480459.01648  -1108932.30146
                  21144825.6804                                   21144821.2384
                                                                        50.2504
        36.5004
   3458597.94947   2709065.53944
                  23111062.0704                                   23111055.6294
                                                                        43.7504
        28.2504
  -6477487.64547  -4982915.80144
                  23022767.6564                                   23022764.3554
                                                                        44.0004
        28.5004
  -5565600.14847  -4272317.94546
                  22169643.3054                                   22169639.6484
                                                                        47.5004
        36.2504
   4060361.00846   3200988.22343
                  24175617.1954                                   24175612.9884
                                                                        41.0004
        21.5004
 09 10 24 23 44  0.0000000  0  9G02G04G05G10G13G23G25G29G16
    922031.39848    757128.02047
                  20760340.2034                                   20760334.1214
                                                                        51.2504
        42.0004
   5991805.98047   4675084.59445
                  22862991.9774                                   22862988.9804
                                                                        47.0004
        32.7504
  -6718887.10248  -5158335.28146
                  22397199.0944                                   22397195.7544
                                                                        49.5004
        38.2504
  -6070135.88348  -4660444.97746
                  21593227.0864                                   21593223.4144
                                                                        49.7504
        38.5004
     28100.82448     66568.87546
                  21431894.9694                                   21431890.9344
                                                                        50.2504
        36.2504
   5033801.10947   3936496.51644
                  23410812.5234                                   23410806.7894
                                                                        44.0004
        26.2504
  -5052746.55947  -3872727.94944
                  23293887.4614                                   23293883.0514
                                                                        44.2504
        27.0004
  -4123708.27748  -3148765.81246
                  22444026.1414                                   22444022.7584
                                                                        48.0004
        36.7504
   5479630.52746   4306912.55543
                  24445695.0944                                   24445690.5514
                                                                        41.5004
        21.5004
 09 10 24 23 44 30.0000000  0  9G02G04G05G10G13G23G25G29G16
    866286.25448    713690.23846
                  20749732.1804                                   20749726.2814
                                                                        51.5004
        41.7504
   6002585.20747   4683483.96145
                  22865043.5164                                   22865040.1094
                                                                        47.5004
        32.7504
  -6898156.58248  -5298025.70746
                  22363085.2274                                   22363081.1054
                                                                        48.5004
        38.5004
  -6236041.55548  -4789722.09046
                  21561655.8984                                   21561652.4224
                                                                        50.7504
        38.5004
    -38045.52048     15026.25046
                  21419308.1254                                   21419303.8524
                                                                        50.5004
        36.5004
   5034025.43047   3936671.28944
                  23410855.6884                                   23410849.1764
                                                                        44.0004
        26.0004
  -5202898.30947  -3989729.27744
                  23265314.3754                                   23265310.1914
                                                                        43.5004
        28.0004
  -4256621.78548  -3252334.76246
                  22418733.3054                                   22418729.7464
                                                                        48.0004
        36.2504
   5324007.84047   4185648.12943
                  24416080.8284                                   24416076.7854
                                                                        42.7504
        22.5004
 09 10 24 23 45  0.0000000  0  9G02G04G05G10G13G23G25G29G16
    811174.15248    670745.74247
                  20739244.4614                                   20739238.9654
                                                                        51.7504
        42.5004
   6013705.19947   4692148.88345
                  22867159.3914                                   22867156.0944
                                                                        47.7504
        33.0004
  -7077032.64148  -5437409.59046
                  22329045.7974                                   22329042.6254
                                                                        49.0004
        38.0004
  -6401444.28548  -4918607.30146
                  21530180.9144                                   21530177.1024
                                                                        50.0004
        38.5004
   -103478.07448    -35960.19546
                  21406856.5784                                   21406852.1134
                                                                        50.7504
        36.2504
   5034686.62947   3937186.39844
                  23410980.7194                                   23410975.9264
                                                                        44.0004
        27.0004
  -5352517.05547  -4106315.30944
                  23236842.2584                                   23236839.4804
                                                                        43.7504
        26.5004
  -4388915.79348  -3355420.97746
                  22393558.5634                                   22393555.1524
                                                                        48.5004
        36.7504
   5168919.18847   4064799.79743
                  24386568.9534                                   24386564.3014
                                                                        43.0004
        22.7504
 09 10 24 23 45 30.0000000  0  9G02G04G05G10G13G23G25G29G16
    756696.17648    628295.37946
                  20728877.6724                                   20728871.8484
                                                                        52.0004
        41.7504
   6025165.52047   4701078.98445
                  22869340.2894                                   22869336.7504
                                                                        47.0004
        33.0004
  -7255511.28148  -5576483.77046
                  22295082.9304                                   22295079.1454
                                                                        49.5004
        38.0004
  -6566340.26648  -5047097.64146
                  21498802.0634                                   21498798.6134
                                                                        50.0004
        39.2504
   -168196.23848    -86389.94946
                  21394540.9534                                   21394536.6914
                                                                        51.0004
        36.2504
   5035784.60947   3938041.97344
                  23411190.4384                                   23411184.4694
                                                                        45.0004
        27.2504
  -5501598.49647  -4222482.64844
                  23208473.1174                                   23208469.8754
                                                                        42.7504
        26.5004
  -4520587.11348  -3458021.98446
                  22368502.8364                                   22368498.8014
                                                                        48.2504
        36.5004
   5014368.84047   3944370.93843
                  24357158.0234                                   24357154.9414
                                                                        42.5004
        22.0004
 09 10 24 23 46  0.0000000  0  9G02G04G05G10G13G23G25G29G16
    702851.51648    586338.50447
                  20718631.3524                                   20718625.6604
                                                                        52.7504
        42.5004
   6036963.74647   4710272.40245
                  22871585.2584                                   22871582.3484
                                                                        47.2504
        32.7504
  -7433590.96948  -5715247.12146
                  22261195.2734                                   22261191.7624
                                                                        49.7504
        38.0004
  -6730728.01248  -5175191.92646
                  21467520.0234                                   21467516.7624
                                                                        49.7504
        38.5004
   -232201.00848   -136263.82445
                  21382361.4304                                   21382356.9454
                                                                        51.2504
        35.7504
   5037316.49247   3939235.64844
                  23411482.6884                                   23411475.9964
                                                                        44.7504
        27.5004
  -5650140.83647  -4338229.94944
                  23180206.6174                                   23180203.2464
                                                                        44.0004
        27.2504
  -4651634.31247  -3560136.65646
                  22343564.8754                                   22343561.5594
                                                                        47.0004
        36.0004
   4860359.33646   3824363.60243
                  24327851.5394                                   24327847.4144
                                                                        40.5004
        20.2504
 09 10 24 23 46 30.0000000  0  9G02G04G05G10G13G23G25G29G16
    649637.14548    544872.75847
                  20708505.1804                                   20708499.2504
                                                                        52.2504
        42.0004
   6049095.97747   4719726.06345
                  22873893.8594                                   22873891.1214
                                                                        47.7504
        33.0004
  -7611271.44948  -5853699.37146
                  22227383.8914                                   22227379.8914
                                                                        50.2504
        38.2504
  -6894607.92648  -5302890.53946
                  21436334.8834                                   21436331.2034
                                                                        50.7504
        38.7504
   -295495.30948   -185584.08646
                  21370316.7504                                   21370312.7774
                                                                        51.0004
        36.2504
   5039277.37947   3940763.60944
                  23411855.0394                                   23411850.1374
                                                                        44.5004
        25.5004
  -5798144.13347  -4453557.29744
                  23152042.5704                                   23152039.0514
                                                                        45.0004
        28.5004
  -4782057.84048  -3661765.36346
                  22318746.2424                                   22318742.6484
                                                                        48.5004
        37.0004
   4706890.34446   3704777.41443
                  24298646.8834                                   24298643.4884
                                                                        39.7504
        21.0004
 09 10 24 23 47  0.0000000  0  9G02G04G05G10G13G23G25G29G16
    597051.85948    503897.21947
                  20698498.3594                                   20698492.6994
                                                                        52.7504
        42.0004
   6061559.82047   4729438.13345
                  22876266.0554                                   22876262.8674
                                                                        47.2504
        33.5004
  -7788551.61748  -5991839.74246
                  22193648.4694                                   22193645.0084
                                                                        50.2504
        38.5004
  -7057978.39848  -5430192.16846
                  21405246.6254                                   21405243.0314
                                                                        51.0004
        39.5004
   -358080.68048   -234351.91846
                  21358407.3674                                   21358402.6024
                                                                        51.2504
        36.5004
   5041664.74247   3942623.89544
                  23412309.1414                                   23412304.3244
                                                                        44.5004
        27.2504
  -5945606.34447  -4568463.03144
                  23123982.1254                                   23123978.1564
                                                                        45.0004
        28.7504
  -4911856.43747  -3762907.10946
                  22294046.4614                                   22294042.9694
                                                                        47.7504
        36.0004
   4553964.10946   3585614.08643
                  24269545.5634                                   24269542.1134
                                                                        39.2504
        20.7504
 09 10 24 23 47 30.0000000  0 10G02G04G05G10G13G23G25G29G16G07
    545093.66848    463410.32447
                  20688611.3204                                   20688605.3554
                                                                        52.0004
        42.2504
   6074351.59847   4739405.72345
                  22878699.7584                                   22878697.0274
                                                                        47.5004
        32.5004
  -7965430.41048  -6129667.34046
                  22159989.2664                                   22159985.7664
                                                                        50.2504
        38.7504
  -7220838.84448  -5557096.38746
                  21374255.3364                                   21374251.3984
                                                                        50.7504
        39.5004
   -419959.84048   -282569.46145
                  21346632.1024                                   21346627.6024
                                                                        50.7504
        35.7504
   5044473.92647   3944812.92644
                  23412843.7664                                   23412838.0514
                                                                        44.2504
        26.0004
  -6092526.63747  -4682946.37544
                  23096024.3594                                   23096020.5044
                                                                        45.7504
        29.0004
  -5041030.03148  -3863561.85246
                  22269465.4694                                   22269461.8674
                                                                        48.5004
        36.0004
   4401581.50046   3466874.26643
                  24240548.3754                                   24240544.3954
                                                                        40.2504
        19.2504
   6069844.66056   4744413.72753
                  24457998.4454                                   24457995.3984
                                                                        40.0004
        21.5004
 09 10 24 23 48  0.0000000  0 10G02G04G05G10G13G23G25G29G16G07
    493757.14148    423407.83646
                  20678842.1174                                   20678836.5204
                                                                        52.0004
        41.7504
   6087464.89847   4749623.89545
                  22881195.1954                                   22881192.1804
                                                                        47.2504
        32.5004
  -8141910.79348  -6267184.50046
                  22126406.2734                                   22126402.5984
                                                                        49.5004
        38.5004
  -7383192.01248  -5683605.30946
                  21343360.1254                                   21343356.5824
                                                                        50.7504
        39.0004
   -481138.07048   -330240.80146
                  21334990.3444                                   21334986.0124
                                                                        50.0004
        36.2504
   5047698.26247   3947325.38744
                  23413457.1644                                   23413451.3284
                                                                        43.7504
        25.7504
  -6238907.79347  -4797009.74244
                  23068168.6724                                   23068164.8634
                                                                        45.5004
        29.2504
  -5169581.44548  -3963731.77346
                  22245003.0164                                   22244999.2854
                                                                        48.5004
        36.7504
   4249740.61746   3348556.62143
                  24211654.1024                                   24211649.4574
                                                                        40.2504
        18.5004
   5882213.02046   4598207.19143
                  24422292.8674                                   24422289.7624
                                                                        40.0004
        19.2504
 09 10 24 23 48 30.0000000  0 10G02G04G05G10G13G23G25G29G16G07
    443038.99648    383887.19947
                  20669190.5554                                   20669184.7274
                                                                        52.2504
        42.2504
   6100894.85547   4760088.76245
                  22883750.7814                                   22883747.7584
                                                                        46.5004
        32.0004
  -8317993.26648  -6404391.59446
                  22092898.9144                                   22092894.7854
                                                                        50.0004
        38.5004
  -7545038.58648  -5809719.51246
                  21312561.6564                                   21312558.5164
                                                                        51.0004
        38.7504
   -541619.22348   -377368.97346
                  21323480.9614                                   21323477.0944
                                                                        50.5004
        36.2504
   5051332.71547   3950157.44144
                  23414149.1094                                   23414143.2854
                                                                        44.5004
        25.5004
  -6384749.70347  -4910652.75044
                  23040415.3754                                   23040412.2774
                                                                        45.5004
        29.2504
  -5297512.36348  -4063418.21146
                  22220658.4924                                   22220654.8834
                                                                        48.5004
        37.0004
   4098440.96146   3230660.66443
                  24182862.8444                                   24182858.0984
                                                                        41.5004
        19.0004
   5694887.18046   4452238.94143
                  24386646.5784                                   24386643.2894
                                                                        41.0004
        22.0004
 09 10 24 23 49  0.0000000  0 10G02G04G05G10G13G23G25G29G16G07
    392934.62548    344844.83246
                  20659656.3914                                   20659650.7034
                                                                        52.7504
        41.7504
   6114636.12947   4770796.19945
                  22886366.1174                                   22886362.9694
                                                                        47.0004
        31.7504
  -8493679.15248  -6541289.63346
                  22059467.1954                                   22059463.4734
                                                                        49.7504
        38.5004
  -7706380.26248  -5935440.26246
                  21281859.3984                                   21281855.9264
                                                                        50.0004
        39.2504
   -601408.41848   -423957.96546
                  21312103.5394                                   21312099.3754
                                                                        50.5004
        36.0004
   5055371.07047   3953304.19144
                  23414916.9844                                   23414911.2274
                                                                        43.0004
        25.2504
  -6530054.62947  -5023877.43745
                  23012765.2894                                   23012761.4924
                                                                        44.5004
        30.0004
  -5424823.98448  -4162622.06246
                  22196431.5474                                   22196428.2894
                                                                        48.5004
        36.5004
   3947681.75446   3113185.97743
                  24154174.3674                                   24154169.7114
                                                                        41.2504
        18.5004
   5507867.19547   4306509.14144
                  24351058.1094                                   24351054.8324
                                                                        42.0004
        24.5004
 09 10 24 23 49 30.0000000  0 10G02G04G05G10G13G23G25G29G16G07
    343447.81648    306283.68447
                  20650238.8444                                   20650233.5234
                                                                        52.0004
        42.0004
   6128691.00847   4781748.04345
                  22889040.4224                                   22889037.2304
                                                                        46.0004
        31.5004
  -8668962.66448  -6677874.10546
                  22026111.8204                                   22026107.8244
                                                                        50.0004
        39.0004
  -7867210.85548  -6060762.78946
                  21251254.7034                                   21251250.7734
                                                                        50.7504
        39.7504
   -660501.61348   -470004.62946
                  21300858.5234                                   21300854.3554
                                                                        50.0004
        36.2504
   5059815.30947   3956767.28544
                  23415763.6174                                   23415757.1644
                                                                        43.2504
        25.2504
  -6674815.66447  -5136678.36744
                  22985218.4064                                   22985214.1884
                                                                        45.2504
        28.0004
  -5551510.83648  -4261339.09046
                  22172324.1024                                   22172320.3914
                                                                        49.5004
        36.2504
   3797469.14847   2996137.13743
                  24125590.2974                                   24125585.8714
                                                                        42.0004
        20.5004
   5321160.10947   4161023.09044
                  24315529.2274                                   24315525.8594
                                                                        42.7504
        26.7504
 09 10 24 23 50  0.0000000  0 10G02G04G05G10G13G23G25G29G16G07
    294579.60248    268204.55947
                  20640939.6174                                   20640934.0984
                                                                        52.5004
        42.0004
   6143059.36347   4792944.13745
                  22891774.7664                                   22891771.8134
                                                                        46.7504
        31.7504
  -8843839.65248  -6814141.84846
                  21992833.6564                                   21992829.8364
                                                                        49.2504
        38.5004
  -8027526.40648  -6185683.97746
                  21220747.6484                                   21220744.0514
                                                                        51.0004
        39.5004
   -718898.17248   -515508.44546
                  21289746.0314                                   21289742.0234
                                                                        49.5004
        36.0004
   5064664.51647   3960545.89544
                  23416686.0704                                   23416680.3794
                                                                        43.7504
        26.0004
  -6819028.58647  -5249052.10944
                  22957775.2734                                   22957771.4734
                                                                        44.0004
        27.0004
  -5677569.32448  -4359566.48046
                  22148336.2194                                   22148332.4774
                                                                        49.2504
        36.5004
   3647807.80546   2879517.98443
                  24097110.2194                                   24097106.8324
                                                                        41.0004
        22.0004
   5134771.50847   4015785.28544
                  24280060.1954                                   24280056.6954
                                                                        43.2504
        27.0004
 09 10 24 23 50 30.0000000  0 10G02G04G05G10G13G23G25G29G16G07
    246330.98448    230608.22346
                  20631758.4384                                   20631752.6254
                                                                        52.0004
        41.7504
   6157740.98047   4804384.34845
                  22894569.0394                                   22894565.6454
                                                                        46.0004
        32.5004
  -9018306.19148  -6950089.71946
                  21959633.4534                                   21959630.0594
                                                                        49.5004
        39.0004
  -8187323.14848  -6310200.90646
                  21190339.3834                                   21190335.6844
                                                                        51.5004
        39.0004
   -776597.73848   -560469.12945
                  21278766.1804                                   21278761.8874
                                                                        50.0004
        35.5004
   5069918.09847   3964639.55944
                  23417685.4224                                   23417679.8594
                                                                        43.0004
        26.0004
  -6962689.68047  -5360995.80944
                  22930437.5164                                   22930434.0164
                                                                        43.5004
        27.2504
  -5802996.24248  -4457301.75446
                  22124468.4064                                   22124464.8954
                                                                        49.7504
        36.5004
   3498701.53146   2763331.29743
                  24068735.8914                                   24068732.9844
                                                                        40.7504
        21.2504
   4948705.55147   3870798.76644
                  24244652.8364                                   24244649.5084
                                                                        43.0004
        26.2504
 09 10 24 23 51  0.0000000  0 10G02G04G05G10G13G23G25G29G16G07
    198699.97748    193493.15246
                  20622694.4144                                   20622689.0124
                                                                        52.5004
        41.7504
   6172732.79747   4816066.25845
                  22897421.6174                                   22897418.7154
                                                                        45.2504
        31.7504
  -9192361.55148  -7085717.22746
                  21926511.9304                                   21926508.1094
                                                                        49.0004
        39.0004
  -8346600.87548  -6434313.40646
                  21160029.7344                                   21160025.9024
                                                                        51.5004
        39.7504
   -833602.14848   -604888.13745
                  21267918.3524                                   21267914.6054
                                                                        48.0004
        35.7504
   5075572.52747   3969045.58644
                  23418761.7734                                   23418755.9924
                                                                        43.5004
        26.0004
  -7105797.93747  -5472508.72344
                  22903204.9064                                   22903200.8634
                                                                        44.0004
        27.0004
  -5927791.04748  -4554544.46546
                  22100720.5164                                   22100716.8484
                                                                        49.7504
        36.5004
   3350151.70746   2647578.25043
                  24040469.1024                                   24040464.2934
                                                                        40.0004
        22.2504
   4762964.73846   3726065.72344
                  24209307.3284                                   24209304.8954
                                                                        40.7504
        25.7504
 09 10 24 23 51 30.0000000  0 10G02G04G05G10G13G23G25G29G16G07
    151686.89848    156859.58246
                  20613748.1564                                   20613742.5594
                                                                        52.2504
        41.7504
   6188034.31347   4827989.50045
                  22900333.1954                                   22900330.2734
                                                                        44.5004
        31.5004
  -9366002.36748  -7221021.71546
                  21893469.2894                                   21893465.3714
                                                                        49.0004
        38.7504
  -8505355.78948  -6558018.50846
                  21129819.8204                                   21129816.2464
                                                                        51.0004
        39.2504
   -889912.09448   -648766.03545
                  21257202.9304                                   21257199.1724
                                                                        48.7504
        35.5004
   5081626.43047   3973762.99244
                  23419913.6954                                   23419908.2424
                                                                        42.0004
        26.2504
  -7248350.11747  -5583588.37544
                  22876078.1564                                   22876073.9804
                                                                        44.0004
        28.0004
  -6051951.39848  -4651292.79746
                  22077093.8524                                   22077090.1564
                                                                        49.5004
        36.7504
   3202161.68446   2532261.43043
                  24012306.9534                                   24012303.0984
                                                                        40.2504
        22.5004
   4577552.77746   3581588.93044
                  24174024.2664                                   24174021.7704
                                                                        39.7504
        25.2504
 09 10 24 23 52  0.0000000  0 10G02G04G05G10G13G23G25G29G16G07
    105287.37548    120704.10947
                  20604918.7274                                   20604912.6214
                                                                        52.0004
        42.2504
   6203639.49247   4840149.35245
                  22903303.0394                                   22903299.8754
                                                                        45.2504
        31.0004
  -9539230.37948  -7356004.54346
                  21860504.8134                                   21860500.9414
                                                                        49.2504
        39.0004
  -8663589.83248  -6681317.75446
                  21099708.4304                                   21099705.0704
                                                                        50.5004
        39.5004
   -945531.75048   -692106.05945
                  21246619.2814                                   21246615.3634
                                                                        48.5004
        35.7504
   5088073.82847   3978786.90643
                  23421140.6024                                   23421134.7154
                                                                        42.0004
        23.2504
  -7390347.75047  -5694235.89144
                  22849057.4304                                   22849053.4804
                                                                        44.5004
        28.5004
  -6175479.17248  -4747548.21146
                  22053586.9924                                   22053583.2774
                                                                        48.5004
        36.5004
   3054730.46946   2417380.02343
                  23984252.0314                                   23984247.6604
                                                                        39.2504
        22.0004
   4392469.96146   3437368.63343
                  24138804.6024                                   24138801.6644
                                                                        39.7504
        22.2504
 09 10 24 23 52 30.0000000  0 10G02G04G05G10G13G23G25G29G16G07
     59498.89148     85024.77347
                  20596205.4384                                   20596199.7424
                                                                        51.0004
        42.5004
   6219544.79347   4852543.02745
                  22906329.6884                                   22906326.6214
                                                                        46.2504
        31.0004
  -9712045.25048  -7490665.45346
                  21827619.3524                                   21827615.6294
                                                                        50.0004
        39.0004
  -8821303.45748  -6804211.46146
                  21069696.6954                                   21069693.3284
                                                                        50.5004
        40.0004
  -1000464.21948   -734910.59445
                  21236165.9924                                   21236161.6564
                                                                        49.2504
        35.5004
   5094910.67646   3984114.35244
                  23422441.2344                                   23422436.2034
                                                                        41.2504
        24.2504
  -7531790.50447  -5804451.07844
                  22822141.2974                                   22822137.7344
                                                                        44.5004
        28.7504
  -6298374.76248  -4843311.00046
                  22030200.6884                                   22030197.5434
                                                                        48.5004
        36.5004
   2907858.29746   2302934.16043
                  23956302.5864                                   23956298.9024
                                                                        40.0004
        21.7504
   4207717.08246   3293405.26643
                  24103647.5784                                   24103644.0634
                                                                        40.5004
        22.7504
 09 10 24 23 53  0.0000000  0 10G02G04G05G10G13G23G25G29G16G07
   1589742.24648   1277422.18047
                  20887401.1024                                   20887395.1884
                                                                        51.7504
        42.0004
   7811168.00847   6092768.85245
                  23209205.5944                                   23209202.6684
                                                                        45.2504
        31.5004
  -8309018.98048  -6397398.22346
                  22094606.5394                                   22094602.7464
                                                                        49.2504
        39.2504
  -7403068.57848  -5699093.37146
                  21339577.9304                                   21339574.5124
                                                                        51.0004
        40.0004
    520711.51248    450421.12146
                  21525636.0784                                   21525631.6054
                                                                        49.0004
        36.0004
   6677554.24647   5217343.19944
                  23723608.6174                                   23723602.4304
                                                                        42.7504
        24.2504
  -6097251.16847  -4686628.19544
                  23095124.7974                                   23095121.5554
                                                                        43.7504
        29.7504
  -4845212.21548  -3710976.55546
                  22306728.1644                                   22306724.7774
                                                                        48.2504
        37.2504
   4336972.89146   3416529.98443
                  24228253.7274                                   24228250.2584
                                                                        39.5004
        22.0004
   5598723.65246   4377306.25043
                  24368347.7664                                   24368343.4964
                                                                        41.7504
        22.2504
 09 10 24 23 53 30.0000000  0 10G02G04G05G10G13G23G25G29G16G07
   1545174.22748   1242693.85947
                  20878920.0314                                   20878914.1804
                                                                        52.5004
        42.0004
   7827669.00047   6105626.72345
                  23212345.9454                                   23212342.2544
                                                                        47.5004
        31.0004
  -8481000.68748  -6531409.92646
                  22061879.4304                                   22061875.1484
                                                                        49.5004
        39.5004
  -7559733.74248  -5821170.10946
                  21309765.4774                                   21309761.9144
                                                                        51.5004
        39.7504
    467151.13748    408685.73445
                  21515443.7114                                   21515439.6374
                                                                        49.0004
        35.5004
   6685162.86747   5223271.93843
                  23725056.3134                                   23725050.1724
                                                                        42.5004
        22.5004
  -6237576.40247  -4795972.48045
                  23068421.8754                                   23068418.8014
                                                                        44.0004
        30.5004
  -4966837.71948  -3805749.68046
                  22283583.6484                                   22283580.4844
                                                                        48.7504
        37.2504
   4191227.12546   3302961.85943
                  24200519.0634                                   24200515.5354
                                                                        38.2504
        22.0004
   5414641.71147   4233865.69544
                  24333317.7814                                   24333314.8914
                                                                        43.0004
        24.5004
 09 10 24 23 54  0.0000000  0 10G02G04G05G10G13G23G25G29G16G07
   1501214.52048   1208439.53546
                  20870554.8284                                   20870549.1914
                                                                        52.7504
        41.7504
   7844464.24647   6118713.84845
                  23215541.5314                                   23215538.5314
                                                                        46.5004
        30.5004
  -8652563.04348  -6665094.86346
                  22029232.4144                                   22029228.3634
                                                                        49.0004
        39.7504
  -7715872.33248  -5942836.54746
                  21280053.5234                                   21280049.5824
                                                                        51.0004
        40.0004
    414274.48448    367483.15645
                  21505381.6254                                   21505377.2424
                                                                        49.2504
        35.5004
   6693153.58647   5229498.53143
                  23726577.2194                                   23726570.5204
                                                                        43.0004
        22.7504
  -6377340.59047  -4904879.59845
                  23041825.7974                                   23041822.5354
                                                                        44.2504
        30.0004
  -5087826.61348  -3900026.73846
                  22260560.3594                                   22260557.0664
                                                                        48.7504
        36.7504
   4046047.32446   3189834.75043
                  24172892.2194                                   24172889.1254
                                                                        38.2504
        20.7504
   5230900.11346   4090690.77044
                  24298353.4304                                   24298349.8984
                                                                        40.5004
        26.2504
 09 10 24 23 54 30.0000000  0 10G02G04G05G10G13G23G25G29G16G07
   1457855.15248   1174653.00847
                  20862303.8674                                   20862298.4144
                                                                        52.2504
        42.2504
   7861545.05147   6132023.54345
                  23218791.9924                                   23218789.4804
                                                                        46.7504
        31.0004
  -8823711.03148  -6798456.93446
                  21996663.5004                                   21996659.8874
                                                                        49.7504
        39.2504
  -7871489.29748  -6064096.51646
                  21250440.2424                                   21250436.2974
                                                                        49.7504
        40.5004
    362072.74248    326806.49246
                  21495448.0634                                   21495443.7384
                                                                        49.5004
        36.0004
   6701516.29347   5236014.96944
                  23728168.8204                                   23728162.4064
                                                                        43.7504
        26.5004
  -6516548.69947  -5013353.43444
                  23015334.9384                                   23015331.9144
                                                                        43.0004
        29.2504
  -5208184.37948  -3993812.00046
                  22237656.9614                                   22237653.5904
                                                                        49.0004
        36.7504
   3901428.85946   3077145.05943
                  24145372.8204                                   24145368.8794
                                                                        38.5004
        20.5004
   5047493.50846   3947776.52744
                  24263451.9224                                   24263448.3714
                                                                        41.0004
        26.2504
 09 10 24 23 55  0.0000000  0 10G02G04G05G10G13G23G25G29G16G07
   1415096.63348   1141334.68046
                  20854166.8524                                   20854161.7664
                                                                        52.2504
        41.7504
   7878910.32447   6145554.89145
                  23222096.4614                                   23222093.7584
                                                                        46.5004
        31.0004
  -8994441.74248  -6931493.84046
                  21964174.9844                                   21964171.0864
                                                                        49.5004
        39.5004
  -8026581.82448  -6184947.83646
                  21220927.0944                                   21220923.7464
                                                                        50.2504
        39.5004
    310546.10248    286655.83245
                  21485642.9384                                   21485638.7114
                                                                        49.0004
        35.5004
   6710250.11747   5242820.53944
                  23729830.8284                                   23729824.2544
                                                                        43.5004
        27.0004
  -6655197.63347  -5121391.53544
                  22988951.0234                                   22988948.0394
                                                                        43.7504
        28.5004
  -5327908.49648  -4087103.50446
                  22214874.3914                                   22214870.9654
                                                                        48.5004
        37.2504
   3757374.98046   2964895.18043
                  24117960.7194                                   24117956.4144
                                                                        39.2504
        21.5004
   4864426.96546   3805127.32044
                  24228615.4384                                   24228611.9654
                                                                        41.0004
        27.7504
 09 10 24 23 55 30.0000000  0 10G02G04G05G10G13G23G25G29G16G07
   1372936.34848   1108482.50046
                  20846144.4304                                   20846138.6994
                                                                        52.2504
        41.7504
   7896556.85547   6159305.35545
                  23225454.3674                                   23225452.1134
                                                                        45.7504
        31.0004
  -9164754.37548  -7064204.97346
                  21931765.5004                                   21931761.5164
                                                                        50.0004
        39.2504
  -8181149.44148  -6305390.13746
                  21191513.8674                                   21191510.2304
                                                                        50.5004
        39.5004
    259692.06648    247029.28145
                  21475965.5944                                   21475961.4184
                                                                        49.7504
        35.2504
   6719350.81647   5249911.89144
                  23731561.9924                                   23731556.8404
                                                                        42.0004
        25.5004
  -6793286.52347  -5228993.25444
                  22962673.3284                                   22962670.1094
                                                                        43.7504
        29.0004
  -5446999.16048  -4179901.41846
                  22192212.2734                                   22192208.8484
                                                                        48.5004
        36.7504
   3613886.61746   2853085.94943
                  24090655.6644                                   24090651.5594
                                                                        39.2504
        22.5004
   4681702.59847   3662744.82444
                  24193843.7664                                   24193841.0084
                                                                        42.0004
        26.5004
 09 10 24 23 56  0.0000000  0 10G02G04G05G10G13G23G25G29G16G07
   1331372.35948   1076094.98047
                  20838234.9844                                   20838229.4494
                                                                        52.5004
        42.2504
   7914481.47747   6173272.50445
                  23228866.1024                                   23228863.3674
                                                                        46.7504
        30.5004
  -9334648.25848  -7196589.80546
                  21899435.2814                                   21899431.8134
                                                                        50.5004
        40.0004
  -8335191.62548  -6425423.02746
                  21162200.6564                                   21162197.2464
                                                                        50.5004
        39.5004
    209507.91448    207924.73045
                  21466415.9064                                   21466411.6134
                                                                        50.2504
        35.7504
   6728814.89146   5257286.37944
                  23733363.2274                                   23733357.7894
                                                                        41.5004
        26.0004
  -6930814.77347  -5336158.08644
                  22936502.9924                                   22936498.5394
                                                                        43.2504
        28.5004
  -5565456.10948  -4272205.53146
                  22169670.6174                                   22169667.1094
                                                                        49.0004
        37.5004
   3470964.84446   2741718.27743
                  24063458.6254                                   24063454.1804
                                                                        41.0004
        22.5004
   4499321.25846   3520629.45344
                  24159137.6884                                   24159134.6134
                                                                        39.7504
        26.0004
 09 10 24 23 56 30.0000000  0 10G02G04G05G10G13G23G25G29G16G07
   1290404.46948   1044171.94546
                  20830439.0084                                   20830433.1134
                                                                        52.5004
        41.5004
   7932683.32447   6187455.69945
                  23232329.6884                                   23232326.2934
                                                                        47.0004
        31.2504
  -9504120.59848  -7328646.17646
                  21867186.0944                                   21867182.2154
                                                                        50.5004
        39.7504
  -8488705.57848  -6545044.28946
                  21132987.9384                                   21132984.1724
                                                                        51.0004
        39.7504
    159993.48448    169342.04745
                  21456993.7344                                   21456989.6684
                                                                        50.0004
        35.2504
   6738641.41446   5264943.45743
                  23735233.1724                                   23735227.8014
                                                                        41.5004
        22.5004
  -7067779.38747  -5442883.78544
                  22910439.6564                                   22910435.4774
                                                                        44.7504
        27.7504
  -5683276.96948  -4364013.99246
                  22147250.0554                                   22147246.5984
                                                                        49.2504
        37.0004
   3328613.14846   2630794.84443
                  24036369.7894                                   24036365.2814
                                                                        40.7504
        22.5004
   4317287.78146   3378785.26644
                  24124497.8594                                   24124494.9614
                                                                        40.2504
        26.0004
 09 10 24 23 57  0.0000000  0 10G02G04G05G10G13G23G25G29G16G07
   1250028.83648   1012710.42646
                  20822756.1564                                   20822750.1884
                                                                        51.7504
        41.7504
   7951157.04347   6201850.64845
                  23235845.0474                                   23235842.0984
                                                                        46.5004
        31.0004
  -9673172.52048  -7460374.93746
                  21835016.4534                                   21835012.7154
                                                                        50.2504
        40.5004
  -8641692.69148  -6664255.00846
                  21103875.7734                                   21103872.0124
                                                                        50.5004
        39.5004
    111143.87948    131277.34845
                  21447697.9924                                   21447693.8754
                                                                        49.2504
        35.0004
   6748824.20347   5272878.02743
                  23737171.1804                                   23737164.5984
                                                                        42.0004
        21.7504
  -7204181.54747  -5549171.18744
                  22884482.6564                                   22884478.7894
                                                                        43.5004
        29.0004
  -5800463.46548  -4455328.14146
                  22124950.1254                                   22124946.6644
                                                                        49.7504
        37.5004
   3186830.28546   2520314.66043
                  24009389.7344                                   24009384.8164
                                                                        41.5004
        22.0004
   4135601.38346   3237210.99244
                  24089924.5474                                   24089921.1994
                                                                        39.5004
        24.5004
 09 10 24 23 57 30.0000000  0 10G02G04G05G10G13G23G25G29G16G07
   1210246.21548    981710.98047
                  20815185.3524                                   20815179.8364
                                                                        52.5004
        42.2504
   7969903.02347   6216457.73044
                  23239412.4384                                   23239409.0204
                                                                        46.0004
        29.5004
  -9841799.62948  -7591772.68046
                  21802928.0704                                   21802924.0744
                                                                        50.5004
        39.7504
  -8794148.41048  -6783051.66446
                  21074864.2274                                   21074860.2234
                                                                        51.2504
        39.7504
     62960.00048     93731.34445
                  21438528.8754                                   21438525.2544
                                                                        48.2504
        35.0004
   6759362.91047   5281090.09044
                  23739176.4924                                   23739170.2664
                                                                        42.0004
        24.0004
  -7340017.17247  -5655017.10244
                  22858634.5634                                   22858630.2274
                                                                        44.2504
        28.0004
  -5917012.82048  -4546145.81246
                  22102771.6884                                   22102768.1884
                                                                        49.5004
        37.0004
   3045620.11746   2410280.74643
                  23982518.7344                                   23982513.7114
                                                                        41.2504
        22.2504
   3954268.74646   3095912.85944
                  24055418.3984                                   24055414.7774
                                                                        41.7504
        24.0004
 09 10 24 23 58  0.0000000  0 10G02G04G05G10G13G23G25G29G16G07
   1171054.30948    951171.82846
                  20807727.6804                                   20807721.5864
                                                                        52.5004
        41.2504
   7988917.59447   6231274.01644
                  23243030.7504                                   23243028.4454
                                                                        43.7504
        29.2504
 -10010001.59848  -7722839.13746
                  21770920.1024                                   21770916.1604
                                                                        50.0004
        40.0004
  -8946073.34448  -6901434.71146
                  21045953.4224                                   21045949.7584
                                                                        51.2504
        40.0004
     15439.17648     56702.10545
                  21429485.9064                                   21429482.3444
                                                                        49.0004
        35.2504
   6770253.35547   5289576.12943
                  23741248.9064                                   23741242.6564
                                                                        44.0004
        22.2504
  -7475285.91447  -5760421.32844
                  22832893.3914                                   22832889.6134
                                                                        44.5004
        29.2504
  -6032924.63748  -4636466.68746
                  22080714.4924                                   22080710.5474
                                                                        50.5004
        37.0004
   2904983.68446   2300693.80143
                  23955756.5944                                   23955751.6214
                                                                        39.5004
        21.7504
   3773290.68447   2954890.83644
                  24020979.4384                                   24020975.6294
                                                                        43.7504
        24.2504
 09 10 24 23 58 30.0000000  0 10G02G04G05G10G13G23G25G29G16G07
   1132449.37948    921090.07446
                  20800381.5004                                   20800375.4534
                                                                        52.0004
        41.2504
   8008196.50047   6246296.30145
                  23246699.8594                                   23246696.3404
                                                                        43.5004
        30.5004
 -10177778.79748  -7853574.62546
                  21738993.2034                                   21738989.0864
                                                                        50.0004
        40.5004
  -9097467.87148  -7019404.46946
                  21017144.2974                                   21017140.4574
                                                                        51.2504
        40.2504
    -31422.95748     20186.10945
                  21420568.3364                                   21420564.4454
                                                                        48.7504
        34.7504
   6781490.55147   5298332.37943
                  23743387.6804                                   23743380.5044
                                                                        42.7504
        22.0004
  -7609988.57447  -5865384.42644
                  22807260.5864                                   22807256.2154
                                                                        44.5004
        29.0004
  -6148200.31248  -4726291.87946
                  22058777.8674                                   22058774.3444
                                                                        49.7504
        37.7504
   2764920.51646   2191553.59043
                  23929102.8054                                   23929098.3164
                                                                        40.2504
        21.0004
   3592667.39847   2814145.19944
                  23986608.3674                                   23986604.5004
                                                                        43.0004
        25.0004
 09 10 24 23 59  0.0000000  0 10G02G04G05G10G13G23G25G29G16G07
   1094429.77348    891464.40646
                  20793146.3134                                   20793140.3834
                                                                        52.0004
        41.2504
   8027737.12947   6261522.59845
                  23250418.5554                                   23250415.7704
                                                                        44.0004
        30.7504
 -10345130.77348  -7983978.75046
                  21707147.2344                                   21707143.0124
                                                                        50.5004
        40.0004
  -9248331.27348  -7136960.35546
                  20988435.7194                                   20988432.2504
                                                                        51.7504
        41.0004
    -77628.44948    -15818.21545
                  21411776.0314                                   21411771.8364
                                                                        48.2504
        35.5004
   6793072.07846   5307357.05943
                  23745590.8364                                   23745585.2154
                                                                        41.0004
        22.2504
  -7744123.95347  -5969905.56244
                  22781735.7664                                   22781731.8634
                                                                        44.0004
        29.5004
  -6262839.97748  -4815621.48846
                  22036963.0084                                   22036959.2774
                                                                        50.5004
        38.2504
   2625432.00446   2082861.28543
                  23902558.9694                                   23902554.7154
                                                                        40.0004
        21.2504
   3412402.27747   2673679.08644
                  23952304.7584                                   23952301.3054
                                                                        43.2504
        25.5004
 09 10 24 23 59 30.0000000  0 10G02G04G05G10G13G23G25G29G16G07
   1056992.39848    862292.41846
                  20786022.2504                                   20786016.4144
                                                                        51.7504
        41.5004
   8047533.89547   6276947.68845
                  23254185.9844                                   23254183.7704
                                                                        43.7504
        30.0004
 -10512056.74648  -8114050.92646
                  21675382.0864                                   21675378.0904
                                                                        49.0004
        40.0004
  -9398663.59448  -7254102.42246
                  20959828.6954                                   20959824.8364
                                                                        52.0004
        40.2504
   -123180.52348    -51313.43045
                  21403108.0394                                   21403103.4224
                                                                        48.5004
        34.5004
   6804992.82046   5316645.89143
                  23747858.7584                                   23747853.4884
                                                                        39.5004
        22.5004
  -7877692.31247  -6073984.86744
                  22756318.1254                                   22756314.7854
                                                                        44.2504
        29.7504
  -6376843.42648  -4904455.34046
                  22015268.3524                                   22015265.1684
                                                                        50.0004
        37.5004
   2486518.32446   1974616.85543
                  23876124.3594                                   23876120.5084
                                                                        38.7504
        19.7504
   3232493.85547   2533489.96544
                  23918069.7114                                   23918066.3484
                                                                        42.2504
        25.5004
