     2.11           OBSERVATION DATA    G (GPS)             RINEX VERSION / TYPE
teqc  2019Feb25                         20221121 12:28:07UTCPGM / RUN BY / DATE
OSX ker:10.11.6|Core i5|gcc 4.3 -m64|OSX ker:10.10+|=+      COMMENT
BIT 2 OF LLI FLAGS DATA COLLECTED UNDER A/S CONDITION       COMMENT
04712810                                                    MARKER NAME
2810                                                        MARKER NUMBER
-Unknown-           -Unknown-                               OBSERVER / AGENCY
0220400471          TRIMBLE R7          2.30                REC # / TYPE / VERS
-Unknown-           TRM39105.00     NONE                    ANT # / TYPE
  1449461.0827 -1709240.4297  5952442.9247                  APPROX POSITION XYZ
        0.0000        0.0000        0.0000                  ANTENNA: DELTA H/E/N
     1     1                                                WAVELENGTH FACT L1/2
    20    L1    L2    L5    L6    L7    L8    C1    P1    C2# / TYPES OF OBSERV
          P2    C5    C6    C7    C8    S1    S2    S5    S6# / TYPES OF OBSERV
          S7    S8                                          # / TYPES OF OBSERV
    30.0000                                                 INTERVAL
    15                                                      LEAP SECONDS
Forced Modulo Decimation to 30 seconds                      COMMENT
 SNR is mapped to RINEX snr flag value [0-9]                COMMENT
  L1 & L2: min(max(int(snr_dBHz/6), 0), 9)                  COMMENT
teqc edited: Beidou # 1 - 37 excluded                       COMMENT
  2009    10     8     0     0    0.0000000     GPS         TIME OF FIRST OBS
                                                            END OF HEADER
 09 10  8  0  0  0.0000000  0  9G02G04G12G13G29G10G23G30G31
 -15107818.44948 -11718306.41047
                  20564356.5864                                   20564350.5864
                                                                        52.0004
        43.5004
  -6699314.87148  -5190741.82046
                  21021981.7344                                   21021978.2504
                                                                        51.5004
        41.5004
  -1361709.07447  -1049939.72744
                  24521809.4454                                   24521805.8524
                                                                        42.7504
        28.0004
 -17359756.69148 -13464813.03546
                  21551448.6484                                   21551443.9064
                                                                        51.0004
        36.7504
  -6377967.82447  -4928337.07444
                  23779377.7664                                   23779374.6414
                                                                        43.2504
        28.5004
  -4915176.82447  -3813606.84844
                  23623521.5474                                   23623517.7934
                                                                        43.0004
        27.0004
  -9144801.35548  -7090664.43745
                  21978303.9694                                   21978297.7074
                                                                        48.7504
        34.0004
  -6066716.98447  -4704024.27344
                  23127691.9844                                   23127688.4384
                                                                        43.2504
        27.0004
  -6641503.47346  -5146366.55144
                  24145363.0554                                   24145359.5944
                                                                        40.7504
        28.0004
 09 10  8  0  0 30.0000000  0  8G02G04G13G29G10G23G30G31
 -15226636.62948 -11810892.01247
                  20541746.3674                                   20541740.2734
                                                                        52.7504
        42.7504
  -6734140.04748  -5217878.32046
                  21015354.5634                                   21015350.8014
                                                                        52.5004
        41.0004
 -17498852.66848 -13573199.52046
                  21524979.2664                                   21524975.2854
                                                                        50.0004
        36.2504
  -6561676.98447  -5071487.02744
                  23744419.9144                                   23744416.1414
                                                                        44.2504
        29.0004
  -5120336.32447  -3973471.34844
                  23584480.1644                                   23584476.7704
                                                                        43.2504
        28.0004
  -9198759.56648  -7132709.80545
                  21968036.0864                                   21968029.8594
                                                                        48.5004
        34.2504
  -6091427.12947  -4723278.93744
                  23122989.5004                                   23122986.1214
                                                                        43.5004
        27.5004
  -6674763.79347  -5172283.69944
                  24139033.9064                                   24139029.7544
                                                                        42.5004
        27.5004
 09 10  8  0  1  0.0000000  0  8G02G04G13G29G10G23G30G31
 -15344852.24248 -11903008.06647
                  20519250.7274                                   20519244.8284
                                                                        52.0004
        42.5004
  -6768423.46948  -5244592.69146
                  21008830.4844                                   21008826.7234
                                                                        52.7504
        41.0004
 -17637283.60248 -13681067.74646
                  21498636.7734                                   21498632.5164
                                                                        50.7504
        36.0004
  -6745017.27047  -5214349.56644
                  23709530.5004                                   23709527.3164
                                                                        43.7504
        28.0004
  -5325250.64147  -4133144.79344
                  23545486.5944                                   23545482.9694
                                                                        42.2504
        27.2504
  -9252067.78548  -7174248.67245
                  21957892.3524                                   21957885.6954
                                                                        49.0004
        34.5004
  -6115549.19547  -4742075.36344
                  23118399.2194                                   23118395.7774
                                                                        43.2504
        27.0004
  -6707476.96947  -5197774.52044
                  24132808.7664                                   24132804.9734
                                                                        42.0004
        25.5004
 09 10  8  0  1 30.0000000  0  8G02G04G13G29G10G23G30G31
 -15462460.99248 -11994651.25847
                  20496870.4454                                   20496864.1684
                                                                        52.0004
        43.5004
  -6802163.73448  -5270883.77746
                  21002409.9384                                   21002406.3834
                                                                        52.5004
        40.7504
 -17775045.08648 -13788414.28146
                  21472421.8284                                   21472417.0274
                                                                        50.0004
        36.7504
  -6927983.32847  -5356920.49244
                  23674713.1094                                   23674709.9144
                                                                        44.0004
        28.7504
  -5529914.74247  -4292623.27744
                  23506540.1564                                   23506536.5274
                                                                        42.0004
        28.0004
  -9304724.19948  -7215279.64545
                  21947871.9454                                   21947865.2734
                                                                        49.5004
        34.2504
  -6139083.06647  -4760413.45744
                  23113921.2664                                   23113917.2424
                                                                        44.0004
        27.5004
  -6739642.19546  -5222838.35544
                  24126688.0864                                   24126684.3794
                                                                        41.5004
        27.2504
 09 10  8  0  2  0.0000000  0  8G02G04G13G29G10G23G30G31
 -15579458.76648 -12085818.34847
                  20474606.6804                                   20474600.1914
                                                                        52.0004
        42.7504
  -6835359.10948  -5296750.29346
                  20996093.1174                                   20996089.3754
                                                                        52.5004
        40.5004
 -17912132.18448 -13895235.34445
                  21446335.0474                                   21446330.7424
                                                                        50.7504
        35.7504
  -7110569.39847  -5499195.31244
                  23639968.1024                                   23639965.4804
                                                                        43.7504
        28.2504
  -5734323.58247  -4451902.87544
                  23467642.7114                                   23467639.1134
                                                                        42.2504
        29.5004
  -9356727.16448  -7255801.44145
                  21937975.8594                                   21937969.6524
                                                                        49.2504
        34.5004
  -6162027.94947  -4778292.61344
                  23109554.7194                                   23109551.2774
                                                                        43.5004
        27.7504
  -6771258.17246  -5247474.22344
                  24120671.3284                                   24120667.5824
                                                                        41.7504
        26.7504
 09 10  8  0  2 30.0000000  0  8G02G04G13G29G10G23G30G31
 -15695846.62948 -12176510.19147
                  20452458.7504                                   20452452.6764
                                                                        52.5004
        43.0004
  -6868013.70348  -5322195.45746
                  20989879.0784                                   20989875.9614
                                                                        53.0004
        40.2504
 -18048545.77748 -14001531.60546
                  21420376.4144                                   21420371.8244
                                                                        50.5004
        36.0004
  -7292775.26247  -5641173.86744
                  23605295.6644                                   23605292.3014
                                                                        43.2504
        27.7504
  -5938476.71147  -4610983.18444
                  23428793.2734                                   23428790.2384
                                                                        42.5004
        29.2504
  -9408080.23848  -7295816.83645
                  21928203.7504                                   21928196.9574
                                                                        49.7504
        33.7504
  -6184388.47747  -4795716.40644
                  23105299.9224                                   23105296.5594
                                                                        44.0004
        28.0004
  -6802329.04747  -5271685.32844
                  24114758.6334                                   24114754.5784
                                                                        42.2504
        26.5004
 09 10  8  0  3  0.0000000  0  8G02G04G13G29G10G23G30G31
 -15811629.26248 -12266730.42247
                  20430425.8754                                   20430419.8794
                                                                        51.7504
        42.2504
  -6900134.12948  -5347224.34846
                  20983766.9774                                   20983763.2664
                                                                        53.0004
        40.7504
 -18184289.21948 -14107305.61745
                  21394544.8834                                   21394540.8364
                                                                        51.2504
        35.5004
  -7474603.69147  -5782858.31244
                  23570694.3914                                   23570691.6414
                                                                        43.0004
        27.2504
  -6142377.59846  -4769866.93744
                  23389992.1024                                   23389988.9734
                                                                        40.7504
        28.5004
  -9458790.27048  -7335331.13345
                  21918554.0234                                   21918547.4304
                                                                        50.0004
        34.0004
  -6206173.27047  -4812691.56644
                  23101154.5084                                   23101150.4844
                                                                        44.5004
        28.0004
  -6832862.78547  -5295477.86744
                  24108948.2034                                   24108944.5314
                                                                        42.0004
        25.5004
 09 10  8  0  3 30.0000000  0  9G02G04G05G13G29G10G23G30G31
 -15926810.48848 -12356482.01647
                  20408507.8674                                   20408501.5784
                                                                        51.7504
        43.5004
  -6931727.21148  -5371842.32446
                  20977754.9384                                   20977751.2424
                                                                        53.0004
        41.0004
   -334644.35257   -244780.30154
                  24178512.9534                                   24178508.9884
                                                                        43.7504
        28.7504
 -18319366.28948 -14212560.43445
                  21368840.6954                                   21368836.1994
                                                                        51.0004
        35.7504
  -7656057.27347  -5924250.64844
                  23536165.0004                                   23536161.8054
                                                                        44.2504
        29.2504
  -6346029.23446  -4928556.46944
                  23351238.4774                                   23351235.4264
                                                                        41.7504
        28.7504
  -9508863.96148  -7374349.59445
                  21909025.2424                                   21909018.8014
                                                                        49.7504
        34.2504
  -6227389.84447  -4829223.97344
                  23097117.0314                                   23097113.7584
                                                                        44.7504
        29.7504
  -6862866.08647  -5318857.08244
                  24103239.6094                                   24103235.3364
                                                                        42.7504
        25.0004
 09 10  8  0  4  0.0000000  0  9G02G04G05G13G29G10G23G30G31
 -14465969.03948 -11218164.00447
                  20686496.7114                                   20686490.5514
                                                                        52.2504
        43.0004
  -5387376.93448  -4168452.47346
                  21271635.0394                                   21271631.2584
                                                                        52.5004
        40.7504
   1036087.50447    823322.48444
                  24439353.7814                                   24439350.6024
                                                                        42.5004
        28.2504
 -16878354.42648 -13089694.02746
                  21643056.0634                                   21643051.6094
                                                                        51.0004
        36.2504
  -6261711.09847  -4837747.10944
                  23801500.3284                                   23801497.1094
                                                                        44.7504
        28.7504
  -4974006.36347  -3859447.69544
                  23612325.8594                                   23612322.4654
                                                                        43.2504
        27.2504
  -7982884.44148  -6185274.62945
                  22199409.5314                                   22199403.0204
                                                                        49.0004
        34.0004
  -4672623.53547  -3617717.77044
                  23392979.5474                                   23392975.8484
                                                                        44.2504
        29.7504
  -5316923.92247  -4114226.84044
                  24397422.6644                                   24397418.2114
                                                                        42.5004
        26.0004
 09 10  8  0  4 30.0000000  0  9G02G04G05G13G29G10G23G30G31
 -14579959.52348 -11306987.74647
                  20664804.8364                                   20664798.6994
                                                                        52.5004
        43.0004
  -5417934.85548  -4192263.84846
                  21265820.0554                                   21265816.4534
                                                                        53.0004
        40.5004
    831554.32447    663946.04744
                  24400432.7974                                   24400429.5204
                                                                        43.0004
        27.0004
 -17012108.97748 -13193918.38345
                  21617603.2194                                   21617599.2854
                                                                        50.5004
        35.5004
  -6442422.64147  -4978561.25044
                  23767111.7034                                   23767108.8204
                                                                        46.0004
        29.7504
  -5177167.72747  -4017755.23044
                  23573665.5084                                   23573661.5234
                                                                        43.7504
        27.5004
  -8031704.39848  -6223316.17245
                  22190119.4454                                   22190112.8404
                                                                        49.5004
        33.5004
  -4692726.38747  -3633382.37544
                  23389153.5314                                   23389150.7114
                                                                        44.0004
        28.2504
  -5345888.26247  -4136796.46144
                  24391910.5474                                   24391906.2424
                                                                        43.0004
        26.5004
 09 10  8  0  5  0.0000000  0  9G02G04G05G13G29G10G23G30G31
 -14693351.95748 -11395345.48447
                  20643227.0944                                   20643221.3164
                                                                        52.7504
        43.0004
  -5447976.53948  -4215672.96146
                  21260103.4144                                   21260099.9264
                                                                        52.5004
        40.5004
    627190.16447    504701.27744
                  24361543.3914                                   24361539.8244
                                                                        42.2504
        27.0004
 -17145198.66848 -13297624.64546
                  21592277.6334                                   21592272.7664
                                                                        50.7504
        36.5004
  -6622758.03947  -5119082.30545
                  23732795.4454                                   23732792.1954
                                                                        45.5004
        30.5004
  -5380079.65647  -4175868.41844
                  23535052.8444                                   23535048.4614
                                                                        45.0004
        28.5004
  -8079898.71948  -6260870.20745
                  22180947.8524                                   22180941.5354
                                                                        49.5004
        34.0004
  -4712275.57847  -3648615.53944
                  23385433.7974                                   23385429.9844
                                                                        44.0004
        27.2504
  -5374335.38747  -4158963.07044
                  24386497.6174                                   24386493.4454
                                                                        43.0004
        27.2504
 09 10  8  0  5 30.0000000  0  9G02G04G05G13G29G10G23G30G31
 -14806142.34048 -11483234.08647
                  20621763.9384                                   20621757.6414
                                                                        52.2504
        42.7504
  -5477500.07848  -4238678.32446
                  21254485.0234                                   21254481.6134
                                                                        52.7504
        41.0004
    422999.96147    345592.06344
                  24322687.5784                                   24322683.4454
                                                                        43.5004
        28.5004
 -17277619.23848 -13400809.59446
                  21567078.6484                                   21567074.4024
                                                                        51.0004
        36.5004
  -6802711.86347  -5259306.03544
                  23698551.1334                                   23698548.4224
                                                                        45.0004
        29.7504
  -5582736.62947  -4333782.93044
                  23496487.9304                                   23496484.2854
                                                                        45.2504
        28.7504
  -8127465.73848  -6297935.45345
                  22171896.6804                                   22171890.7934
                                                                        49.2504
        34.2504
  -4731270.32847  -3663416.64844
                  23381819.0944                                   23381815.6994
                                                                        43.2504
        27.5004
  -5402263.92246  -4180725.57044
                  24381183.0314                                   24381178.1374
                                                                        40.7504
        25.0004
 09 10  8  0  6  0.0000000  0  9G02G04G05G13G29G10G23G30G31
 -14918325.20748 -11570649.31647
                  20600415.9694                                   20600409.8284
                                                                        52.2504
        42.7504
  -5506503.24248  -4261278.28546
                  21248966.2974                                   21248962.6644
                                                                        51.7504
        41.0004
    218989.92647    186623.22344
                  24283865.5474                                   24283862.0274
                                                                        44.2504
        29.7504
 -17409364.26648 -13503468.08646
                  21542008.5864                                   21542004.1684
                                                                        51.5004
        36.7504
  -6982277.22347  -5399227.05544
                  23664381.7114                                   23664377.6564
                                                                        45.0004
        29.2504
  -5785132.07047  -4491493.62944
                  23457973.7584                                   23457970.0124
                                                                        44.7504
        29.5004
  -8174402.64148  -6334509.68045
                  22162964.7734                                   22162958.3594
                                                                        49.2504
        34.0004
  -4749708.91047  -3677784.39144
                  23378310.1804                                   23378306.7114
                                                                        42.5004
        26.5004
  -5429671.67246  -4202082.27344
                  24375967.6484                                   24375963.3164
                                                                        39.5004
        26.2504
 09 10  8  0  6 30.0000000  0  9G02G04G05G13G29G10G23G30G31
 -15029899.79348 -11657590.53947
                  20579183.9064                                   20579177.8444
                                                                        52.2504
        43.0004
  -5534987.17648  -4283473.56246
                  21243546.1254                                   21243542.1374
                                                                        53.0004
        40.5004
     15162.16847     27796.41444
                  24245078.3204                                   24245074.9264
                                                                        43.0004
        28.0004
 -17540432.56248 -13605599.22346
                  21517067.0394                                   21517062.5354
                                                                        51.0004
        36.7504
  -7161451.63347  -5538843.45344
                  23630285.2504                                   23630281.7854
                                                                        43.7504
        29.0004
  -5987263.80147  -4648998.87145
                  23419509.3054                                   23419506.0634
                                                                        45.7504
        30.5004
  -8220711.06648  -6370594.21145
                  22154152.4304                                   22154146.5514
                                                                        49.0004
        34.0004
  -4767594.30147  -3691721.06244
                  23374906.6484                                   23374903.6294
                                                                        42.2504
        27.2504
  -5456561.19146  -4223035.14844
                  24370850.5004                                   24370846.1294
                                                                        41.2504
        24.7504
 09 10  8  0  7  0.0000000  0  9G02G04G05G13G29G10G23G30G31
 -15140865.81248 -11744057.56647
                  20558067.7424                                   20558061.8244
                                                                        52.2504
        43.0004
  -5562954.34048  -4305266.14546
                  21238223.9304                                   21238220.3954
                                                                        52.5004
        40.7504
   -188482.09047   -130887.34444
                  24206326.0864                                   24206322.2464
                                                                        42.2504
        27.7504
 -17670823.76648 -13707203.02746
                  21492254.3754                                   21492250.3094
                                                                        51.2504
        36.5004
  -7340233.02347  -5678153.59444
                  23596264.0234                                   23596260.8444
                                                                        43.7504
        29.2504
  -6189130.26247  -4806297.39845
                  23381095.3754                                   23381092.4304
                                                                        44.5004
        30.2504
  -8266393.07048  -6406190.55545
                  22145459.7424                                   22145453.6684
                                                                        49.0004
        34.2504
  -4784930.13747  -3705229.52744
                  23371608.0704                                   23371604.2894
                                                                        43.0004
        28.0004
  -5482935.21546  -4243586.36344
                  24365831.6334                                   24365827.0904
                                                                        39.2504
        24.7504
 09 10  8  0  7 30.0000000  0  9G02G04G05G13G29G10G23G30G31
 -15251226.06248 -11830052.57047
                  20537066.8984                                   20537060.8164
                                                                        52.0004
        42.7504
  -5590410.20348  -4326660.39546
                  21232999.2274                                   21232995.5354
                                                                        52.2504
        41.2504
   -391944.73046   -289429.64144
                  24167608.2504                                   24167605.0744
                                                                        41.0004
        28.5004
 -17800539.84448 -13808280.80546
                  21467570.5864                                   21467566.2974
                                                                        51.7504
        36.5004
  -7518622.66047  -5817158.49645
                  23562317.8134                                   23562314.5824
                                                                        43.5004
        30.0004
  -6390732.76247  -4963390.24245
                  23342731.5554                                   23342728.1524
                                                                        43.0004
        30.2504
  -8311454.08248  -6441303.06645
                  22136884.8674                                   22136878.5474
                                                                        49.2504
        33.5004
  -4801722.76247  -3718314.68744
                  23368412.2034                                   23368408.7194
                                                                        43.2504
        26.2504
  -5508799.33646  -4263740.21144
                  24360909.3284                                   24360905.2704
                                                                        40.0004
        24.5004
 09 10  8  0  8  0.0000000  0  9G02G04G05G13G29G10G23G30G31
 -15360979.04348 -11915574.37947
                  20516181.5944                                   20516175.8554
                                                                        51.7504
        42.7504
  -5617355.57848  -4347656.82446
                  21227871.9694                                   21227868.1094
                                                                        51.7504
        40.0004
   -595223.12147   -447828.30144
                  24128925.9144                                   24128922.7384
                                                                        42.0004
        29.2504
 -17929577.81248 -13908829.72346
                  21443015.5944                                   21443010.8484
                                                                        51.5004
        36.2504
  -7696617.69947  -5955855.92645
                  23528447.2974                                   23528443.2384
                                                                        43.7504
        30.5004
  -6592068.90247  -5120275.50444
                  23304418.4384                                   23304415.1054
                                                                        44.2504
        28.2504
  -8355895.09048  -6475932.42645
                  22128428.0704                                   22128421.7384
                                                                        49.2504
        33.7504
  -4817974.43047  -3730978.32444
                  23365319.2894                                   23365316.4064
                                                                        43.0004
        28.0004
  -5534155.73446  -4283498.43444
                  24356084.4384                                   24356080.0084
                                                                        40.7504
        26.2504
 09 10  8  0  8 30.0000000  0  9G02G04G05G13G29G10G23G30G31
 -15470123.09448 -12000621.69947
                  20495412.4144                                   20495406.0554
                                                                        52.0004
        43.0004
  -5643791.28548  -4368256.05146
                  21222841.2114                                   21222837.3284
                                                                        51.7504
        40.7504
   -798314.19546   -606081.03144
                  24090278.4534                                   24090275.6804
                                                                        41.5004
        29.2504
 -18057936.06248 -14008848.82446
                  21418589.5314                                   21418584.6484
                                                                        51.5004
        36.5004
  -7874214.53547  -6094243.05945
                  23494651.4454                                   23494647.8244
                                                                        43.7504
        30.0004
  -6793135.21547  -5276950.53545
                  23266157.2114                                   23266153.2034
                                                                        42.7504
        30.0004
  -8399717.09848  -6510079.46545
                  22120089.2034                                   22120082.6884
                                                                        49.7504
        33.5004
  -4833686.87547  -3743221.78544
                  23362330.0634                                   23362326.3484
                                                                        43.2504
        28.0004
  -5559005.30946  -4302861.72744
                  24351356.1644                                   24351351.7464
                                                                        41.7504
        26.0004
 09 10  8  0  9  0.0000000  0  9G02G04G05G13G29G10G23G30G31
 -15578656.41848 -12085193.11747
                  20474759.0554                                   20474753.2304
                                                                        52.0004
        42.7504
  -5669718.24248  -4388458.90646
                  21217907.3524                                   21217904.1024
                                                                        51.7504
        40.5004
  -1001215.33647   -764185.79344
                  24051668.1564                                   24051664.4574
                                                                        43.2504
        29.7504
 -18185613.12148 -14108337.41046
                  21394293.3134                                   21394288.6174
                                                                        51.7504
        37.0004
  -8051409.60947  -6232317.11345
                  23460932.3204                                   23460928.9884
                                                                        43.5004
        30.5004
  -6993928.74647  -5433413.03944
                  23227947.2424                                   23227943.6604
                                                                        44.2504
        29.0004
  -8442920.50448  -6543744.44545
                  22111867.6564                                   22111861.3954
                                                                        49.5004
        34.0004
  -4848861.91847  -3755046.52344
                  23359442.0784                                   23359439.2894
                                                                        42.0004
        28.7504
  -5583349.53947  -4321831.23444
                  24346723.7584                                   24346719.1334
                                                                        42.5004
        24.0004
 09 10  8  0  9 30.0000000  0  9G02G04G05G13G29G10G23G30G31
 -15686580.30148 -12169289.64847
                  20454221.7424                                   20454215.9304
                                                                        51.7504
        42.7504
  -5695140.21148  -4408268.23846
                  21213069.7734                                   21213066.2274
                                                                        51.0004
        40.5004
  -1203926.74247   -922142.69945
                  24013093.4144                                   24013089.8714
                                                                        42.5004
        30.2504
 -18312609.83248 -14207295.94946
                  21370126.7734                                   21370122.2664
                                                                        52.0004
        36.5004
  -8228203.13347  -6370078.27744
                  23427288.7894                                   23427285.8594
                                                                        43.2504
        29.5004
  -7194449.77347  -5589663.23045
                  23189789.4694                                   23189785.7274
                                                                        44.2504
        30.0004
  -8485509.43048  -6576930.64545
                  22103763.2424                                   22103756.9344
                                                                        49.0004
        33.5004
  -4863505.04347  -3766456.77344
                  23356655.8204                                   23356652.8324
                                                                        43.5004
        28.0004
  -5607193.12546  -4340410.65244
                  24342185.9454                                   24342182.0664
                                                                        38.7504
        25.2504
 09 10  8  0 10  0.0000000  0  9G02G04G05G13G29G10G23G30G31
 -15793893.68048 -12252910.46547
                  20433800.9614                                   20433794.9774
                                                                        53.2504
        43.0004
  -5720058.67248  -4427685.28146
                  21208327.7734                                   21208324.7304
                                                                        52.2504
        40.2504
  -1406446.31646  -1079950.16444
                  23974555.0004                                   23974551.1914
                                                                        41.0004
        27.2504
 -18438923.79748 -14305722.37546
                  21346089.8914                                   21346085.6844
                                                                        51.5004
        36.7504
  -8404591.95347  -6507524.08244
                  23393723.5864                                   23393720.5784
                                                                        43.0004
        29.0004
  -7394695.19547  -5745698.59845
                  23151684.3834                                   23151680.5474
                                                                        42.5004
        30.2504
  -8527485.06648  -6609638.94545
                  22095775.3914                                   22095769.1564
                                                                        49.5004
        33.7504
  -4877618.47747  -3777454.27744
                  23353970.0634                                   23353966.8714
                                                                        43.5004
        27.2504
  -5630538.07046  -4358601.54343
                  24337743.0784                                   24337739.2304
                                                                        39.2504
        22.7504
 09 10  8  0 10 30.0000000  0  9G02G04G05G13G29G10G23G30G31
 -15900597.89148 -12336056.60247
                  20413495.6644                                   20413489.7384
                                                                        52.5004
        43.0004
  -5744477.17648  -4446712.69146
                  21203681.4384                                   21203677.6524
                                                                        51.7504
        40.5004
  -1608774.10547  -1237608.15644
                  23936053.3364                                   23936049.1684
                                                                        42.0004
        28.5004
 -18564556.15648 -14403617.69146
                  21322182.7664                                   21322178.1094
                                                                        51.2504
        36.5004
  -8580575.83647  -6644654.37144
                  23360234.8364                                   23360231.1334
                                                                        43.2504
        29.0004
  -7594665.61347  -5901519.69945
                  23113631.1414                                   23113627.6054
                                                                        44.7504
        31.0004
  -8568851.45748  -6641872.50445
                  22087903.2584                                   22087897.1644
                                                                        49.7504
        32.7504
  -4891207.34847  -3788043.02344
                  23351384.1094                                   23351381.0204
                                                                        43.7504
        27.5004
  -5653388.68446  -4376407.24643
                  24333394.6174                                   24333391.4104
                                                                        37.0004
        22.7504
 09 10  8  0 11  0.0000000  0  9G02G04G05G13G29G10G23G30G31
 -16006692.66048 -12418727.85547
                  20393306.6884                                   20393300.4454
                                                                        52.2504
        43.2504
  -5768398.39148  -4465352.77746
                  21199129.5314                                   21199125.7344
                                                                        50.7504
        40.2504
  -1810908.41847  -1395115.44145
                  23897588.3914                                   23897584.8054
                                                                        43.7504
        30.2504
 -18689506.16848 -14500981.43446
                  21298405.6724                                   21298401.3714
                                                                        50.7504
        36.5004
  -8756152.76647  -6781467.54345
                  23326823.5234                                   23326820.5634
                                                                        43.0004
        31.0004
  -7794358.94547  -6057124.89145
                  23075630.4304                                   23075627.4574
                                                                        45.2504
        31.2504
  -8609610.48048  -6673632.78945
                  22080147.3984                                   22080141.1254
                                                                        48.7504
        33.5004
  -4904274.53147  -3798225.25044
                  23348897.7344                                   23348893.9384
                                                                        42.0004
        25.2504
  -5675747.21946  -4393829.49244
                  24329140.5864                                   24329137.1334
                                                                        39.7504
        24.5004
 09 10  8  0 11 30.0000000  0  9G02G04G05G13G29G10G23G30G31
 -16112177.12548 -12500923.53947
                  20373233.3134                                   20373227.5984
                                                                        51.7504
        43.0004
  -5791823.32848  -4483606.01646
                  21194671.9064                                   21194668.5904
                                                                        50.5004
        40.2504
  -2012847.32047  -1552470.37545
                  23859161.0004                                   23859157.0314
                                                                        44.2504
        31.0004
 -18813772.25048 -14597812.11346
                  21274758.5864                                   21274753.9694
                                                                        51.2504
        37.0004
  -8931320.21947  -6917961.63745
                  23293490.6724                                   23293486.9654
                                                                        43.5004
        31.0004
  -7993773.05147  -6212512.54745
                  23037682.9774                                   23037679.4264
                                                                        44.5004
        30.0004
  -8649763.94548  -6704921.21145
                  22072506.5554                                   22072500.2304
                                                                        49.0004
        32.5004
  -4916823.27747  -3808003.49244
                  23346509.5394                                   23346505.7504
                                                                        42.2504
        26.7504
  -5697616.56246  -4410870.56644
                  24324979.3204                                   24324975.0274
                                                                        39.2504
        25.5004
 09 10  8  0 12  0.0000000  0  9G02G04G05G13G29G10G23G30G31
 -16217051.66448 -12582643.95747
                  20353276.4534                                   20353270.8714
                                                                        52.5004
        43.0004
  -5814755.27048  -4501475.19546
                  21190307.7734                                   21190304.8364
                                                                        51.5004
        40.2504
  -2214590.42647  -1709672.77745
                  23820770.0784                                   23820766.5784
                                                                        44.7504
        30.2504
 -18937355.03148 -14694110.49246
                  21251241.6644                                   21251237.1994
                                                                        51.0004
        36.2504
  -9106076.84047  -7054135.61345
                  23260235.3204                                   23260231.7154
                                                                        42.5004
        30.7504
  -8192906.75447  -6367681.69145
                  22999789.7974                                   22999786.0044
                                                                        44.5004
        30.5004
  -8689314.60548  -6735739.94145
                  22064980.4844                                   22064974.1954
                                                                        49.0004
        33.5004
  -4928857.70747  -3817380.98844
                  23344219.4924                                   23344216.1954
                                                                        42.0004
        25.0004
  -5719000.13746  -4427533.10544
                  24320910.2504                                   24320905.9384
                                                                        41.2504
        26.7504
 09 10  8  0 12 30.0000000  0  9G02G04G05G13G29G10G23G30G31
 -16321315.95348 -12663888.85947
                  20333435.8284                                   20333429.6254
                                                                        52.7504
        43.0004
  -5837195.59048  -4518961.07446
                  21186037.7504                                   21186034.1334
                                                                        50.5004
        41.0004
  -2416135.55947  -1866720.93045
                  23782417.3594                                   23782414.0744
                                                                        44.2504
        30.0004
 -19060253.43448 -14789875.60946
                  21227854.9144                                   21227850.6954
                                                                        50.7504
        36.7504
  -9280420.47347  -7189987.77345
                  23227058.7734                                   23227055.8874
                                                                        43.0004
        30.7504
  -8391757.73447  -6522630.50445
                  22961949.3444                                   22961945.7624
                                                                        44.5004
        30.7504
  -8728264.97748  -6766090.88345
                  22057568.4844                                   22057562.3984
                                                                        49.2504
        33.0004
  -4940380.85247  -3826360.08644
                  23342026.6564                                   23342023.7234
                                                                        42.7504
        26.0004
  -5739900.48846  -4443819.11344
                  24316933.3364                                   24316929.1764
                                                                        40.2504
        27.5004
 09 10  8  0 13  0.0000000  0  9G02G04G05G13G29G10G23G30G31
 -14849547.71148 -11517056.46547
                  20613503.8364                                   20613498.1294
                                                                        52.5004
        43.5004
  -4283727.80148  -3308466.67246
                  21481652.7424                                   21481649.2894
                                                                        51.2504
        40.0004
  -1042056.32047   -796009.86344
                  24043896.6414                                   24043892.4064
                                                                        43.0004
        29.7504
 -17607043.61348 -13657504.32046
                  21504391.8284                                   21504387.6054
                                                                        51.2504
        36.7504
  -7878924.59047  -6097913.03945
                  23493754.3984                                   23493751.3054
                                                                        42.7504
        30.0004
  -7014899.36747  -5449753.84845
                  23223956.5314                                   23223953.3954
                                                                        44.2504
        31.0004
  -7191197.48448  -5568376.00045
                  22350062.8984                                   22350056.3054
                                                                        49.2504
        32.5004
  -3375977.10946  -2607344.18744
                  23639722.8134                                   23639719.6524
                                                                        41.2504
        26.2504
  -4184901.13347  -3232131.34044
                  24612840.0634                                   24612835.6884
                                                                        42.7504
        28.0004
 09 10  8  0 13 30.0000000  0  9G02G04G05G13G29G10G23G30G31
 -14952592.16048 -11597350.83647
                  20593894.9224                                   20593889.0824
                                                                        53.0004
        43.5004
  -4305194.30148  -3325193.89846
                  21477567.9224                                   21477564.5234
                                                                        51.5004
        40.0004
  -1243202.98847   -952747.51245
                  24005618.9454                                   24005615.4494
                                                                        42.0004
        30.0004
 -17728571.48448 -13752201.22746
                  21481265.3524                                   21481260.9774
                                                                        50.7504
        37.2504
  -8052437.60547  -6233117.95745
                  23460735.8134                                   23460732.8834
                                                                        43.2504
        30.7504
  -7213181.77747  -5604259.55945
                  23186224.8914                                   23186221.5204
                                                                        44.0004
        32.0004
  -7228955.37548  -5597797.75845
                  22342877.9534                                   22342871.4344
                                                                        49.2504
        32.5004
  -3386489.35247  -2615535.55944
                  23637722.8204                                   23637719.0274
                                                                        42.5004
        26.7504
  -4204844.84847  -3247671.93744
                  24609044.3284                                   24609040.0944
                                                                        43.0004
        27.0004
 09 10  8  0 14  0.0000000  0  9G02G04G05G13G29G10G23G30G31
 -15055027.89148 -11677170.89847
                  20574402.4454                                   20574396.3554
                                                                        52.7504
        43.5004
  -4326178.21948  -3341544.90646
                  21473574.6024                                   21473570.9614
                                                                        52.0004
        40.0004
  -1444149.26246  -1109328.93045
                  23967379.8834                                   23967376.5354
                                                                        41.7504
        30.5004
 -17849415.23848 -13846365.11346
                  21458269.8284                                   21458265.2814
                                                                        50.5004
        36.7504
  -8225534.17247  -6367998.37144
                  23427796.7894                                   23427793.3094
                                                                        42.5004
        29.7504
  -7411179.07047  -5758543.15245
                  23148547.0784                                   23148543.6134
                                                                        44.2504
        32.0004
  -7266121.73448  -5626758.57045
                  22335805.2344                                   22335798.5744
                                                                        48.7504
        32.7504
  -3396502.58246  -2623338.08644
                  23635817.6094                                   23635814.1684
                                                                        41.5004
        27.2504
  -4224315.90247  -3262844.19144
                  24605339.2664                                   24605334.6724
                                                                        42.0004
        25.0004
 09 10  8  0 14 30.0000000  0  9G02G04G05G13G29G10G23G30G31
 -15156854.29748 -11756516.15647
                  20555025.3204                                   20555019.3714
                                                                        52.2504
        43.5004
  -4346682.34448  -3357522.19546
                  21469672.9774                                   21469669.2304
                                                                        51.5004
        39.7504
  -1644894.12947  -1265753.47345
                  23929179.8524                                   23929176.2074
                                                                        44.2504
        30.5004
 -17969574.56648 -13939995.91446
                  21435404.0634                                   21435399.6954
                                                                        50.2504
        36.5004
  -8398211.93747  -6502552.46545
                  23394936.9614                                   23394933.5634
                                                                        43.5004
        30.2504
  -7608889.28547  -5912603.06245
                  23110923.9224                                   23110920.2774
                                                                        44.5004
        30.7504
  -7302698.98048  -5655260.33245
                  22328844.9384                                   22328838.2074
                                                                        49.2504
        33.0004
  -3406020.48047  -2630754.66044
                  23634005.5634                                   23634002.6914
                                                                        42.2504
        27.7504
  -4243317.15646  -3277650.35943
                  24601723.1334                                   24601718.7154
                                                                        41.2504
        22.0004
 09 10  8  0 15  0.0000000  0  9G02G04G05G13G29G10G23G30G31
 -15258071.81248 -11835386.94547
                  20535764.1564                                   20535758.5664
                                                                        52.2504
        43.2504
  -4366709.03148  -3373127.44946
                  21465862.3134                                   21465858.8524
                                                                        50.5004
        39.7504
  -1845436.16447  -1422019.96145
                  23891017.4844                                   23891013.6134
                                                                        44.5004
        30.5004
 -18089047.95348 -14033091.83246
                  21412668.8754                                   21412664.2424
                                                                        50.7504
        36.7504
  -8570468.88747  -6636778.64145
                  23362158.1724                                   23362154.6254
                                                                        44.0004
        31.0004
  -7806310.85947  -6066438.05145
                  23073356.2114                                   23073352.6804
                                                                        43.5004
        31.0004
  -7338689.51248  -5683304.89545
                  22321995.9614                                   22321989.5824
                                                                        48.7504
        32.5004
  -3415046.39847  -2637787.87544
                  23632288.3834                                   23632285.3484
                                                                        43.0004
        28.7504
  -4261851.62546  -3292092.78143
                  24598195.7504                                   24598191.1134
                                                                        38.7504
        22.0004
 09 10  8  0 15 30.0000000  0  9G02G04G05G13G29G10G23G30G31
 -15358679.14148 -11913782.27347
                  20516619.4614                                   20516613.4844
                                                                        52.7504
        43.0004
  -4386259.05548  -3388361.33246
                  21462142.0634                                   21462138.2344
                                                                        50.7504
        40.5004
  -2045772.44147  -1578126.12545
                  23852895.1024                                   23852891.2934
                                                                        44.5004
        31.0004
 -18207834.18748 -14125652.41446
                  21390064.4774                                   21390060.3874
                                                                        51.0004
        37.0004
  -8742302.09447  -6770674.61345
                  23329459.3524                                   23329455.7814
                                                                        44.0004
        30.5004
  -8003440.86747  -6220045.85245
                  23035843.4144                                   23035840.1524
                                                                        44.7504
        32.7504
  -7374094.48048  -5710893.18445
                  22315258.7424                                   22315252.3284
                                                                        49.5004
        32.5004
  -3423582.44547  -2644439.37544
                  23630664.1724                                   23630660.9024
                                                                        44.5004
        28.0004
  -4279920.87946  -3306172.71543
                  24594757.7734                                   24594753.5044
                                                                        40.0004
        23.7504
 09 10  8  0 16  0.0000000  0  9G02G04G05G13G29G10G23G30G31
 -15458676.23448 -11991702.09047
                  20497590.4924                                   20497584.6024
                                                                        52.2504
        43.5004
  -4405335.07048  -3403225.81646
                  21458511.9614                                   21458508.3444
                                                                        51.0004
        39.7504
  -2245902.12147  -1734071.30945
                  23814811.3204                                   23814807.7974
                                                                        43.5004
        30.2504
 -18325934.09048 -14217678.50846
                  21367591.2504                                   21367586.6524
                                                                        50.2504
        37.2504
  -8913710.19147  -6904239.33645
                  23296841.6094                                   23296837.7774
                                                                        44.0004
        32.2504
  -8200278.28947  -6373425.62545
                  22998386.4304                                   22998383.0274
                                                                        44.5004
        31.2504
  -7408916.73848  -5738027.35945
                  22308632.0394                                   22308625.7624
                                                                        48.7504
        33.0004
  -3431632.73847  -2650712.35244
                  23629132.2894                                   23629128.7704
                                                                        44.0004
        27.0004
  -4297528.68746  -3319893.11743
                  24591406.7034                                   24591403.0044
                                                                        40.0004
        22.5004
 09 10  8  0 16 30.0000000  0  9G02G04G05G13G29G10G23G30G31
 -15558064.21948 -12069147.26647
                  20478677.6884                                   20478671.6884
                                                                        52.5004
        43.2504
  -4423940.85948  -3417724.07046
                  21454971.6254                                   21454968.0904
                                                                        51.0004
        40.0004
  -2445824.82847  -1889855.21145
                  23776767.9924                                   23776764.6054
                                                                        42.5004
        32.0004
 -18443347.58648 -14309169.92246
                  21345248.4064                                   21345243.8134
                                                                        51.0004
        36.0004
  -9084692.17247  -7037472.04745
                  23264304.3524                                   23264301.4264
                                                                        45.2504
        32.2504
  -8396822.43447  -6526576.89545
                  22960985.3594                                   22960981.9614
                                                                        44.7504
        31.7504
  -7443159.99648  -5764710.40645
                  22302115.6024                                   22302109.8444
                                                                        48.2504
        33.5004
  -3439202.00847  -2656610.47744
                  23627692.0784                                   23627688.4964
                                                                        43.2504
        25.5004
  -4314678.96146  -3333257.01644
                  24588143.3134                                   24588139.3054
                                                                        40.2504
        24.5004
 09 10  8  0 17  0.0000000  0  9G02G04G05G13G29G10G23G30G31
 -15656846.31248 -12146120.32047
                  20459880.1884                                   20459874.1524
                                                                        52.7504
        43.0004
  -4442081.93748  -3431860.34846
                  21451519.8444                                   21451516.4454
                                                                        51.0004
        39.7504
  -2645542.56647  -2045479.41445
                  23738762.5704                                   23738758.9414
                                                                        44.5004
        32.5004
 -18560077.06248 -14400128.13746
                  21323035.6094                                   21323031.3484
                                                                        50.2504
        36.5004
  -9255249.52047  -7170373.85545
                  23231848.5784                                   23231845.1024
                                                                        44.5004
        31.5004
  -8593074.85547  -6679500.87145
                  22923640.1884                                   22923636.1604
                                                                        45.0004
        31.0004
  -7476829.73048  -5790946.55145
                  22295708.4924                                   22295702.0164
                                                                        48.7504
        33.2504
  -3446297.02047  -2662139.05944
                  23626341.4064                                   23626337.5904
                                                                        42.0004
        24.2504
  -4331377.89146  -3346269.21944
                  24584965.6644                                   24584961.8444
                                                                        40.7504
        25.5004
 09 10  8  0 17 30.0000000  0  9G02G04G05G13G29G10G23G30G31
 -15755018.84848 -12222618.41447
                  20441198.5554                                   20441192.4884
                                                                        53.0004
        43.5004
  -4459755.75448  -3445632.01246
                  21448156.4924                                   21448153.1134
                                                                        49.7504
        39.5004
  -2845049.57047  -2200939.36345
                  23700797.8204                                   23700794.3134
                                                                        45.0004
        31.2504
 -18676117.96948 -14490549.55946
                  21300953.9224                                   21300949.4144
                                                                        50.7504
        37.5004
  -9425376.28147  -7302940.14144
                  23199474.8524                                   23199471.1414
                                                                        43.5004
        29.7504
  -8789029.79347  -6832193.04745
                  22886350.8594                                   22886347.2114
                                                                        44.5004
        31.7504
  -7509924.83648  -5816734.98445
                  22289410.8444                                   22289404.3554
                                                                        48.7504
        32.0004
  -3452917.59847  -2667297.96143
                  23625081.0084                                   23625077.3554
                                                                        42.0004
        22.5004
  -4347624.27746  -3358928.78544
                  24581874.0634                                   24581870.3284
                                                                        41.5004
        26.0004
 09 10  8  0 18  0.0000000  0 10G02G04G05G13G29G10G23G30G31G25
 -15852584.73848 -12298643.78947
                  20422632.4844                                   20422626.5274
                                                                        52.5004
        43.5004
  -4476968.69548  -3459044.62146
                  21444880.8054                                   21444877.6054
                                                                        51.0004
        39.7504
  -3044347.66447  -2356236.52345
                  23662872.6484                                   23662868.8674
                                                                        44.2504
        31.0004
 -18791473.82848 -14580437.16846
                  21279002.4064                                   21278997.3444
                                                                        51.0004
        37.2504
  -9595074.07447  -7435172.16845
                  23167182.2664                                   23167178.5394
                                                                        44.5004
        30.5004
  -8984689.10247  -6984654.80145
                  22849117.8524                                   22849114.5474
                                                                        44.7504
        32.2504
  -7542450.93048  -5842080.03945
                  22283221.7814                                   22283215.0124
                                                                        48.0004
        31.7504
  -3459070.32046  -2672092.32444
                  23623910.7734                                   23623907.1134
                                                                        41.5004
        24.2504
  -4363424.72347  -3371240.86744
                  24578867.5394                                   24578863.8204
                                                                        42.2504
        27.0004
   2858912.93856   2265833.14153
                  24169181.7504                                   24169178.6024
                                                                        38.7504
        20.2504
 09 10  8  0 18 30.0000000  0 10G02G04G05G13G29G10G23G30G31G25
 -15949546.53148 -12374198.43047
                  20404181.1644                                   20404174.9534
                                                                        52.5004
        43.2504
  -4493725.63348  -3472101.92246
                  21441692.1644                                   21441688.6994
                                                                        50.7504
        39.7504
  -3243438.19947  -2511371.98445
                  23624986.4454                                   23624982.6024
                                                                        44.5004
        30.5004
 -18906146.56248 -14669792.37546
                  21257180.5704                                   21257175.8054
                                                                        50.7504
        37.0004
  -9764343.40247  -7567070.32845
                  23134971.2734                                   23134967.8244
                                                                        44.2504
        32.5004
  -9180053.38747  -7136886.68045
                  22811941.7814                                   22811938.4884
                                                                        45.0004
        32.0004
  -7574412.70348  -5866985.33245
                  22277139.1024                                   22277132.6024
                                                                        48.0004
        32.5004
  -3464761.09047  -2676526.73444
                  23622827.5234                                   23622824.2894
                                                                        42.7504
        24.5004
  -4378784.77047  -3383209.78144
                  24575945.1334                                   24575940.8484
                                                                        43.5004
        28.5004
   2680589.09446   2126879.75843
                  24135247.1024                                   24135244.4224
                                                                        38.7504
        20.2504
 09 10  8  0 19  0.0000000  0  9G02G04G05G13G29G10G23G30G25
 -16045909.29348 -12449286.28147
                  20385843.8134                                   20385837.7734
                                                                        52.5004
        42.7504
  -4510033.85948  -3484809.63746
                  21438588.7344                                   21438584.9804
                                                                        50.0004
        39.5004
  -3442324.67647  -2666348.44145
                  23587139.9454                                   23587135.9144
                                                                        43.7504
        30.7504
 -19020141.16848 -14758619.32446
                  21235488.2344                                   21235483.7114
                                                                        51.5004
        37.2504
  -9933187.28147  -7698636.96945
                  23102841.0084                                   23102837.7114
                                                                        44.5004
        31.0004
  -9375126.05547  -7288891.33245
                  22774820.4144                                   22774816.9884
                                                                        45.0004
        32.7504
  -7605817.78148  -5891456.81245
                  22271163.0314                                   22271156.7734
                                                                        48.5004
        33.0004
  -3469998.61347  -2680607.92644
                  23621831.8754                                   23621827.9774
                                                                        43.7504
        26.0004
   2502574.49646   1988167.09843
                  24101372.3834                                   24101369.1914
                                                                        40.5004
        19.5004
 09 10  8  0 19 30.0000000  0  9G02G04G05G13G29G10G23G30G25
 -16141668.28548 -12523903.70347
                  20367621.7274                                   20367615.9304
                                                                        52.5004
        43.7504
  -4525891.00048  -3497165.89846
                  21435571.2344                                   21435567.8134
                                                                        49.7504
        39.0004
  -3641000.91847  -2821161.09445
                  23549332.6644                                   23549329.0554
                                                                        44.0004
        30.7504
 -19133452.35948 -14846913.80546
                  21213926.1024                                   21213921.3834
                                                                        51.5004
        37.2504
 -10101598.93047  -7829866.80545
                  23070793.1724                                   23070790.0204
                                                                        44.0004
        31.7504
  -9569900.53947  -7440663.60945
                  22737756.3444                                   22737752.3554
                                                                        45.2504
        31.5004
  -7636663.77048  -5915492.65645
                  22265293.3754                                   22265287.4654
                                                                        48.7504
        32.7504
  -3474781.64147  -2684334.96944
                  23620921.5004                                   23620918.3834
                                                                        43.7504
        27.0004
   2324877.70347   1849702.56643
                  24067557.4844                                   24067554.3444
                                                                        42.0004
        22.7504
 09 10  8  0 20  0.0000000  0  9G02G04G05G13G29G10G23G30G25
 -16236813.82448 -12598043.07047
                  20349515.8984                                   20349509.8014
                                                                        53.0004
        43.0004
  -4541289.49248  -3509164.68046
                  21432641.0554                                   21432637.4884
                                                                        51.0004
        39.5004
  -3839455.59047  -2975801.07445
                  23511568.3204                                   23511564.4614
                                                                        43.5004
        31.5004
 -19246070.06648 -14934667.80146
                  21192495.2194                                   21192490.8914
                                                                        50.7504
        37.2504
 -10269567.14147  -7960751.12545
                  23038830.1094                                   23038826.6764
                                                                        44.5004
        31.0004
  -9764365.89147  -7592195.03145
                  22700750.4144                                   22700746.6214
                                                                        45.5004
        32.2504
  -7666943.82848  -5939087.52345
                  22259531.4694                                   22259525.3164
                                                                        48.2504
        33.2504
  -3479104.12147  -2687703.17244
                  23620099.0474                                   23620096.1724
                                                                        44.5004
        27.0004
   2147509.03147   1711493.43843
                  24033805.2424                                   24033801.8554
                                                                        43.0004
        22.7504
 09 10  8  0 20 30.0000000  0  9G02G04G05G13G29G10G23G30G25
 -16331342.44148 -12671701.76647
                  20331527.9774                                   20331521.8014
                                                                        52.5004
        43.2504
  -4556228.46548  -3520805.53146
                  21429798.2814                                   21429794.5354
                                                                        50.0004
        39.0004
  -4037683.69947  -3130264.49645
                  23473846.4454                                   23473842.9694
                                                                        43.5004
        31.0004
 -19357990.99248 -15021878.89546
                  21171197.5394                                   21171192.9224
                                                                        51.0004
        37.2504
 -10437086.15247  -8091285.41445
                  23006952.5084                                   23006948.7814
                                                                        45.5004
        31.7504
  -9958516.52047  -7743481.21145
                  22663804.7504                                   22663801.2544
                                                                        45.7504
        32.2504
  -7696656.90648  -5962240.57845
                  22253876.9064                                   22253870.8444
                                                                        48.0004
        32.5004
  -3482965.72747  -2690712.25044
                  23619363.8284                                   23619361.1294
                                                                        44.5004
        27.0004
   1970474.18447   1573544.08643
                  24000117.2974                                   24000113.1024
                                                                        43.0004
        22.5004
 09 10  8  0 21  0.0000000  0  9G02G04G05G13G29G10G23G30G25
 -16425254.83248 -12744880.28147
                  20313656.8754                                   20313651.0554
                                                                        52.7504
        42.7504
  -4570710.79348  -3532090.62946
                  21427042.3754                                   21427038.8834
                                                                        51.0004
        39.0004
  -4235684.52347  -3284550.83645
                  23436168.6174                                   23436164.9774
                                                                        43.7504
        31.5004
 -19469214.93748 -15108547.00046
                  21150032.1414                                   21150027.7544
                                                                        50.5004
        37.0004
 -10604154.96947  -8221468.89545
                  22975160.1644                                   22975156.3714
                                                                        44.2504
        31.7504
 -10152351.55947  -7894521.51245
                  22626919.6564                                   22626915.5634
                                                                        46.2504
        32.2504
  -7725806.25048  -5984954.35945
                  22248330.2814                                   22248323.8244
                                                                        48.7504
        32.7504
  -3486370.89547  -2693365.66444
                  23618715.9774                                   23618713.2854
                                                                        44.5004
        26.2504
   1793775.04346   1435856.09043
                  23966491.9064                                   23966488.7034
                                                                        41.2504
        22.7504
 09 10  8  0 21 30.0000000  0  9G02G04G05G13G29G10G23G30G25
 -16518549.88348 -12817577.72347
                  20295903.2814                                   20295897.5664
                                                                        52.0004
        43.0004
  -4584737.83248  -3543020.91046
                  21424373.3524                                   21424370.1844
                                                                        50.5004
        39.2504
  -4433455.49247  -3438658.02745
                  23398534.0554                                   23398530.3594
                                                                        43.7504
        33.0004
 -19579741.13348 -15194671.47746
                  21128999.9064                                   21128995.4924
                                                                        50.5004
        37.2504
 -10770770.61347  -8351299.26245
                  22943454.1484                                   22943450.9144
                                                                        44.0004
        31.7504
 -10345867.98447  -8045313.52345
                  22590093.9454                                   22590091.2274
                                                                        46.2504
        33.7504
  -7754393.34047  -6007229.99645
                  22242890.1804                                   22242883.5084
                                                                        47.7504
        32.0004
  -3489322.45747  -2695665.61344
                  23618153.7504                                   23618151.3134
                                                                        44.0004
        25.2504
   1617415.84046   1298433.28943
                  23932932.3984                                   23932929.0904
                                                                        40.5004
        22.5004
 09 10  8  0 22  0.0000000  0  9G02G04G05G13G29G10G23G30G25
 -15035811.55548 -11662197.19947
                  20578059.2034                                   20578053.0594
                                                                        51.7504
        43.0004
  -3022898.60548  -2326003.54746
                  21721581.6644                                   21721578.2034
                                                                        50.2504
        38.5004
  -3055575.38347  -2364985.19945
                  23660735.7344                                   23660732.2074
                                                                        44.7504
        32.7504
 -18114152.29348 -14052654.32846
                  21407892.2504                                   21407888.0084
                                                                        50.2504
        37.2504
  -9361512.58647  -7253176.10545
                  23211626.6334                                   23211624.0704
                                                                        44.0004
        31.5004
  -8963644.34047  -6968256.09845
                  22853123.2504                                   22853119.6054
                                                                        47.5004
        33.5004
  -6207006.38347  -4801473.94545
                  22537347.7814                                   22537341.2854
                                                                        47.5004
        32.2504
  -1916410.60547  -1470020.05943
                  23917468.6884                                   23917466.4344
                                                                        43.0004
        23.5004
   3016816.53546   2388874.94943
                  24199228.9224                                   24199226.5944
                                                                        40.5004
        21.7504
 09 10  8  0 22 30.0000000  0  9G02G04G05G13G29G10G23G30G25
 -15127884.31648 -11733942.21147
                  20560538.3204                                   20560532.1214
                                                                        52.0004
        43.2504
  -3036034.13348  -2336239.31246
                  21719082.4924                                   21719079.0704
                                                                        51.5004
        39.0004
  -3252894.03147  -2518739.95745
                  23623187.1094                                   23623183.2384
                                                                        44.5004
        32.5004
 -18223293.10248 -14137699.05946
                  21387123.2274                                   21387119.1764
                                                                        50.7504
        37.0004
  -9527228.03147  -7382304.99245
                  23180092.5084                                   23180089.6054
                                                                        43.2504
        32.2504
  -9156530.55547  -7118557.02345
                  22816417.6094                                   22816413.8524
                                                                        46.0004
        32.0004
  -6234488.13347  -4822888.30545
                  22532118.5554                                   22532111.5984
                                                                        47.2504
        31.2504
  -1918477.18747  -1471630.39143
                  23917075.8444                                   23917071.9694
                                                                        43.7504
        22.2504
   2841131.39546   2251977.59443
                  24165797.3204                                   24165794.1844
                                                                        40.2504
        22.5004
 09 10  8  0 23  0.0000000  0  9G02G04G05G13G29G10G23G30G25
 -15219348.07048 -11805212.67647
                  20543133.2814                                   20543127.2504
                                                                        52.5004
        43.0004
  -3048729.45348  -2346132.30946
                  21716666.6884                                   21716663.7624
                                                                        49.7504
        38.5004
  -3449985.94547  -2672318.05545
                  23585681.6804                                   23585677.9494
                                                                        44.0004
        31.2504
 -18331744.14848 -14222206.76646
                  21366486.3984                                   21366482.2344
                                                                        50.5004
        37.5004
  -9692492.28147  -7511082.30545
                  23148643.6094                                   23148640.4574
                                                                        43.5004
        33.2504
  -9349100.82447  -7268611.76645
                  22779772.4694                                   22779768.8054
                                                                        46.2504
        32.5004
  -6261422.96147  -4843876.52345
                  22526993.2194                                   22526986.9924
                                                                        47.2504
        31.5004
  -1920108.43747  -1472901.49243
                  23916765.8134                                   23916762.1134
                                                                        44.5004
        23.2504
   2665785.00847   2115344.28943
                  24132430.5864                                   24132426.4494
                                                                        42.0004
        22.2504
 09 10  8  0 23 30.0000000  0  9G02G04G05G13G29G10G23G30G25
 -15310201.60948 -11876007.63347
                  20525844.4774                                   20525838.1564
                                                                        53.0004
        43.2504
  -3060983.89548  -2355680.91046
                  21714334.5944                                   21714331.8094
                                                                        51.5004
        39.2504
  -3646848.88347  -2825717.75045
                  23548219.8674                                   23548215.9344
                                                                        44.5004
        31.5004
 -18439502.81648 -14306174.84446
                  21345980.5704                                   21345976.5784
                                                                        50.2504
        37.2504
  -9857302.52347  -7639505.84845
                  23117281.6254                                   23117278.1884
                                                                        43.7504
        32.5004
  -9541352.26247  -7418418.08645
                  22743188.5634                                   22743184.5234
                                                                        46.5004
        33.7504
  -6287812.53947  -4864439.84845
                  22521970.8284                                   22521965.1294
                                                                        47.0004
        32.2504
  -1921307.05547  -1473835.49644
                  23916537.9844                                   23916533.9304
                                                                        44.5004
        25.7504
   2490780.62147   1978977.52343
                  24099128.0394                                   24099124.1604
                                                                        43.2504
        22.7504
 09 10  8  0 24  0.0000000  0  9G02G04G05G13G29G10G23G30G25
 -15400446.51248 -11946328.33247
                  20508671.3204                                   20508665.2504
                                                                        53.0004
        43.5004
  -3072803.43448  -2364890.86746
                  21712085.5864                                   21712082.2894
                                                                        50.5004
        38.5004
  -3843482.28947  -2978938.53945
                  23510801.7274                                   23510798.2664
                                                                        45.0004
        31.0004
 -18546569.89548 -14389603.66046
                  21325606.6644                                   21325602.1524
                                                                        50.7504
        37.2504
 -10021658.28547  -7767575.25045
                  23086005.5394                                   23086002.1094
                                                                        43.0004
        32.0004
  -9733285.20347  -7567976.21945
                  22706664.8754                                   22706661.2974
                                                                        46.5004
        32.5004
  -6313660.68047  -4884581.28545
                  22517052.7974                                   22517046.4304
                                                                        47.7504
        31.7504
  -1922077.64147  -1474435.97344
                  23916391.3134                                   23916387.3714
                                                                        45.0004
        24.7504
   2316118.97347   1842877.84043
                  24065890.7034                                   24065887.1334
                                                                        43.7504
        23.5004
 09 10  8  0 24 30.0000000  0  9G02G04G05G13G29G10G23G30G25
 -15490083.77348 -12016175.55547
                  20491614.1174                                   20491607.7504
                                                                        52.5004
        42.7504
  -3084191.39848  -2373765.07446
                  21709919.0004                                   21709915.5634
                                                                        50.5004
        38.7504
  -4039885.60547  -3131980.09445
                  23473427.4924                                   23473423.6214
                                                                        45.5004
        32.2504
 -18652946.73048 -14472494.57446
                  21305363.4304                                   21305359.1454
                                                                        50.5004
        37.0004
 -10185558.32447  -7895289.55545
                  23054816.1484                                   23054812.6484
                                                                        44.2504
        31.2504
  -9924898.29747  -7717285.10245
                  22670202.0784                                   22670198.6134
                                                                        46.5004
        33.0004
  -6338970.54747  -4904303.25445
                  22512236.3524                                   22512230.2544
                                                                        47.5004
        31.2504
  -1922424.61347  -1474706.37944
                  23916325.1414                                   23916322.1954
                                                                        44.2504
        26.5004
   2141800.25847   1707044.74644
                  24032718.8594                                   24032715.4184
                                                                        42.2504
        24.0004
 09 10  8  0 25  0.0000000  0  9G02G04G05G13G29G10G23G30G25
 -15579115.03148 -12085550.52347
                  20474671.9694                                   20474666.0474
                                                                        52.5004
        43.5004
  -3095150.42248  -2382304.67646
                  21707833.3674                                   21707830.3054
                                                                        51.2504
        38.5004
  -4236059.07047  -3284842.53545
                  23436097.1644                                   23436093.3524
                                                                        43.7504
        32.5004
 -18758635.93448 -14554849.95346
                  21285251.6484                                   21285247.1294
                                                                        49.5004
        37.2504
 -10349002.95747  -8022648.98445
                  23023713.9384                                   23023710.0204
                                                                        44.2504
        32.2504
 -10116191.56247  -7866344.78545
                  22633799.9534                                   22633796.2234
                                                                        46.7504
        33.5004
  -6363746.79747  -4923609.42245
                  22507521.2894                                   22507515.1524
                                                                        47.5004
        31.5004
  -1922353.41047  -1474650.92644
                  23916338.5394                                   23916336.0514
                                                                        43.2504
        25.5004
   1967827.23847   1571481.55944
                  23999613.2194                                   23999609.7894
                                                                        42.7504
        24.2504
 09 10  8  0 25 30.0000000  0  9G02G04G05G13G29G10G23G30G25
 -15667539.49248 -12154452.67247
                  20457845.2504                                   20457838.7854
                                                                        52.0004
        43.5004
  -3105682.01248  -2390511.08646
                  21705829.0314                                   21705826.0514
                                                                        50.7504
        38.5004
  -4431999.90247  -3437523.65245
                  23398810.7734                                   23398807.2704
                                                                        45.7504
        33.2504
 -18863635.25448 -14636667.84446
                  21265270.8914                                   21265267.0634
                                                                        50.0004
        37.2504
 -10511988.68747  -8149650.84845
                  22992698.8134                                   22992694.9454
                                                                        44.5004
        31.7504
 -10307161.71147  -8015152.68045
                  22597459.5634                                   22597455.9534
                                                                        46.0004
        34.0004
  -6387990.77048  -4942500.84045
                  22502908.0864                                   22502901.6054
                                                                        48.0004
        31.7504
  -1921866.49647  -1474271.52744
                  23916431.3524                                   23916428.1094
                                                                        42.7504
        25.5004
   1794202.38347   1436189.58243
                  23966572.5394                                   23966569.8524
                                                                        42.7504
        23.0004
 09 10  8  0 26  0.0000000  0  9G02G04G05G13G29G10G23G30G25
 -15755356.50048 -12222881.53147
                  20441134.2034                                   20441127.9144
                                                                        52.0004
        43.5004
  -3115787.44148  -2398385.16446
                  21703905.9534                                   21703903.3364
                                                                        49.2504
        38.5004
  -4627705.78947  -3590021.71945
                  23361568.9534                                   23361565.0744
                                                                        46.5004
        33.2504
 -18967942.99648 -14717946.35246
                  21245421.9534                                   21245417.6524
                                                                        49.2504
        37.5004
 -10674512.60247  -8276292.84045
                  22961771.7974                                   22961767.8204
                                                                        44.0004
        32.2504
 -10497806.78547  -8163707.26245
                  22561181.4064                                   22561177.8244
                                                                        46.2504
        34.5004
  -6411704.30547  -4960978.91445
                  22498395.8364                                   22498389.7234
                                                                        47.7504
        31.5004
  -1920966.61346  -1473570.38744
                  23916602.6724                                   23916599.5864
                                                                        41.0004
        24.7504
   1620927.92246   1301170.23843
                  23933599.9694                                   23933597.0984
                                                                        41.0004
        23.2504
 09 10  8  0 26 30.0000000  0  9G02G04G05G13G29G10G23G30G25
 -15842566.17648 -12290837.14547
                  20424539.0004                                   20424532.6954
                                                                        51.5004
        42.5004
  -3125470.74248  -2405930.85246
                  21702063.5704                                   21702060.5314
                                                                        50.0004
        38.5004
  -4823175.19947  -3742335.50845
                  23324372.2664                                   23324368.6564
                                                                        45.5004
        33.2504
 -19071560.72348 -14798687.42646
                  21225703.9144                                   21225699.7274
                                                                        48.5004
        37.5004
 -10836573.18047  -8402573.79345
                  22930932.2664                                   22930929.0634
                                                                        44.0004
        33.5004
 -10688124.62147  -8312006.86345
                  22524964.7344                                   22524961.4024
                                                                        46.5004
        34.0004
  -6434889.94147  -4979045.65645
                  22493983.5784                                   22493977.1374
                                                                        47.7504
        31.0004
  -1919657.41846  -1472550.27344
                  23916851.5784                                   23916849.0824
                                                                        41.7504
        24.2504
   1448006.41846   1166425.64143
                  23900694.1804                                   23900691.5594
                                                                        40.7504
        21.5004
 09 10  8  0 27  0.0000000  0  9G02G04G05G13G29G10G23G30G25
 -15929168.08248 -12358319.14147
                  20408059.0784                                   20408052.6254
                                                                        52.0004
        43.0004
  -3134731.19948  -2413146.47346
                  21700301.1804                                   21700297.7894
                                                                        49.7504
        38.2504
  -5018406.04747  -3894463.43445
                  23287221.5084                                   23287217.3984
                                                                        45.0004
        32.2504
 -19174486.68448 -14878889.36746
                  21206117.4844                                   21206113.7584
                                                                        49.0004
        36.7504
 -10998167.78147  -8528491.65245
                  22900181.9534                                   22900179.2074
                                                                        43.2504
        33.0004
 -10878112.92647  -8460049.67645
                  22488811.1804                                   22488807.2934
                                                                        45.5004
        33.5004
  -6457549.61347  -4996702.56645
                  22489671.1884                                   22489665.5354
                                                                        47.2504
        30.5004
  -1917941.68446  -1471213.38743
                  23917177.9774                                   23917175.1724
                                                                        40.5004
        22.5004
   1275443.28146   1031961.10943
                  23867857.5864                                   23867853.9804
                                                                        41.7504
        22.5004
 09 10  8  0 27 30.0000000  0  9G02G04G05G13G29G10G23G30G25
 -16015162.64148 -12425327.80947
                  20391694.6884                                   20391688.3834
                                                                        52.5004
        43.2504
  -3143574.82848  -2420038.25846
                  21698618.5704                                   21698615.7234
                                                                        50.5004
        38.5004
  -5213396.92647  -4046404.35245
                  23250116.1884                                   23250111.9774
                                                                        45.7504
        33.0004
 -19276722.02048 -14958553.28546
                  21186662.8594                                   21186659.0234
                                                                        48.2504
        37.0004
 -11159295.18447  -8654045.44145
                  22869520.4924                                   22869517.5164
                                                                        43.0004
        33.7504
 -11067770.59447  -8607834.86345
                  22452720.4614                                   22452717.1374
                                                                        45.0004
        34.0004
  -6479686.49247  -5013952.10245
                  22485458.7734                                   22485452.1804
                                                                        46.7504
        31.0004
  -1915823.19547  -1469562.63743
                  23917581.2504                                   23917577.7544
                                                                        42.5004
        22.5004
   1103237.92647    897775.05544
                  23835087.5164                                   23835083.8714
                                                                        42.2504
        25.0004
 09 10  8  0 28  0.0000000  0  9G02G04G05G13G29G10G23G30G25
 -16100550.87948 -12491864.12147
                  20375445.8524                                   20375439.6764
                                                                        52.0004
        43.5004
  -3152000.47748  -2426603.50846
                  21697015.2344                                   21697011.7734
                                                                        49.7504
        38.2504
  -5408146.55147  -4198157.30145
                  23213055.9064                                   23213052.0744
                                                                        47.0004
        33.7504
 -19378266.78148 -15037679.15246
                  21167339.5704                                   21167335.6764
                                                                        49.5004
        37.0004
 -11319953.21947  -8779233.48845
                  22838947.7194                                   22838945.2194
                                                                        43.7504
        33.5004
 -11257095.94147  -8755361.08245
                  22416693.3054                                   22416689.5394
                                                                        46.2504
        33.2504
  -6501303.08647  -5030796.21145
                  22481345.2814                                   22481339.1484
                                                                        46.5004
        32.0004
  -1913305.92647  -1467601.14144
                  23918060.8674                                   23918056.9774
                                                                        42.5004
        24.5004
    931390.44547    763866.55944
                  23802387.0944                                   23802383.7774
                                                                        43.5004
        25.7504
 09 10  8  0 28 30.0000000  0  9G02G04G05G13G29G10G23G30G25
 -16185332.78548 -12557927.97347
                  20359312.4774                                   20359306.4104
                                                                        52.0004
        43.0004
  -3160011.32048  -2432845.08246
                  21695490.4614                                   21695487.2344
                                                                        50.0004
        38.5004
  -5602653.46947  -4349721.11745
                  23176042.8054                                   23176038.8094
                                                                        47.0004
        33.5004
 -19479120.81248 -15116266.55546
                  21148147.8444                                   21148143.2384
                                                                        49.5004
        37.0004
 -11480140.56647  -8904054.77345
                  22808465.4694                                   22808462.7234
                                                                        44.7504
        33.5004
 -11446087.11347  -8902626.89145
                  22380729.2424                                   22380725.8524
                                                                        46.7504
        34.2504
  -6522402.52047  -5047237.33645
                  22477330.9534                                   22477323.7814
                                                                        47.0004
        31.5004
  -1910393.69947  -1465331.85943
                  23918614.8204                                   23918611.5004
                                                                        42.5004
        23.0004
    759909.48847    630245.57844
                  23769755.1174                                   23769752.1484
                                                                        42.0004
        24.5004
 09 10  8  0 29  0.0000000  0  9G02G04G05G13G29G10G23G30G25
 -16269508.01648 -12623519.07447
                  20343294.5084                                   20343288.2304
                                                                        52.0004
        42.7504
  -3167611.19148  -2438766.84046
                  21694043.3674                                   21694040.5744
                                                                        49.0004
        37.5004
  -5796915.71947  -4501094.27045
                  23139075.8204                                   23139071.9384
                                                                        46.2504
        33.2504
 -19579283.77348 -15194315.39146
                  21129087.4304                                   21129082.6454
                                                                        49.7504
        37.0004
 -11639854.95747  -9028507.52745
                  22778072.7424                                   22778069.5784
                                                                        45.0004
        33.0004
 -11634742.04347  -9049630.71545
                  22344829.7734                                   22344825.7384
                                                                        47.0004
        34.2504
  -6542986.96147  -5063277.15245
                  22473413.3284                                   22473406.6294
                                                                        47.0004
        31.5004
  -1907089.56646  -1462757.24644
                  23919243.4304                                   23919239.7854
                                                                        41.5004
        25.0004
    588791.77046    496906.70744
                  23737192.8834                                   23737190.0704
                                                                        41.5004
        25.0004
 09 10  8  0 29 30.0000000  0  9G02G04G05G13G29G10G23G30G25
 -16353077.42248 -12688638.12147
                  20327391.6414                                   20327385.4964
                                                                        52.5004
        43.0004
  -3174803.37548  -2444371.66446
                  21692675.6884                                   21692672.5704
                                                                        50.0004
        37.5004
  -5990932.21147  -4652275.90245
                  23102155.6884                                   23102151.7624
                                                                        47.0004
        33.2504
 -19678756.56248 -15271826.48446
                  21110157.9774                                   21110153.5984
                                                                        49.7504
        36.7504
 -11799094.84847  -9152590.54745
                  22747770.7344                                   22747766.8164
                                                                        46.0004
        33.0004
 -11823059.71547  -9196371.74245
                  22308994.1884                                   22308990.1684
                                                                        46.5004
        34.2504
  -6563059.37147  -5078917.96145
                  22469593.9454                                   22469587.4144
                                                                        46.7504
        31.0004
  -1903397.36346  -1459880.22343
                  23919945.7344                                   23919943.5004
                                                                        40.2504
        23.7504
    418042.02046    363855.00443
                  23704699.6334                                   23704697.4064
                                                                        41.0004
        22.7504
 09 10  8  0 30  0.0000000  0  9G02G04G05G13G29G10G23G30G25
 -16436042.20748 -12753285.91847
                  20311604.0314                                   20311598.0084
                                                                        52.0004
        43.7504
  -3181588.32448  -2449658.32446
                  21691384.1954                                   21691381.0164
                                                                        49.0004
        37.7504
  -6184702.34847  -4803265.60545
                  23065282.6094                                   23065278.3404
                                                                        47.5004
        33.5004
 -19777540.09448 -15348800.55946
                  21091360.1884                                   21091356.0944
                                                                        49.0004
        36.7504
 -11957859.48047  -9276303.23445
                  22717558.3674                                   22717554.3284
                                                                        45.5004
        33.5004
 -12011038.89547  -9342849.02345
                  22273222.4924                                   22273219.0164
                                                                        46.7504
        35.0004
  -6582623.62147  -5094162.82845
                  22465870.9694                                   22465864.3794
                                                                        47.2504
        30.5004
  -1899321.68746  -1456704.43744
                  23920721.2424                                   23920718.7624
                                                                        41.5004
        24.7504
    247661.00446    231090.70743
                  23672277.5394                                   23672274.3674
                                                                        40.2504
        22.5004
 09 10  8  0 30 30.0000000  0  9G02G04G05G13G29G10G23G30G25
 -14942979.97748 -11589860.78547
                  20595724.1334                                   20595718.2234
                                                                        51.5004
        42.7504
  -1612550.46948  -1227031.58246
                  21989962.1644                                   21989959.1764
                                                                        49.5004
        38.0004
  -4802798.02047  -3726457.00045
                  23328250.3284                                   23328246.0314
                                                                        47.5004
        34.0004
 -18300211.93048 -14197635.79746
                  21372486.2344                                   21372481.6524
                                                                        49.5004
        37.2504
 -10540721.62547  -8172039.96545
                  22987231.0944                                   22987226.7504
                                                                        44.7504
        33.2504
 -10623252.07447  -8261456.68745
                  22537309.4064                                   22537306.1564
                                                                        46.0004
        34.0004
  -5026261.66047  -3881413.22745
                  22762036.8204                                   22762030.2074
                                                                        47.0004
        31.0004
   -319446.67247   -225633.04743
                  24221362.0314                                   24221359.0664
                                                                        42.0004
        22.7504
   1653076.06646   1326219.38343
                  23939718.3834                                   23939715.3954
                                                                        39.2504
        22.7504
 09 10  8  0 31  0.0000000  0  9G02G04G05G13G29G10G23G30G25
 -15024737.20348 -11653567.77747
                  20580166.1564                                   20580160.2774
                                                                        51.0004
        42.7504
  -1618531.50448  -1231691.85246
                  21988824.0474                                   21988820.7664
                                                                        50.0004
        37.5004
  -4996070.76248  -3877059.10545
                  23291471.1414                                   23291467.5274
                                                                        48.0004
        34.5004
 -18397618.57848 -14273537.03546
                  21353950.3284                                   21353946.3794
                                                                        49.2504
        37.0004
 -10698530.53147  -8295007.93445
                  22957200.9924                                   22957196.9064
                                                                        45.5004
        33.0004
 -10810549.94547  -8407403.03545
                  22501667.9614                                   22501664.6414
                                                                        46.2504
        34.7504
  -5044817.96547  -3895872.65645
                  22758505.3754                                   22758499.0004
                                                                        46.7504
        31.2504
   -314615.84446   -221868.79343
                  24222280.9614                                   24222277.8984
                                                                        41.5004
        23.5004
   1483438.52346   1194034.60944
                  23907437.6884                                   23907434.6054
                                                                        41.2504
        25.5004
 09 10  8  0 31 30.0000000  0  9G02G04G05G13G29G10G23G30G25
 -15105891.41848 -11716804.84847
                  20564723.2664                                   20564717.3714
                                                                        52.2504
        43.0004
  -1624114.96148  -1236042.52746
                  21987761.4924                                   21987758.2624
                                                                        49.5004
        38.2504
  -5189093.27347  -4027466.25045
                  23254740.6024                                   23254736.3204
                                                                        47.2504
        34.0004
 -18494337.36748 -14348902.33246
                  21335545.3444                                   21335541.1954
                                                                        50.0004
        36.7504
 -10855859.28947  -8417601.75845
                  22927262.3754                                   22927258.2894
                                                                        43.5004
        33.0004
 -10997505.23047  -8553082.47745
                  22466091.6484                                   22466087.6684
                                                                        47.0004
        34.7504
  -5062874.90247  -3909942.98445
                  22755069.0084                                   22755062.8954
                                                                        46.7504
        31.2504
   -309413.32847   -217814.93743
                  24223270.9384                                   24223268.0124
                                                                        42.0004
        22.5004
   1314174.96147   1062140.96944
                  23875227.9614                                   23875225.0984
                                                                        42.5004
        26.0004
 09 10  8  0 32  0.0000000  0  9G02G04G05G13G29G10G23G30G25
 -15186441.43748 -11779571.19147
                  20549395.2034                                   20549389.0554
                                                                        52.0004
        43.2504
  -1629300.92648  -1240083.38346
                  21986774.7814                                   21986771.4264
                                                                        50.2504
        37.5004
  -5381862.02747  -4177675.62545
                  23218057.8204                                   23218054.2624
                                                                        46.7504
        34.0004
 -18590366.78948 -14423730.64146
                  21317271.8284                                   21317267.5314
                                                                        50.0004
        36.5004
 -11012704.35547  -8539818.68045
                  22897415.8594                                   22897411.6914
                                                                        45.0004
        32.2504
 -11184114.26247  -8698492.08645
                  22430581.1724                                   22430577.2304
                                                                        46.7504
        35.2504
  -5080433.11747  -3923624.71545
                  22751727.9304                                   22751722.0904
                                                                        45.5004
        30.2504
   -303840.88347   -213472.77744
                  24224331.9304                                   24224328.0984
                                                                        42.0004
        24.7504
   1145289.99246    930542.47344
                  23843090.2504                                   23843086.7464
                                                                        40.5004
        24.5004
 09 10  8  0 32 30.0000000  0  9G02G04G05G13G29G10G23G30G25
 -15266390.54748 -11841869.18447
                  20534181.4924                                   20534175.1334
                                                                        52.0004
        43.2504
  -1634095.79748  -1243819.65246
                  21985861.8284                                   21985858.7934
                                                                        49.5004
        37.5004
  -5574378.53147  -4327688.44945
                  23181422.9384                                   23181418.8484
                                                                        46.5004
        34.0004
 -18685710.30548 -14498024.46946
                  21299128.4304                                   21299124.1724
                                                                        50.0004
        37.2504
 -11169067.08247  -8661659.75845
                  22867660.6564                                   22867656.9304
                                                                        45.0004
        33.7504
 -11370378.30147  -8843632.88745
                  22395136.3054                                   22395132.3484
                                                                        46.5004
        35.2504
  -5097498.68447  -3936922.56244
                  22748480.2974                                   22748474.5204
                                                                        45.0004
        29.5004
   -297905.23047   -208847.61744
                  24225460.7034                                   24225457.9344
                                                                        43.5004
        24.0004
    976783.74246    799239.70744
                  23811023.6414                                   23811020.6724
                                                                        41.5004
        25.2504
 09 10  8  0 33  0.0000000  0  9G02G04G05G13G29G10G23G30G25
 -15345734.25448 -11903695.38347
                  20519082.8054                                   20519076.3954
                                                                        52.0004
        43.0004
  -1638495.84048  -1247248.14846
                  21985024.4534                                   21985021.2704
                                                                        49.7504
        37.2504
  -5766636.37147  -4477499.72345
                  23144837.5784                                   23144833.8674
                                                                        47.5004
        34.5004
 -18780362.99248 -14571779.88746
                  21281116.4924                                   21281112.7154
                                                                        49.0004
        37.2504
 -11324940.75847  -8783119.75845
                  22837998.9384                                   22837995.5664
                                                                        45.7504
        34.0004
 -11556290.63347  -8988499.62145
                  22359758.2974                                   22359754.5084
                                                                        45.7504
        35.0004
  -5114069.30547  -3949834.74645
                  22745327.0704                                   22745320.6644
                                                                        45.7504
        30.2504
   -291605.16447   -203938.51243
                  24226659.9844                                   24226656.5084
                                                                        44.0004
        23.5004
    808659.83646    668233.65644
                  23779031.0314                                   23779028.0904
                                                                        41.5004
        24.5004
 09 10  8  0 33 30.0000000  0  9G02G04G05G13G29G10G23G30G25
 -15424473.57448 -11965050.69547
                  20504099.1174                                   20504093.0084
                                                                        51.5004
        43.2504
  -1642504.18448  -1250371.39546
                  21984261.9694                                   21984258.6724
                                                                        48.2504
        38.0004
  -5958634.26247  -4627108.46145
                  23108301.6644                                   23108297.5274
                                                                        47.5004
        34.2504
 -18874326.10248 -14644998.23046
                  21263236.3984                                   21263232.5744
                                                                        49.5004
        37.7504
 -11480323.70347  -8904197.35945
                  22808430.4774                                   22808427.2154
                                                                        45.5004
        34.2504
 -11741850.19147  -9133091.48845
                  22324447.7584                                   22324443.8874
                                                                        47.0004
        34.7504
  -5130147.94947  -3962363.55945
                  22742267.8134                                   22742261.2854
                                                                        45.7504
        31.0004
   -284944.35547   -198748.32443
                  24227927.6484                                   24227924.7464
                                                                        44.0004
        23.2504
    640923.53546    537530.13343
                  23747111.4924                                   23747108.8444
                                                                        41.5004
        23.5004
 09 10  8  0 34  0.0000000  0  9G02G04G05G13G29G10G23G30G25
 -15502611.98048 -12025937.82447
                  20489229.9694                                   20489223.9494
                                                                        51.5004
        43.5004
  -1646126.74248  -1253194.18046
                  21983572.4064                                   21983569.2154
                                                                        49.5004
        37.7504
  -6150373.82447  -4776515.90645
                  23071814.8834                                   23071811.1564
                                                                        47.2504
        34.7504
 -18967602.27048 -14717681.02046
                  21245486.9774                                   21245483.0164
                                                                        49.7504
        38.0004
 -11635217.73447  -9024894.00045
                  22778955.2894                                   22778952.3524
                                                                        46.5004
        34.0004
 -11927058.31647  -9277409.50045
                  22289203.6254                                   22289199.8204
                                                                        46.5004
        35.0004
  -5145740.76647  -3974513.81245
                  22739300.6094                                   22739293.8874
                                                                        46.0004
        30.2504
   -277929.73047   -193282.41043
                  24229262.4774                                   24229259.2544
                                                                        43.0004
        23.5004
    473573.82047    407128.29744
                  23715265.9924                                   23715262.3794
                                                                        42.2504
        24.5004
 09 10  8  0 34 30.0000000  0  8G02G04G05G13G29G10G23G25
 -15580147.00848 -12086354.77047
                  20474475.8284                                   20474469.5594
                                                                        52.5004
        43.0004
  -1649363.44948  -1255716.53546
                  21982956.5784                                   21982953.2854
                                                                        49.2504
        38.0004
  -6341850.52047  -4925718.51245
                  23035378.0084                                   23035373.9454
                                                                        47.5004
        35.0004
 -19060189.09848 -14789826.49246
                  21227868.1804                                   21227863.8984
                                                                        49.2504
        36.5004
 -11789618.46547  -9145206.25445
                  22749573.6644                                   22749570.5394
                                                                        46.0004
        34.5004
 -12111910.53947  -9421450.18745
                  22254027.0314                                   22254023.3984
                                                                        47.0004
        34.2504
  -5160847.94947  -3986285.63345
                  22736425.5784                                   22736419.2894
                                                                        46.5004
        30.5004
    306614.03147    277030.10244
                  23683494.1024                                   23683490.4494
                                                                        43.2504
        26.0004
 09 10  8  0 35  0.0000000  0  8G02G04G05G13G29G10G23G25
 -15657080.64148 -12146303.09447
                  20459835.6334                                   20459829.4384
                                                                        52.5004
        42.5004
  -1652217.09048  -1257940.11746
                  21982413.5784                                   21982410.4344
                                                                        49.7504
        37.2504
  -6533064.34047  -5074716.28945
                  22998991.4064                                   22998987.3134
                                                                        47.5004
        34.2504
 -19152088.85548 -14861436.69946
                  21210379.9384                                   21210376.0044
                                                                        50.5004
        36.7504
 -11943525.05147  -9265133.45345
                  22720286.4774                                   22720283.0084
                                                                        46.5004
        34.0004
 -12296406.41047  -9565213.19545
                  22218919.0864                                   22218915.3874
                                                                        46.7504
        35.2504
  -5175473.38747  -3997682.09444
                  22733642.4534                                   22733636.0314
                                                                        45.7504
        29.5004
    140046.62147    147238.19144
                  23651796.8834                                   23651793.4654
                                                                        43.0004
        25.5004
 09 10  8  0 35 30.0000000  0  8G02G04G05G13G29G10G23G25
 -15733404.91048 -12205776.66047
                  20445311.6174                                   20445305.7934
                                                                        53.0004
        42.7504
  -1654682.01648  -1259860.86346
                  21981944.6954                                   21981941.2274
                                                                        49.2504
        38.0004
  -6724004.96147  -5223501.16445
                  22962656.5084                                   22962652.4024
                                                                        46.5004
        34.2504
 -19243292.75848 -14932504.45746
                  21193024.1954                                   21193020.0824
                                                                        48.5004
        37.0004
 -12096926.99247  -9384667.43445
                  22691094.8524                                   22691091.3484
                                                                        45.5004
        34.2504
 -12480535.62947  -9708690.50445
                  22183879.9614                                   22183876.6094
                                                                        46.5004
        35.5004
  -5189611.42247  -4008698.76644
                  22730951.9534                                   22730946.0864
                                                                        45.0004
        29.7504
    -26120.25047     17757.57444
                  23620176.2584                                   23620172.9614
                                                                        44.2504
        26.2504
 09 10  8  0 36  0.0000000  0  8G02G04G05G13G29G10G23G25
 -15809119.64848 -12264775.16047
                  20430903.8594                                   20430897.9064
                                                                        52.5004
        43.0004
  -1656760.26648  -1261480.30146
                  21981549.2814                                   21981546.0664
                                                                        49.0004
        37.0004
  -6914670.80547  -5372071.96145
                  22926373.9614                                   22926369.9414
                                                                        47.0004
        34.0004
 -19333801.80948 -15003030.84046
                  21175801.0704                                   21175796.5434
                                                                        48.7504
        37.5004
 -12249822.94147  -9503807.12545
                  22661999.7664                                   22661996.0084
                                                                        44.5004
        34.5004
 -12664295.87147  -9851880.29346
                  22148911.9694                                   22148907.9774
                                                                        47.0004
        36.2504
  -5203264.34447  -4019337.41445
                  22728353.9224                                   22728347.4104
                                                                        44.0004
        30.0004
   -191882.46947   -111407.66044
                  23588633.4454                                   23588629.3594
                                                                        43.0004
        26.0004
 09 10  8  0 36 30.0000000  0  8G02G04G05G13G29G10G23G25
 -15884230.87948 -12323303.37547
                  20416610.5234                                   20416604.5044
                                                                        52.5004
        43.0004
  -1658459.76248  -1262804.72746
                  21981225.8754                                   21981222.8324
                                                                        48.5004
        37.0004
  -7105065.34447  -5520431.32845
                  22890142.9224                                   22890139.1134
                                                                        47.5004
        34.5004
 -19423621.37948 -15073019.87946
                  21158708.6174                                   21158704.6094
                                                                        49.0004
        36.5004
 -12402216.09847  -9622555.03145
                  22633000.2194                                   22632996.5314
                                                                        46.0004
        33.5004
 -12847691.44547  -9994785.92645
                  22114012.4454                                   22114009.1914
                                                                        47.2504
        35.7504
  -5216440.27047  -4029604.39544
                  22725846.6254                                   22725840.6094
                                                                        43.5004
        29.2504
   -357243.53947   -240260.51644
                  23557165.1884                                   23557161.7304
                                                                        42.7504
        24.5004
 09 10  8  0 37  0.0000000  0  8G02G04G05G13G29G10G23G25
 -15958742.76248 -12381364.64147
                  20402431.2584                                   20402425.4534
                                                                        51.7504
        42.5004
  -1659786.26648  -1263838.44146
                  21980973.6884                                   21980970.5394
                                                                        49.2504
        37.2504
  -7295190.57448  -5668580.82045
                  22853963.6414                                   22853959.5594
                                                                        48.0004
        35.7504
 -19512756.12148 -15142475.54746
                  21141746.5944                                   21141742.7154
                                                                        49.0004
        37.2504
 -12554108.42647  -9740912.69545
                  22604095.8674                                   22604092.4224
                                                                        45.5004
        34.0004
 -13030723.82847 -10137408.53945
                  22079182.6414                                   22079179.4414
                                                                        46.7504
        35.5004
  -5229145.76647  -4039504.79745
                  22723428.8364                                   22723422.9964
                                                                        43.7504
        30.0004
   -522205.24247   -368802.48044
                  23525774.7894                                   23525770.9384
                                                                        42.5004
        24.7504
 09 10  8  0 37 30.0000000  0  8G02G04G05G13G29G10G23G25
 -16032660.46148 -12438962.87947
                  20388365.2584                                   20388359.1214
                                                                        52.5004
        43.2504
  -1660746.21948  -1264586.26646
                  21980790.7344                                   21980787.2894
                                                                        49.0004
        37.0004
  -7485049.51647  -5816522.83245
                  22817834.7114                                   22817830.9144
                                                                        47.5004
        35.7504
 -19601210.59048 -15211401.16046
                  21124914.4924                                   21124910.4884
                                                                        49.5004
        37.0004
 -12705502.77047  -9858882.31245
                  22575287.0314                                   22575283.3014
                                                                        45.7504
        33.5004
 -13213395.77747 -10279750.30545
                  22044421.3524                                   22044418.1994
                                                                        46.5004
        35.5004
  -5241388.00847  -4049044.19945
                  22721099.4844                                   22721093.0354
                                                                        44.0004
        30.0004
   -686769.66047   -497035.05544
                  23494460.1484                                   23494456.2074
                                                                        42.7504
        25.7504
 09 10  8  0 38  0.0000000  0  8G02G04G05G13G29G10G23G25
 -16105986.44948 -12496100.23447
                  20374412.0634                                   20374406.0434
                                                                        51.7504
        42.7504
  -1661344.14848  -1265052.05946
                  21980676.4304                                   21980673.3324
                                                                        48.0004
        36.2504
  -7674642.21147  -5964257.35945
                  22781755.8834                                   22781752.0904
                                                                        45.7504
        35.5004
 -19688986.91848 -15279798.31246
                  21108211.3914                                   21108207.5744
                                                                        49.5004
        37.0004
 -12856398.95347  -9976463.75045
                  22546571.8444                                   22546568.3444
                                                                        46.7504
        34.0004
 -13395707.40647 -10421811.30945
                  22009729.0314                                   22009725.1724
                                                                        46.2504
        35.2504
  -5253171.19547  -4058225.92244
                  22718857.0474                                   22718850.4964
                                                                        44.5004
        29.5004
   -850933.86747   -624954.80144
                  23463220.1024                                   23463216.7854
                                                                        42.7504
        26.5004
 09 10  8  0 38 30.0000000  0  8G02G04G05G13G29G10G23G25
 -16178723.58248 -12552778.32047
                  20360570.6334                                   20360564.6684
                                                                        51.5004
        42.7504
  -1661587.83648  -1265242.55146
                  21980630.7734                                   21980627.8364
                                                                        48.0004
        36.2504
  -7863970.77347  -6111786.06245
                  22745727.9534                                   22745724.2814
                                                                        46.5004
        34.7504
 -19776088.59048 -15347669.49246
                  21091636.2504                                   21091632.0664
                                                                        49.0004
        36.5004
 -13006799.08647 -10093658.65245
                  22517951.6484                                   22517948.6524
                                                                        47.2504
        34.0004
 -13577660.50047 -10563592.93045
                  21975104.3444                                   21975100.8324
                                                                        47.0004
        35.5004
  -5264502.47747  -4067055.51644
                  22716701.2274                                   22716694.5594
                                                                        45.2504
        29.7504
  -1014701.79347   -752565.80144
                  23432055.6644                                   23432052.2584
                                                                        42.5004
        26.7504
 09 10  8  0 39  0.0000000  0  8G02G04G05G13G29G10G23G25
 -16250874.81248 -12608999.94547
                  20346840.5084                                   20346834.8874
                                                                        51.0004
        43.0004
  -1661477.43448  -1265156.18446
                  21980651.5164                                   21980648.3834
                                                                        49.2504
        36.0004
  -8053034.81647  -6259108.64845
                  22709750.0554                                   22709746.8524
                                                                        46.0004
        34.7504
 -19862518.44148 -15415017.31646
                  21075189.0784                                   21075184.7154
                                                                        50.5004
        37.5004
 -13156702.61747 -10210466.59845
                  22489426.6024                                   22489423.1844
                                                                        46.5004
        34.5004
 -13759254.11347 -10705094.41845
                  21940547.7974                                   21940544.4614
                                                                        47.7504
        35.5004
  -5275385.21147  -4075535.55944
                  22714630.4224                                   22714623.4414
                                                                        45.2504
        29.2504
  -1178072.80147   -879867.90244
                  23400967.3054                                   23400963.1374
                                                                        42.5004
        25.7504
 09 10  8  0 39 30.0000000  0  8G02G04G05G13G29G10G23G25
 -14747016.41048 -11437162.26247
                  20633014.8914                                   20633009.1024
                                                                        51.0004
        42.5004
    -85595.80148    -37196.51246
                  22280531.7034                                   22280528.9144
                                                                        48.7504
        36.5004
  -6666404.51247  -5178617.47345
                  22973617.0314                                   22973613.2344
                                                                        46.5004
        35.2504
 -18372851.77048 -14254237.84446
                  21358662.7344                                   21358658.3524
                                                                        50.0004
        37.5004
 -11730680.86347  -9099280.80545
                  22760788.9614                                   22760786.2894
                                                                        47.0004
        35.2504
 -12365058.89848  -9618708.51646
                  22205854.7504                                   22205851.0704
                                                                        48.0004
        36.2504
  -3710400.34447  -2856066.82044
                  23012436.7274                                   23012430.3754
                                                                        45.0004
        29.7504
    234382.46946    220746.08644
                  23669748.2034                                   23669744.8914
                                                                        41.2504
        25.5004
 09 10  8  0 40  0.0000000  0  8G02G04G05G13G29G10G23G25
 -14817993.41848 -11492469.09447
                  20619508.7274                                   20619503.0394
                                                                        51.0004
        43.0004
    -84784.45348    -36564.31646
                  22280686.3834                                   22280683.0864
                                                                        50.0004
        36.2504
  -6854930.42647  -5325520.76246
                  22937741.9144                                   22937738.2034
                                                                        46.0004
        36.2504
 -18457935.27748 -14320536.57446
                  21342471.9454                                   21342467.4574
                                                                        51.0004
        36.7504
 -11879581.80547  -9215307.49245
                  22732454.2194                                   22732451.1024
                                                                        47.5004
        35.0004
 -12545925.51248  -9759643.53546
                  22171436.5314                                   22171433.3914
                                                                        48.0004
        36.5004
  -3720391.03547  -2863851.78144
                  23010535.3594                                   23010530.1764
                                                                        45.7504
        29.0004
     71817.18447     94071.74644
                  23638813.8364                                   23638809.5234
                                                                        42.0004
        25.5004
 09 10  8  0 40 30.0000000  0  8G02G04G05G13G29G10G23G25
 -14888382.55948 -11547317.91047
                  20606114.0474                                   20606108.3754
                                                                        51.7504
        43.2504
    -83624.25448    -35660.42246
                  22280907.0634                                   22280904.1764
                                                                        48.7504
        36.7504
  -7043183.09448  -5472211.13346
                  22901918.8284                                   22901914.8674
                                                                        48.0004
        36.5004
 -18542344.65248 -14386310.04746
                  21326409.4614                                   21326404.8754
                                                                        51.5004
        37.0004
 -12027977.26247  -9330940.30145
                  22704215.5784                                   22704212.3674
                                                                        46.5004
        34.5004
 -12726423.77347  -9900291.50846
                  22137089.1644                                   22137085.6684
                                                                        47.2504
        36.2504
  -3729937.96947  -2871290.97344
                  23008718.7274                                   23008712.3244
                                                                        45.0004
        29.2504
    -90340.37946    -32284.98044
                  23607956.1484                                   23607952.5944
                                                                        41.7504
        26.7504
 09 10  8  0 41  0.0000000  0  8G02G04G05G13G29G10G23G25
 -14958187.50848 -11601711.53947
                  20592830.8674                                   20592825.0124
                                                                        52.0004
        43.0004
    -82120.75448    -34488.87946
                  22281193.2894                                   22281190.3014
                                                                        49.2504
        36.0004
  -7231164.18047  -5618689.88346
                  22866147.2114                                   22866143.2464
                                                                        47.2504
        36.2504
 -18626084.28548 -14451561.93446
                  21310474.3134                                   21310470.2234
                                                                        51.0004
        36.7504
 -12175869.02347  -9446180.62145
                  22676072.5864                                   22676069.1294
                                                                        46.5004
        34.5004
 -12906555.68748 -10040654.03546
                  22102811.4304                                   22102807.5554
                                                                        48.0004
        36.7504
  -3739047.35947  -2878389.17245
                  23006985.2034                                   23006979.3094
                                                                        45.5004
        30.7504
   -252090.04747   -158323.19544
                  23577175.7974                                   23577173.0634
                                                                        42.0004
        25.7504
 09 10  8  0 41 30.0000000  0  8G02G04G05G13G29G10G23G25
 -15027409.96148 -11655651.18447
                  20579658.5314                                   20579652.6254
                                                                        52.2504
        42.2504
    -80277.36348    -33052.41046
                  22281544.0554                                   22281540.9844
                                                                        49.7504
        36.2504
  -7418873.18047  -5764956.60546
                  22830426.9064                                   22830423.2424
                                                                        47.0004
        36.0004
 -18709155.06648 -14516292.39146
                  21294666.6954                                   21294662.4844
                                                                        51.0004
        37.0004
 -12323256.34047  -9561027.87145
                  22648025.7194                                   22648022.0084
                                                                        45.5004
        34.5004
 -13086320.59847 -10180730.57446
                  22068603.1334                                   22068599.2424
                                                                        47.2504
        36.0004
  -3747723.17247  -2885149.57044
                  23005334.0084                                   23005328.0744
                                                                        46.5004
        27.7504
   -413432.25447   -284044.01244
                  23546473.2274                                   23546470.0314
                                                                        42.0004
        26.7504
 09 10  8  0 42  0.0000000  0  8G02G04G05G13G29G10G23G25
 -15096053.54748 -11709139.75447
                  20566595.9694                                   20566589.9774
                                                                        52.2504
        42.2504
    -78099.05548    -31354.70345
                  22281958.4304                                   22281954.8594
                                                                        49.5004
        35.7504
  -7606311.35547  -5911012.31246
                  22794758.5944                                   22794754.3984
                                                                        47.2504
        36.0004
 -18791560.96148 -14580504.60246
                  21278985.1334                                   21278980.8014
                                                                        51.5004
        36.7504
 -12470140.43047  -9675482.99645
                  22620074.7114                                   22620071.3054
                                                                        46.0004
        34.5004
 -13265719.53947 -10320521.94145
                  22034464.5474                                   22034460.9224
                                                                        47.0004
        35.2504
  -3755971.09447  -2891576.52344
                  23003764.8284                                   23003758.6764
                                                                        46.0004
        28.7504
   -574368.12946   -409448.47744
                  23515848.3284                                   23515844.5984
                                                                        41.2504
        27.2504
 09 10  8  0 42 30.0000000  0  8G02G04G05G13G29G10G23G25
 -15164116.67248 -11762175.78947
                  20553643.9614                                   20553637.6914
                                                                        53.0004
        42.5004
    -75586.97348    -29396.97346
                  22282436.1254                                   22282432.9304
                                                                        48.5004
        36.0004
  -7793475.25848  -6056854.29345
                  22759142.4064                                   22759138.2384
                                                                        48.0004
        35.7504
 -18873300.90248 -14644198.04346
                  21263430.5314                                   21263425.9924
                                                                        51.7504
        36.7504
 -12616517.88747  -9789543.34445
                  22592219.7034                                   22592216.2814
                                                                        46.2504
        34.2504
 -13444748.97347 -10460025.38346
                  22000396.6024                                   22000392.7464
                                                                        47.5004
        36.5004
  -3763791.91847  -2897670.68044
                  23002276.3754                                   23002270.4144
                                                                        45.7504
        27.7504
   -734893.15647   -534532.91044
                  23485301.0634                                   23485297.6914
                                                                        42.0004
        26.5004
 09 10  8  0 43  0.0000000  0  8G02G04G05G13G29G10G23G25
 -15231598.28148 -11814758.69147
                  20540802.2584                                   20540796.2934
                                                                        52.2504
        42.7504
    -72741.67248    -27179.70346
                  22282977.7814                                   22282974.2074
                                                                        49.5004
        36.0004
  -7980361.35948  -6202479.81646
                  22723579.9064                                   22723575.0594
                                                                        48.7504
        36.5004
 -18954373.82048 -14707371.73846
                  21248003.0394                                   21247998.4534
                                                                        51.2504
        37.0004
 -12762385.02047  -9903206.03145
                  22564462.4454                                   22564458.8674
                                                                        47.0004
        34.7504
 -13623405.20348 -10599238.02346
                  21966399.4614                                   21966395.1724
                                                                        48.7504
        37.2504
  -3771186.82047  -2903432.93044
                  23000869.9384                                   23000862.8284
                                                                        46.2504
        28.5004
   -895002.89547   -659293.48044
                  23454833.6414                                   23454829.6134
                                                                        42.5004
        27.2504
 09 10  8  0 43 30.0000000  0  8G02G04G05G13G29G10G23G25
 -15298499.31248 -11866889.19947
                  20528071.3984                                   20528065.4574
                                                                        53.0004
        42.7504
    -69565.41048    -24704.61745
                  22283581.9534                                   22283578.6764
                                                                        49.0004
        35.2504
  -8166967.96948  -6347887.53146
                  22688069.4304                                   22688065.5314
                                                                        48.7504
        36.5004
 -19034780.36348 -14770026.18746
                  21232701.9534                                   21232697.6764
                                                                        51.2504
        36.5004
 -12907740.36747 -10016469.92645
                  22536802.0704                                   22536798.6764
                                                                        45.0004
        34.7504
 -13801686.32847 -10738158.36346
                  21932473.4454                                   21932469.8244
                                                                        47.7504
        36.7504
  -3778158.55147  -2908865.46544
                  22999543.2274                                   22999536.5634
                                                                        45.7504
        28.5004
  -1054696.47747   -783730.23444
                  23424444.5084                                   23424441.1414
                                                                        42.5004
        26.5004
 09 10  8  0 44  0.0000000  0  8G02G04G05G13G29G10G23G25
 -15364822.45348 -11918569.47347
                  20515450.4224                                   20515444.2624
                                                                        53.0004
        42.7504
    -66062.14548    -21974.77746
                  22284248.6954                                   22284245.3634
                                                                        48.5004
        36.0004
  -8353294.86748  -6493077.30146
                  22652612.0474                                   22652608.4694
                                                                        48.5004
        36.5004
 -19114523.12948 -14832163.38346
                  21217527.6334                                   21217523.1564
                                                                        50.7504
        37.0004
 -13052583.87147 -10129334.98445
                  22509239.3364                                   22509235.6414
                                                                        47.0004
        35.0004
 -13979592.41048 -10876786.45746
                  21898619.1334                                   21898615.4064
                                                                        48.7504
        36.7504
  -3784711.31247  -2913971.53944
                  22998295.8984                                   22998289.0984
                                                                        46.0004
        28.2504
  -1213976.207 7
                  23394136.703
                                                                        42.000

 09 10  8  0 44 30.0000000  0  8G02G04G05G13G29G10G23G25
 -15430566.96148 -11969798.89547
                  20502939.8834                                   20502933.5394
                                                                        52.5004
        43.2504
    -62234.42248    -18992.90245
                  22284977.5474                                   22284974.7544
                                                                        48.7504
        35.5004
  -8539339.43448  -6638047.07846
                  22617209.5164                                   22617205.0594
                                                                        49.2504
        36.7504
 -19193601.46948 -14893782.82446
                  21202479.3134                                   21202474.5474
                                                                        51.5004
        36.7504
 -13196912.70747 -10241798.99645
                  22481774.5864                                   22481770.7854
                                                                        47.2504
        35.0004
 -14157120.40248 -11015119.92646
                  21864836.8204                                   21864833.0984
                                                                        48.5004
        37.0004
  -3790847.19947  -2918752.76244
                  22997127.9844                                   22997121.1644
                                                                        46.5004
        29.2504
  -1372827.32446  -1010143.57054
                  23363906.1804                                   23363903.2894
                                                                        41.5004
        26.5004
 09 10  8  0 45  0.0000000  0  8G02G04G05G13G29G10G23G25
 -15495733.80548 -12020578.25047
                  20490538.8284                                   20490532.6954
                                                                        52.2504
        43.0004
    -58082.93748    -15758.31645
                  22285767.8674                                   22285764.6804
                                                                        48.5004
        35.2504
  -8725100.23848  -6782795.73046
                  22581860.3284                                   22581856.1254
                                                                        48.2504
        37.0004
 -19272016.53148 -14954885.46546
                  21187557.5784                                   21187553.1884
                                                                        51.2504
        37.0004
 -13340725.69147 -10353861.04745
                  22454407.8134                                   22454404.3834
                                                                        45.7504
        35.5004
 -14334269.08647 -11153157.84046
                  21831126.3054                                   21831122.6954
                                                                        47.7504
        36.7504
  -3796569.10547  -2923211.39844
                  22996039.1174                                   22996033.1024
                                                                        45.5004
        28.2504
  -1531258.57447  -1133595.99244
                  23333757.6804                                   23333754.0704
                                                                        42.2504
        26.0004
 09 10  8  0 45 30.0000000  0  8G02G04G05G13G29G10G23G25
 -15560322.61348 -12070907.18747
                  20478248.2194                                   20478242.0824
                                                                        52.0004
        42.5004
    -53609.86748    -12273.48445
                  22286619.4534                                   22286616.8914
                                                                        48.0004
        35.7504
  -8910574.46148  -6927321.06246
                  22546566.0554                                   22546561.3984
                                                                        48.2504
        36.5004
 -19349768.12948 -15015471.12946
                  21172761.6564                                   21172757.0824
                                                                        50.7504
        37.2504
 -13484019.71147 -10465518.71545
                  22427139.9064                                   22427136.5164
                                                                        47.0004
        35.2504
 -14511035.32048 -11290897.75046
                  21797488.9224                                   21797484.9264
                                                                        48.5004
        36.7504
  -3801878.56247  -2927348.64144
                  22995029.1174                                   22995023.1804
                                                                        45.7504
        28.0004
  -1689264.40247  -1256717.10944
                  23303689.7194                                   23303685.4184
                                                                        43.0004
        25.5004
 09 10  8  0 46  0.0000000  0  8G02G04G05G13G29G10G23G25
 -15624335.65248 -12120787.48047
                  20466066.9454                                   20466061.2304
                                                                        52.2504
        42.7504
    -48817.82448     -8539.46145
                  22287531.2974                                   22287528.5514
                                                                        48.2504
        35.5004
  -9095762.41847  -7071623.34046
                  22511325.5784                                   22511321.2114
                                                                        47.5004
        36.7504
 -19426858.84848 -15075541.78946
                  21158091.8284                                   21158087.2814
                                                                        50.5004
        36.7504
 -13626795.38747 -10576772.46546
                  22399970.7504                                   22399966.7194
                                                                        47.0004
        36.0004
 -14687419.23048 -11428339.75446
                  21763924.1644                                   21763919.9264
                                                                        49.0004
        37.0004
  -3806780.34047  -2931168.22344
                  22994096.0704                                   22994090.3484
                                                                        45.0004
        27.0004
  -1846844.46947  -1379506.66844
                  23273703.1334                                   23273699.4734
                                                                        42.5004
        27.0004
 09 10  8  0 46 30.0000000  0  8G02G04G05G13G29G10G23G25
 -15687774.56648 -12170220.41047
                  20453994.7274                                   20453988.8244
                                                                        50.7504
        42.7504
    -43710.36747     -4559.48045
                  22288503.3444                                   22288500.2584
                                                                        47.7504
        35.5004
  -9280662.64847  -7215701.41846
                  22476139.9304                                   22476136.0904
                                                                        46.7504
        36.5004
 -19503289.94148 -15135098.47746
                  21143547.8364                                   21143543.0164
                                                                        50.7504
        38.0004
 -13769051.77347 -10687621.58646
                  22372899.9774                                   22372896.3674
                                                                        46.7504
        36.0004
 -14863419.80548 -11565483.05546
                  21730432.2664                                   21730428.6454
                                                                        48.5004
        36.7504
  -3811277.81647  -2934672.76244
                  22993239.9454                                   22993234.1134
                                                                        44.0004
        26.5004
  -2003997.00847  -1501963.14544
                  23243798.3134                                   23243794.3364
                                                                        43.2504
        27.0004
 09 10  8  0 47  0.0000000  0  8G02G04G05G13G29G10G23G25
 -15750640.93748 -12219207.19947
                  20442031.7894                                   20442025.7034
                                                                        51.0004
        43.0004
    -38291.23047      -336.57045
                  22289534.2424                                   22289531.1954
                                                                        47.5004
        35.0004
  -9465274.55547  -7359554.84046
                  22441009.6414                                   22441005.4884
                                                                        47.2504
        37.0004
 -19579063.21548 -15194142.59846
                  21129128.4924                                   21129124.2974
                                                                        51.0004
        37.0004
 -13910787.89547 -10798065.30545
                  22345928.3054                                   22345924.7424
                                                                        47.5004
        35.7504
 -15039036.47348 -11702327.21146
                  21697013.5944                                   21697009.8634
                                                                        50.0004
        37.2504
  -3815374.73447  -2937865.16044
                  22992460.5314                                   22992454.4534
                                                                        43.5004
        27.0004
  -2160720.83247  -1624085.59444
                  23213975.0004                                   23213970.6804
                                                                        43.5004
        28.0004
 09 10  8  0 47 30.0000000  0  8G02G04G05G13G29G10G23G25
 -15812932.71548 -12267746.25047
                  20430177.7894                                   20430171.6214
                                                                        52.0004
        42.5004
    -32559.77748      4129.81345
                  22290624.3914                                   22290621.8634
                                                                        49.0004
        34.7504
  -9649593.75448  -7503180.18746
                  22405935.0164                                   22405930.8874
                                                                        48.0004
        37.5004
 -19654176.57448 -15252672.49246
                  21114834.7504                                   21114830.1214
                                                                        50.7504
        37.0004
 -14051999.27347 -10908100.12945
                  22319056.9774                                   22319053.1054
                                                                        47.2504
        35.7504
 -15214264.25848 -11838868.34446
                  21663668.7034                                   21663665.0864
                                                                        50.0004
        37.7504
  -3819070.94147  -2940745.32444
                  22991757.6644                                   22991751.1334
                                                                        44.5004
        28.5004
  -2317010.95347  -1745870.10944
                  23184233.7584                                   23184229.5634
                                                                        43.5004
        29.0004
 09 10  8  0 48  0.0000000  0  8G02G04G05G13G29G10G23G25
 -15874652.34048 -12315839.45347
                  20418432.8674                                   20418427.1174
                                                                        51.0004
        42.5004
    -26520.57848      8835.68445
                  22291773.9144                                   22291770.9614
                                                                        48.0004
        35.0004
  -9833620.00447  -7646577.28146
                  22370916.0784                                   22370911.6994
                                                                        46.7504
        37.2504
 -19728633.36748 -15310690.78146
                  21100666.3444                                   21100661.9454
                                                                        50.5004
        36.7504
 -14192685.93447 -11017726.07845
                  22292284.4614                                   22292281.0204
                                                                        46.7504
        35.5004
 -15389102.90248 -11975106.22346
                  21630397.8754                                   21630394.2704
                                                                        49.0004
        37.2504
  -3822370.83247  -2943316.66844
                  22991129.5394                                   22991123.1644
                                                                        44.7504
        29.0004
  -2472866.71547  -1867316.14844
                  23154575.2734                                   23154572.0164
                                                                        42.2504
        28.2504
 09 10  8  0 48 30.0000000  0  8G02G04G05G13G29G10G23G25
 -14360380.25048 -11135887.17647
                  20706589.2734                                   20706583.5274
                                                                        51.5004
        43.0004
   1555242.94548   1241378.72745
                  22592773.7034                                   22592770.3134
                                                                        49.0004
        34.5004
  -8441926.80547  -6562141.02046
                  22635746.4304                                   22635742.0784
                                                                        46.7504
        37.0004
 -18227012.80148 -14140596.83646
                  21386415.1094                                   21386410.6844
                                                                        50.7504
        36.7504
 -12757423.37947  -9899339.66045
                  22565406.6094                                   22565402.7624
                                                                        47.5004
        35.0004
 -13988126.25448 -10883436.08646
                  21896994.6804                                   21896991.4184
                                                                        48.7504
        37.7504
  -2249858.79347  -1717982.60944
                  23290369.1804                                   23290362.1174
                                                                        45.0004
        28.7504
  -1052862.56647   -760819.35944
                  23424792.7504                                   23424789.4304
                                                                        43.2504
        26.7504
 09 10  8  0 49  0.0000000  0  8G02G04G05G13G29G10G23G25
 -14420960.87148 -11183092.85547
                  20695061.3524                                   20695055.1374
                                                                        51.5004
        42.5004
   1561889.25848   1246557.81345
                  22594038.1484                                   22594035.2624
                                                                        49.5004
        34.5004
  -8625364.64147  -6705079.59446
                  22600839.2274                                   22600834.8754
                                                                        47.0004
        36.7504
 -18300160.82848 -14197595.27746
                  21372495.4924                                   21372491.0864
                                                                        51.5004
        37.0004
 -12897058.82448 -10008146.48446
                  22538835.0234                                   22538830.7424
                                                                        48.2504
        36.0004
 -14162184.16448 -11019065.62546
                  21863872.7814                                   21863869.1484
                                                                        50.0004
        37.0004
  -2252377.24647  -1719945.03944
                  23289889.1564                                   23289882.7424
                                                                        43.5004
        27.5004
  -1207846.43447   -881585.94544
                  23395300.1564                                   23395296.3914
                                                                        42.5004
        26.7504
 09 10  8  0 49 30.0000000  0  8G02G04G05G13G29G10G23G25
 -14480974.92248 -11229857.05947
                  20683641.0474                                   20683634.9614
                                                                        52.2504
        42.5004
   1568833.53548   1251969.13745
                  22595359.5634                                   22595356.5864
                                                                        49.5004
        35.0004
  -8808507.63348  -6847788.41846
                  22565988.3754                                   22565983.8284
                                                                        48.0004
        36.5004
 -18372657.90248 -14254086.49646
                  21358699.5944                                   21358695.5984
                                                                        50.5004
        37.0004
 -13036168.28948 -10116543.46146
                  22512362.9614                                   22512359.5514
                                                                        49.0004
        36.2504
 -14335850.98448 -11154390.44146
                  21830825.6174                                   21830821.1954
                                                                        50.2504
        37.5004
  -2254511.17247  -1721607.85944
                  23289483.5474                                   23289477.0274
                                                                        42.0004
        27.0004
  -1362393.27347  -1002012.03544
                  23365891.1884                                   23365887.0594
                                                                        42.7504
        25.7504
 09 10  8  0 50  0.0000000  0  8G02G04G05G13G29G10G23G25
 -14540424.53548 -11276181.44547
                  20672328.1954                                   20672321.9224
                                                                        52.7504
        42.7504
   1576071.66448   1257609.19145
                  22596736.6334                                   22596733.8444
                                                                        48.5004
        35.2504
  -8991355.23448  -6990267.06246
                  22531193.3834                                   22531189.1604
                                                                        48.5004
        37.0004
 -18444506.23448 -14310072.19946
                  21345027.5004                                   21345022.9844
                                                                        50.7504
        37.2504
 -13174751.79348 -10224530.60545
                  22485991.3134                                   22485987.7854
                                                                        49.0004
        35.7504
 -14509126.39848 -11289410.25846
                  21797852.3754                                   21797848.1414
                                                                        50.5004
        38.0004
  -2256264.92647  -1722974.43044
                  23289149.4924                                   23289143.6254
                                                                        42.5004
        27.2504
  -1516502.24647  -1122096.93044
                  23336564.8524                                   23336560.6254
                                                                        43.0004
        27.0004
 09 10  8  0 50 30.0000000  0  8G02G04G05G13G29G10G23G25
 -14599307.43048 -11322064.21947
                  20661123.0784                                   20661116.9654
                                                                        52.2504
        42.7504
   1583605.23848   1263479.55545
                  22598170.3674                                   22598166.9964
                                                                        48.5004
        34.7504
  -9173903.06648  -7132512.13746
                  22496455.9454                                   22496451.6954
                                                                        48.0004
        37.0004
 -18515703.18048 -14365550.34846
                  21331479.5314                                   21331474.7234
                                                                        50.7504
        37.2504
 -13312804.41048 -10332104.06245
                  22459721.0944                                   22459716.7934
                                                                        48.7504
        35.5004
 -14682005.30948 -11424121.10246
                  21764954.2504                                   21764950.7704
                                                                        50.2504
        38.2504
  -2257638.00047  -1724044.38744
                  23288888.2814                                   23288882.3014
                                                                        43.0004
        26.5004
  -1670168.11347  -1241836.52344
                  23307323.6724                                   23307319.6054
                                                                        43.2504
        27.5004
 09 10  8  0 51  0.0000000  0  8G02G04G05G13G29G10G23G25
 -14657625.66448 -11367506.99247
                  20650025.6024                                   20650019.3524
                                                                        51.7504
        42.7504
   1591430.32048   1269576.96145
                  22599659.6414                                   22599656.5084
                                                                        49.0004
        34.7504
  -9356150.21548  -7274522.89546
                  22461775.2584                                   22461771.0554
                                                                        48.2504
        37.2504
 -18586251.98048 -14420523.44946
                  21318054.0394                                   21318049.2894
                                                                        51.0004
        36.5004
 -13450325.67648 -10439263.48045
                  22433551.2274                                   22433547.5944
                                                                        48.5004
        35.5004
 -14854487.39548 -11558522.71546
                  21732132.0004                                   21732128.3364
                                                                        49.7504
        38.0004
  -2258634.21947  -1724820.62944
                  23288698.5784                                   23288691.8714
                                                                        42.2504
        26.7504
  -1823390.01247  -1361230.18044
                  23278166.4144                                   23278162.3164
                                                                        45.0004
        26.0004
 09 10  8  0 51 30.0000000  0  8G02G04G05G13G29G10G23G25
 -14715380.61748 -11412510.86747
                  20639035.2114                                   20639029.1884
                                                                        52.2504
        43.0004
   1599544.36348   1275899.46145
                  22601203.6564                                   22601200.6254
                                                                        48.7504
        34.2504
  -9538095.42248  -7416298.39546
                  22427152.3054                                   22427148.2664
                                                                        48.7504
        37.5004
 -18656153.00048 -14474991.77346
                  21304752.2664                                   21304747.7934
                                                                        51.2504
        36.7504
 -13587314.50448 -10546008.00846
                  22407483.4384                                   22407479.3674
                                                                        48.7504
        36.0004
 -15026571.34848 -11692614.10546
                  21699385.2814                                   21699381.4184
                                                                        50.5004
        38.2504
  -2259256.57047  -1725305.57844
                  23288580.0554                                   23288574.0084
                                                                        42.7504
        28.0004
  -1976166.35547  -1480276.67644
                  23249093.9454                                   23249090.1094
                                                                        44.0004
        28.5004
 09 10  8  0 52  0.0000000  0  9G02G04G05G13G29G10G23G16G25
 -14772572.77048 -11457076.16047
                  20628152.0084                                   20628145.5944
                                                                        52.0004
        42.5004
   1607945.34048   1282445.40645
                  22602802.8364                                   22602799.1024
                                                                        49.0004
        34.2504
  -9719736.46548  -7557836.86346
                  22392586.9844                                   22392583.1644
                                                                        48.5004
        37.2504
 -18725408.02348 -14528956.72746
                  21291573.5704                                   21291569.1604
                                                                        51.2504
        37.2504
 -13723769.10948 -10652336.26246
                  22381516.8444                                   22381512.8594
                                                                        49.5004
        36.2504
 -15198254.24248 -11826392.97746
                  21666715.5704                                   21666711.5044
                                                                        50.2504
        38.0004
  -2259507.86347  -1725501.38744
                  23288532.7894                                   23288526.1564
                                                                        43.0004
        28.0004
   9194439.46156   7198219.76653
                  24375944.1334                                   24375939.3284
                                                                        40.2504
        22.5004
  -2128494.59047  -1598973.96144
                  23220107.4064                                   23220103.5864
                                                                        44.0004
        29.2504
 09 10  8  0 52 30.0000000  0  9G02G04G05G13G29G10G23G16G25
 -14829209.10248 -11501208.36347
                  20617374.2344                                   20617368.1644
                                                                        52.2504
        42.5004
   1616625.72748   1289209.34845
                  22604454.4844                                   22604451.1214
                                                                        48.7504
        33.5004
  -9901077.71548  -7699141.70746
                  22358079.3984                                   22358074.8524
                                                                        49.7504
        37.7504
 -18794023.60948 -14582423.42246
                  21278516.8364                                   21278511.9414
                                                                        51.0004
        36.5004
 -13859693.72748 -10758251.54346
                  22355651.2664                                   22355647.3714
                                                                        49.5004
        36.2504
 -15369540.94548 -11959863.14846
                  21634120.6484                                   21634116.6134
                                                                        50.5004
        38.2504
  -2259396.74647  -1725414.78944
                  23288553.6094                                   23288547.0634
                                                                        42.5004
        27.0004
   9036983.67246   7075526.96543
                  24345980.8594                                   24345976.4534
                                                                        41.2504
        23.0004
  -2280379.05547  -1717325.51644
                  23191204.6484                                   23191200.8914
                                                                        44.5004
        28.2504
 09 10  8  0 53  0.0000000  0  9G02G04G05G13G29G10G23G16G25
 -14885293.91848 -11544910.82047
                  20606701.5394                                   20606695.4494
                                                                        52.7504
        42.0004
   1625578.87948   1296185.66845
                  22606158.3674                                   22606154.7234
                                                                        49.0004
        34.2504
 -10082120.84848  -7840214.27046
                  22323627.8834                                   22323623.1484
                                                                        50.0004
        38.0004
 -18862004.32848 -14635395.42246
                  21265580.5314                                   21265575.6254
                                                                        50.7504
        36.2504
 -13995090.65648 -10863755.64146
                  22329886.0234                                   22329882.2664
                                                                        49.0004
        36.2504
 -15540433.42648 -12093026.13346
                  21601600.5864                                   21601596.5394
                                                                        50.2504
        38.0004
  -2258929.48847  -1725050.71944
                  23288642.5704                                   23288636.3754
                                                                        42.5004
        25.5004
   8879969.52747   6953178.32843
                  24316102.3984                                   24316097.6644
                                                                        42.0004
        22.0004
  -2431820.81247  -1835332.08644
                  23162385.6094                                   23162381.7854
                                                                        44.2504
        28.5004
 09 10  8  0 53 30.0000000  0  9G02G04G05G13G29G10G23G16G25
 -14940829.54348 -11588185.34447
                  20596133.5394                                   20596127.5084
                                                                        52.5004
        42.5004
   1634801.82448   1303372.43845
                  22607913.2274                                   22607910.2344
                                                                        48.0004
        34.0004
 -10262865.55148  -7981054.30146
                  22289233.1804                                   22289228.5204
                                                                        49.5004
        37.7504
 -18929352.17648 -14687874.27046
                  21252764.3444                                   21252760.1094
                                                                        51.0004
        37.0004
 -14129959.57048 -10968848.29745
                  22304221.3524                                   22304217.5864
                                                                        48.7504
        35.5004
 -15710930.90648 -12225881.30546
                  21569156.4144                                   21569152.0394
                                                                        50.0004
        38.2504
  -2258110.20747  -1724412.33244
                  23288798.4224                                   23288792.2854
                                                                        43.0004
        27.2504
   8723398.21147   6831174.71143
                  24286307.9144                                   24286302.6294
                                                                        42.2504
        22.2504
  -2582819.39147  -1952993.29744
                  23133651.7974                                   23133647.6604
                                                                        44.0004
        26.2504
 09 10  8  0 54  0.0000000  0  9G02G04G05G13G29G10G23G16G25
 -14995812.03148 -11631028.84047
                  20585670.9144                                   20585664.7194
                                                                        53.0004
        42.5004
   1644296.61747   1310770.95745
                  22609720.0634                                   22609716.7934
                                                                        47.7504
        34.0004
 -10443304.98848  -8121656.44546
                  22254896.6564                                   22254892.3094
                                                                        50.0004
        37.7504
 -18996063.95348 -14739857.47746
                  21240069.4774                                   21240065.1994
                                                                        50.5004
        36.2504
 -14264294.30548 -11073524.71145
                  22278658.0164                                   22278654.6994
                                                                        48.7504
        35.7504
 -15881026.73448 -12358423.49246
                  21536787.9924                                   21536784.5004
                                                                        50.0004
        38.5004
  -2256936.98047  -1723498.16444
                  23289021.6804                                   23289015.5434
                                                                        43.7504
        26.2504
   8567276.42646   6709521.40243
                  24256598.6334                                   24256594.1764
                                                                        40.7504
        21.0004
  -2733368.08247  -2070303.93744
                  23105002.5164                                   23104999.2424
                                                                        44.7504
        28.0004
 09 10  8  0 54 30.0000000  0  9G02G04G05G13G29G10G23G16G25
 -15050232.28548 -11673434.23847
                  20575315.0944                                   20575309.2114
                                                                        52.5004
        42.5004
   1654070.73847   1318386.96545
                  22611579.8594                                   22611576.9534
                                                                        46.7504
        33.7504
 -10623427.80548  -8262011.87546
                  22220619.9844                                   22220616.4064
                                                                        49.7504
        37.5004
 -19062131.71948 -14791338.86746
                  21227497.2344                                   21227492.3834
                                                                        50.7504
        36.2504
 -14398083.48048 -11177776.00846
                  22253198.7584                                   22253195.1524
                                                                        48.2504
        36.5004
 -16050709.26248 -12490643.63346
                  21504498.8984                                   21504495.0594
                                                                        50.0004
        38.0004
  -2255402.34447  -1722302.32844
                  23289313.7424                                   23289307.3634
                                                                        43.5004
        26.0004
   8411616.43846   6588227.94943
                  24226977.0704                                   24226973.0004
                                                                        40.0004
        21.5004
  -2883454.60947  -2187254.45344
                  23076442.9774                                   23076439.2114
                                                                        45.0004
        27.0004
 09 10  8  0 55  0.0000000  0  9G02G04G05G13G29G10G23G16G25
 -15104091.69548 -11715402.62147
                  20565066.1884                                   20565060.0044
                                                                        52.2504
        42.5004
   1664122.22347   1326219.27745
                  22613493.1254                                   22613490.0274
                                                                        47.0004
        33.5004
 -10803232.40648  -8402119.35546
                  22186404.6564                                   22186400.8244
                                                                        49.7504
        38.2504
 -19127555.55548 -14842318.48846
                  21215047.8054                                   21215042.8554
                                                                        50.5004
        36.7504
 -14531326.07848 -11281601.39846
                  22227843.8134                                   22227840.4384
                                                                        48.7504
        36.5004
 -16219977.08248 -12622540.64146
                  21472288.3204                                   21472284.1724
                                                                        49.7504
        38.7504
  -2253509.63347  -1720827.49644
                  23289674.1644                                   23289667.6414
                                                                        42.5004
        26.2504
   8256420.12146   6467295.80943
                  24197444.0704                                   24197439.8674
                                                                        40.0004
        21.2504
  -3033077.70747  -2303843.84444
                  23047970.9064                                   23047966.7814
                                                                        44.7504
        28.0004
 09 10  8  0 55 30.0000000  0  9G02G04G05G13G29G10G23G16G25
 -15157394.34848 -11756937.15247
                  20554922.7194                                   20554916.9064
                                                                        51.5004
        42.0004
   1674445.33647   1334263.31645
                  22615457.3444                                   22615454.0394
                                                                        46.0004
        33.2504
 -10982720.63348  -8541980.30946
                  22152249.2894                                   22152245.0314
                                                                        50.0004
        38.5004
 -19192340.23848 -14892800.05146
                  21202719.4384                                   21202714.8594
                                                                        50.7504
        36.5004
 -14664023.91448 -11385002.29746
                  22202592.1644                                   22202588.0784
                                                                        49.0004
        36.5004
 -16388831.86348 -12754115.77746
                  21440156.1414                                   21440152.4304
                                                                        50.0004
        38.7504
  -2251265.04747  -1719078.48844
                  23290101.2114                                   23290094.8914
                                                                        44.0004
        27.2504
   8101686.37546   6346724.09843
                  24167998.6094                                   24167995.1214
                                                                        39.7504
        19.5004
  -3182238.62147  -2420073.11344
                  23019585.9614                                   23019582.6954
                                                                        44.7504
        28.5004
 09 10  8  0 56  0.0000000  0  9G02G04G05G13G29G10G23G16G25
 -15210136.98048 -11798035.29347
                  20544885.9924                                   20544880.1334
                                                                        52.0004
        42.0004
   1685042.52347   1342521.13345
                  22617473.7034                                   22617470.3794
                                                                        46.0004
        33.5004
 -11161886.10948  -8681589.76246
                  22118155.5234                                   22118150.8794
                                                                        49.7504
        38.0004
 -19256483.18748 -14942781.57046
                  21190513.1564                                   21190508.9224
                                                                        50.0004
        36.0004
 -14796171.13348 -11487974.14546
                  22177445.5944                                   22177441.9774
                                                                        49.2504
        37.0004
 -16557267.60248 -12885364.39846
                  21408103.7504                                   21408099.9144
                                                                        49.7504
        38.5004
  -2248666.55947  -1717053.68744
                  23290595.6024                                   23290589.0084
                                                                        43.7504
        27.5004
   7947422.11746   6226518.19943
                  24138644.1644                                   24138638.8164
                                                                        40.2504
        19.0004
  -3330930.80947  -2535937.15644
                  22991290.7584                                   22991286.8554
                                                                        45.2504
        28.5004
 09 10  8  0 56 30.0000000  0  9G02G04G05G13G29G10G23G16G25
 -15262319.26648 -11838696.83647
                  20534956.0704                                   20534950.5474
                                                                        52.0004
        42.2504
   1695911.84047   1350990.84445
                  22619541.9064                                   22619538.3674
                                                                        47.0004
        33.5004
 -11340725.98048  -8820945.49646
                  22084122.9534                                   22084118.8164
                                                                        49.7504
        38.0004
 -19319983.93748 -14992262.66446
                  21178429.5704                                   21178424.6214
                                                                        50.7504
        36.2504
 -14927765.21148 -11590514.98046
                  22152403.8204                                   22152400.3284
                                                                        49.0004
        37.2504
 -16725281.31648 -13016284.17646
                  21376131.9694                                   21376127.7704
                                                                        50.2504
        38.2504
  -2245716.16847  -1714754.69944
                  23291156.7734                                   23291150.9454
                                                                        43.2504
        27.2504
   7793629.98446   6106680.23843
                  24109378.6174                                   24109373.4184
                                                                        40.7504
        18.5004
  -3479151.53947  -2651433.89544
                  22963085.4774                                   22963081.0204
                                                                        45.5004
        29.2504
 09 10  8  0 57  0.0000000  0  9G02G04G05G13G29G10G23G16G25
 -15313942.02748 -11878922.38747
                  20525132.7664                                   20525126.8164
                                                                        52.0004
        42.0004
   1707049.34447   1359668.09445
                  22621662.3674                                   22621659.3554
                                                                        47.0004
        33.2504
 -11519237.50448  -8960045.38746
                  22050153.8594                                   22050149.0824
                                                                        50.0004
        37.7504
 -19382842.84448 -15041243.62546
                  21166468.1094                                   21166463.4494
                                                                        50.7504
        36.0004
 -15058804.03148 -11692623.14846
                  22127467.9304                                   22127464.2544
                                                                        49.0004
        37.5004
 -16892870.48048 -13146873.12946
                  21344240.6254                                   21344236.1644
                                                                        49.5004
        38.0004
  -2242416.18447  -1712183.29344
                  23291785.5474                                   23291778.9304
                                                                        44.2504
        26.7504
   7640313.32446   5987212.66443
                  24080202.6724                                   24080198.1604
                                                                        41.5004
        19.7504
  -3626897.86747  -2766560.95744
                  22934970.3834                                   22934965.8324
                                                                        45.0004
        29.2504
 09 10  8  0 57 30.0000000  0 10G02G04G05G13G29G10G23G16G07G25
 -13789587.53148 -10691113.68746
                  20815207.8984                                   20815201.5904
                                                                        51.5004
        41.7504
   3293873.64147   2596154.11345
                  22923625.3984                                   22923622.5864
                                                                        45.7504
        33.2504
 -10121996.55948  -7871286.20346
                  22316039.7584                                   22316035.4694
                                                                        49.0004
        38.5004
 -17869643.23848 -13862127.05546
                  21454420.3914                                   21454415.8014
                                                                        50.5004
        36.2504
 -13613865.11748 -10566696.72746
                  22402431.1024                                   22402426.8134
                                                                        49.0004
        36.7504
 -15484611.15648 -12049528.19546
                  21612223.5084                                   21612219.4654
                                                                        50.0004
        38.0004
   -663352.43447   -481744.02744
                  23592270.4924                                   23592264.4534
                                                                        43.0004
        26.0004
   9062895.93447   7095718.60543
                  24350911.7974                                   24350906.9264
                                                                        43.2504
        21.5004
  10720082.78956   8393475.39853
                  24557140.9774                                   24557137.5164
                                                                        40.5004
        22.0004
  -2198746.28947  -1653715.62144
                  23206738.3364                                   23206734.4844
                                                                        43.7504
        27.7504
 09 10  8  0 58  0.0000000  0 10G02G04G05G13G29G10G23G16G07G25
 -13840104.68048 -10730477.69547
                  20805594.6094                                   20805588.6844
                                                                        51.5004
        42.5004
   3305539.40647   2605245.12545
                  22925844.4614                                   22925842.0634
                                                                        45.0004
        32.2504
 -10299857.44548  -8009879.08646
                  22282193.5474                                   22282189.4064
                                                                        49.2504
        38.5004
 -17931234.41048 -13910120.15246
                  21442699.8134                                   21442695.0634
                                                                        50.2504
        36.5004
 -13743800.23848 -10667944.87546
                  22377704.8134                                   22377701.5084
                                                                        49.2504
        36.5004
 -15651357.00448 -12179460.01646
                  21580492.7114                                   21580488.9224
                                                                        49.2504
        38.5004
   -659371.68047   -478642.12944
                  23593028.3914                                   23593021.4494
                                                                        43.7504
        25.0004
   8910525.55947   6976988.46943
                  24321916.8914                                   24321911.6644
                                                                        42.2504
        22.5004
  10531967.73446   8246892.28943
                  24521344.0864                                   24521340.3984
                                                                        39.0004
        21.0004
  -2345549.14847  -1768107.46944
                  23178802.8594                                   23178798.9774
                                                                        44.0004
        28.5004
 09 10  8  0 58 30.0000000  0 10G02G04G05G13G29G10G23G16G07G25
 -13890073.59448 -10769414.53147
                  20796085.7974                                   20796079.7034
                                                                        50.7504
        42.0004
   3317459.98847   2614534.21545
                  22928112.6644                                   22928109.7074
                                                                        45.5004
        32.5004
 -10477393.61348  -8148218.93446
                  22248409.6644                                   22248405.9144
                                                                        48.7504
        39.0004
 -17992196.76248 -13957623.26246
                  21431099.2034                                   21431094.3914
                                                                        50.0004
        36.2504
 -13873184.32848 -10768763.64546
                  22353084.5004                                   22353080.0824
                                                                        48.2504
        37.0004
 -15817681.21948 -12309063.29346
                  21548842.4454                                   21548838.9774
                                                                        49.0004
        39.2504
   -655057.78547   -475280.63744
                  23593849.1644                                   23593842.7664
                                                                        43.7504
        24.0004
   8758628.35247   6858627.04743
                  24293011.4304                                   24293006.5554
                                                                        42.2504
        22.0004
  10344092.32446   8100495.89143
                  24485592.9144                                   24485588.5864
                                                                        41.5004
        22.5004
  -2491880.31247  -1882131.73844
                  23150957.0004                                   23150952.5984
                                                                        44.0004
        27.5004
 09 10  8  0 59  0.0000000  0 10G02G04G05G13G29G10G23G16G07G25
 -13939493.51248 -10807923.55547
                  20786681.6094                                   20786675.5084
                                                                        50.7504
        42.0004
   3329635.16047   2624021.41445
                  22930429.4924                                   22930426.4844
                                                                        46.2504
        32.5004
 -10654601.78948  -8286303.21146
                  22214688.3284                                   22214684.1644
                                                                        49.0004
        39.0004
 -18052530.21548 -14004636.34046
                  21419617.8674                                   21419613.3834
                                                                        49.2504
        36.0004
 -14002014.79348 -10869151.01246
                  22328568.2664                                   22328564.5234
                                                                        49.0004
        36.7504
 -15983581.05148 -12438335.88746
                  21517272.8754                                   21517268.7114
                                                                        49.7504
        38.5004
   -650412.04747   -471660.56244
                  23594733.3204                                   23594726.4844
                                                                        43.7504
        24.5004
   8607208.05547   6740637.21543
                  24264196.9694                                   24264192.6764
                                                                        42.0004
        22.2504
  10156461.45747   7954290.27044
                  24449887.6484                                   24449884.1684
                                                                        42.5004
        26.0004
  -2637736.43447  -1995785.84444
                  23123201.3284                                   23123196.9344
                                                                        44.5004
        27.7504
 09 10  8  0 59 30.0000000  0 10G02G04G05G13G29G10G23G16G07G25
 -13988360.22348 -10846001.52747
                  20777382.7114                                   20777376.4224
                                                                        51.2504
        42.2504
   3342068.93047   2633710.16845
                  22932795.6724                                   22932792.4104
                                                                        46.0004
        32.5004
 -10831474.19148  -8424125.85946
                  22181030.6484                                   22181026.7504
                                                                        48.2504
        39.0004
 -18112229.61748 -14051155.35545
                  21408257.8594                                   21408252.9694
                                                                        49.0004
        35.7504
 -14130284.39148 -10969101.34446
                  22304159.3204                                   22304155.6174
                                                                        48.7504
        36.5004
 -16149048.66448 -12567271.68046
                  21485785.3754                                   21485781.3674
                                                                        49.7504
        39.0004
   -645431.37147   -467779.50044
                  23595681.0634                                   23595675.1804
                                                                        44.0004
        26.5004
   8456272.50846   6623025.10943
                  24235474.9774                                   24235470.4304
                                                                        40.7504
        22.0004
   9969083.09847   7808281.27344
                  24414230.3594                                   24414226.4494
                                                                        43.0004
        27.7504
  -2783109.87547  -2109063.89144
                  23095537.6024                                   23095532.8914
                                                                        44.2504
        28.5004
 09 10  8  1  0  0.0000000  0 10G02G04G05G13G29G10G23G16G07G25
 -14036672.37548 -10883647.30146
                  20768189.0784                                   20768182.9534
                                                                        50.7504
        41.7504
   3354761.27747   2643600.45745
                  22935210.7974                                   22935207.5394
                                                                        46.7504
        33.0004
 -11008006.80948  -8561683.72746
                  22147437.2664                                   22147432.7664
                                                                        48.7504
        38.5004
 -18171293.84048 -14097179.42646
                  21397018.1804                                   21397013.6054
                                                                        49.7504
        36.7504
 -14257989.81248 -11068612.05546
                  22279857.9454                                   22279854.1454
                                                                        48.5004
        36.7504
 -16314080.17648 -12695867.65646
                  21454380.8054                                   21454376.7584
                                                                        49.0004
        39.0004
   -640116.42247   -463637.98844
                  23596692.7344                                   23596686.7624
                                                                        43.5004
        26.7504
   8305826.06646   6505794.12943
                  24206845.9064                                   24206841.4654
                                                                        40.0004
        21.5004
   9781961.78147   7662472.26644
                  24378622.8364                                   24378618.9414
                                                                        43.5004
        27.0004
  -2927996.52347  -2221962.52744
                  23067966.6414                                   23067962.7544
                                                                        43.7504
        28.5004
 09 10  8  1  0 30.0000000  0 10G02G04G05G13G29G10G23G16G07G25
 -14084431.66048 -10920862.35247
                  20759100.8524                                   20759094.7344
                                                                        51.7504
        42.2504
   3367708.56347   2653688.95745
                  22937674.7734                                   22937672.1524
                                                                        46.7504
        32.5004
 -11184198.29748  -8698975.79346
                  22113909.4224                                   22113905.2464
                                                                        48.7504
        39.0004
 -18229726.02048 -14142710.98846
                  21385898.8914                                   21385894.1094
                                                                        50.0004
        36.0004
 -14385129.96148 -11167682.29346
                  22255663.6724                                   22255659.8754
                                                                        49.5004
        37.0004
 -16478674.54348 -12824123.00046
                  21423059.3914                                   21423055.5234
                                                                        49.7504
        39.0004
   -634470.62147   -459238.66844
                  23597766.8444                                   23597760.8164
                                                                        43.2504
        26.2504
   8155870.43046   6388945.61743
                  24178309.8054                                   24178305.4804
                                                                        39.7504
        21.5004
   9595099.96947   7516865.30544
                  24343064.9614                                   24343060.8204
                                                                        43.5004
        26.7504
  -3072395.02747  -2334480.80944
                  23040488.6724                                   23040484.7344
                                                                        44.5004
        28.0004
 09 10  8  1  1  0.0000000  0 10G02G04G05G13G29G10G23G16G07G25
 -14131637.21948 -10957645.91846
                  20750117.8984                                   20750111.9384
                                                                        51.2504
        41.7504
   3380912.18047   2663977.67645
                  22940187.2344                                   22940184.5594
                                                                        47.0004
        33.0004
 -11360045.28948  -8835999.41446
                  22080446.6484                                   22080442.5004
                                                                        48.0004
        38.7504
 -18287525.18448 -14187749.29746
                  21374900.0634                                   21374895.2934
                                                                        49.7504
        36.2504
 -14511701.64848 -11266309.58646
                  22231578.0084                                   22231574.4534
                                                                        48.7504
        36.7504
 -16642828.21548 -12952034.93746
                  21391822.0234                                   21391818.0664
                                                                        49.0004
        38.5004
   -628494.48447   -454581.95744
                  23598903.4384                                   23598897.9654
                                                                        43.5004
        26.0004
   8006409.39846   6272482.50843
                  24149868.6094                                   24149864.3524
                                                                        38.7504
        20.7504
   9408503.47747   7371465.26244
                  24307556.3444                                   24307552.4024
                                                                        42.5004
        25.5004
  -3216301.69947  -2446615.83244
                  23013104.3134                                   23013100.1024
                                                                        43.5004
        29.2504
 09 10  8  1  1 30.0000000  0 10G02G04G05G13G29G10G23G16G07G25
 -14178287.52048 -10993996.79747
                  20741240.5784                                   20741234.7774
                                                                        50.7504
        42.2504
   3394371.29347   2674465.48445
                  22942748.3364                                   22942745.4384
                                                                        47.2504
        31.5004
 -11535543.55548  -8972751.30146
                  22047050.1884                                   22047046.1954
                                                                        49.0004
        38.7504
 -18344690.21548 -14232293.48046
                  21364021.6884                                   21364017.5004
                                                                        49.0004
        36.0004
 -14637701.61348 -11364491.36746
                  22207601.0864                                   22207597.6994
                                                                        49.2504
        37.0004
 -16806536.97748 -13079600.19546
                  21360669.3674                                   21360665.2584
                                                                        48.5004
        39.0004
   -622188.55147   -449668.23044
                  23600104.2344                                   23600097.8364
                                                                        43.0004
        26.5004
   7857447.48846   6156408.35943
                  24121521.7974                                   24121517.5594
                                                                        39.0004
        21.5004
   9222176.60246   7226275.07843
                  24272099.3134                                   24272095.4414
                                                                        41.7504
        22.5004
  -3359712.10247  -2558364.08645
                  22985814.4774                                   22985810.0984
                                                                        45.0004
        30.7504
 09 10  8  1  2  0.0000000  0 10G02G04G05G13G29G10G23G16G07G25
 -14224387.16448 -11029918.62546
                  20732468.2814                                   20732462.4064
                                                                        50.2504
        41.7504
   3408080.76247   2685148.28545
                  22945356.8054                                   22945353.7114
                                                                        46.2504
        32.5004
 -11710694.30148  -9109232.39546
                  22013720.2584                                   22013716.4654
                                                                        49.0004
        39.2504
 -18401225.34448 -14276346.81645
                  21353263.6804                                   21353258.9344
                                                                        49.2504
        35.5004
 -14763131.39148 -11462228.85546
                  22183732.3054                                   22183728.5004
                                                                        49.2504
        37.0004
 -16969802.09048 -13206819.76246
                  21329600.8594                                   21329596.9224
                                                                        49.0004
        39.0004
   -615558.22747   -444501.75843
                  23601365.3364                                   23601359.1374
                                                                        43.0004
        23.7504
   7708984.16846   6040722.68443
                  24093271.2894                                   24093266.1804
                                                                        39.0004
        20.5004
   9036120.25446   7081296.04343
                  24236693.8364                                   24236690.5394
                                                                        40.7504
        22.5004
  -3502627.59847  -2669726.75445
                  22958617.8834                                   22958613.9884
                                                                        43.7504
        30.2504
 09 10  8  1  2 30.0000000  0 10G02G04G05G13G29G10G23G16G07G25
 -14269934.93048 -11065410.37147
                  20723800.4774                                   20723794.9494
                                                                        50.7504
        42.0004
   3422040.24247   2696025.87945
                  22948013.3754                                   22948010.2934
                                                                        46.5004
        32.5004
 -11885493.62148  -9245439.65646
                  21980457.3054                                   21980453.3794
                                                                        49.7504
        39.5004
 -18457130.30148 -14319909.11746
                  21342625.1564                                   21342620.6884
                                                                        49.0004
        36.0004
 -14887987.62548 -11559519.42246
                  22159973.1644                                   22159969.7154
                                                                        49.2504
        36.7504
 -17132620.21148 -13333691.02046
                  21298617.8834                                   21298613.7894
                                                                        49.5004
        39.0004
   -608604.59447   -439083.33243
                  23602689.0314                                   23602682.5314
                                                                        42.5004
        22.5004
   7561022.89146   5925428.20743
                  24065114.3834                                   24065109.2664
                                                                        38.7504
        21.0004
   8850340.15647   6936532.87544
                  24201341.5234                                   24201337.5274
                                                                        42.2504
        25.2504
  -3645044.46947  -2780700.89144
                  22931516.7114                                   22931512.9734
                                                                        44.2504
        29.5004
 09 10  8  1  3  0.0000000  0 10G02G04G05G13G29G10G23G16G07G25
 -14314933.23848 -11100473.94146
                  20715237.5864                                   20715231.6954
                                                                        51.0004
        41.7504
   3436247.02047   2707096.31645
                  22950716.8444                                   22950714.1214
                                                                        46.5004
        32.0004
 -12059941.16848  -9381372.82046
                  21947260.7664                                   21947256.9064
                                                                        49.5004
        39.7504
 -18512407.32448 -14362982.12145
                  21332106.3444                                   21332101.6524
                                                                        49.2504
        35.7504
 -15012269.95348 -11656362.79346
                  22136323.0314                                   22136319.7274
                                                                        48.7504
        36.7504
 -17294990.25448 -13460213.13746
                  21267719.6484                                   21267715.5234
                                                                        50.5004
        39.2504
   -601331.38346   -433415.84443
                  23604072.9774                                   23604066.1054
                                                                        41.5004
        22.5004
   7413564.62946   5810525.66843
                  24037054.3914                                   24037049.3874
                                                                        41.0004
        21.5004
   8664834.85247   6791982.84044
                  24166041.1094                                   24166036.9534
                                                                        43.0004
        26.0004
  -3786961.73447  -2891285.73844
                  22904510.4224                                   22904506.5434
                                                                        43.5004
        28.2504
 09 10  8  1  3 30.0000000  0 10G02G04G05G13G29G10G23G16G07G25
 -14359385.23048 -11135111.87946
                  20706778.8594                                   20706773.1294
                                                                        51.2504
        41.7504
   3450696.44947   2718355.68445
                  22953466.1644                                   22953462.9264
                                                                        46.2504
        31.0004
 -12234036.44548  -9517031.46546
                  21914131.5704                                   21914127.7424
                                                                        49.7504
        39.5004
 -18567059.88348 -14405568.52745
                  21321706.5864                                   21321701.5744
                                                                        49.7504
        35.7504
 -15135979.20348 -11752759.60546
                  22112782.1724                                   22112778.6604
                                                                        48.5004
        37.2504
 -17456912.19548 -13586386.07046
                  21236907.1174                                   21236903.0084
                                                                        49.5004
        39.5004
   -593743.21946   -427502.97343
                  23605516.6724                                   23605510.6644
                                                                        41.2504
        23.0004
   7266609.97747   5696015.53143
                  24009089.9534                                   24009084.7194
                                                                        42.0004
        21.5004
   8479608.74647   6647651.04344
                  24130794.0634                                   24130789.6484
                                                                        44.5004
        24.2504
  -3928379.43047  -3001481.32044
                  22877600.0784                                   22877596.0204
                                                                        42.5004
        28.2504
 09 10  8  1  4  0.0000000  0 10G02G04G05G13G29G10G23G16G07G25
 -14403291.40648 -11169324.48447
                  20698424.0704                                   20698417.6484
                                                                        51.0004
        42.0004
   3465386.91447   2729802.92645
                  22956261.6094                                   22956257.9064
                                                                        46.2504
        31.2504
 -12407777.96148  -9652414.46146
                  21881069.9224                                   21881065.8524
                                                                        50.2504
        40.0004
 -18621089.17648 -14447669.26645
                  21311425.0084                                   21311419.8984
                                                                        49.5004
        35.7504
 -15259113.99248 -11848708.77046
                  22089350.0394                                   22089346.8094
                                                                        48.5004
        37.5004
 -17618384.51248 -13712208.64846
                  21206179.7894                                   21206176.5124
                                                                        49.7504
        39.7504
   -585842.60547   -421346.60544
                  23607020.9774                                   23607013.7934
                                                                        43.0004
        25.0004
   7120161.12146   5581899.50843
                  23981221.5084                                   23981215.9614
                                                                        41.5004
        22.5004
   8294663.56347   6503538.20344
                  24095599.5704                                   24095595.8284
                                                                        43.5004
        27.0004
  -4069295.61747  -3111286.11344
                  22850784.5394                                   22850780.5044
                                                                        43.5004
        29.0004
 09 10  8  1  4 30.0000000  0 10G02G04G05G13G29G10G23G16G07G25
 -14446653.99648 -11203113.50847
                  20690172.1804                                   20690166.1254
                                                                        51.0004
        42.0004
   3480315.03147   2741435.19545
                  22959102.2504                                   22959099.1374
                                                                        46.5004
        31.7504
 -12581164.53548  -9787520.87946
                  21848075.2504                                   21848071.2274
                                                                        49.7504
        39.7504
 -18674497.64148 -14489286.24645
                  21301261.7424                                   21301256.8984
                                                                        49.7504
        35.7504
 -15381673.71948 -11944209.83646
                  22066028.2504                                   22066024.1884
                                                                        48.5004
        37.7504
 -17779405.94548 -13837679.87946
                  21175538.3284                                   21175534.9184
                                                                        49.7504
        39.7504
   -577633.06247   -414949.55944
                  23608582.7894                                   23608576.9574
                                                                        42.5004
        27.5004
   6974219.30947   5468178.59443
                  23953449.3594                                   23953444.2504
                                                                        42.2504
        22.0004
   8110001.34447   6359645.93444
                  24060459.1804                                   24060456.0944
                                                                        42.5004
        25.7504
  -4209709.34047  -3220699.38344
                  22824064.5234                                   22824060.3244
                                                                        43.5004
        29.5004
 09 10  8  1  5  0.0000000  0 10G02G04G05G13G29G10G23G16G07G25
 -14489474.64548 -11236480.26646
                  20682023.9454                                   20682017.7814
                                                                        50.2504
        41.5004
   3495478.72347   2753251.11345
                  22961987.9224                                   22961984.8244
                                                                        46.2504
        31.2504
 -12754194.62548  -9922349.52046
                  21815148.7034                                   21815144.7504
                                                                        50.0004
        40.2504
 -18727287.05148 -14530420.83646
                  21291216.0554                                   21291211.5984
                                                                        50.5004
        36.0004
 -15503657.75848 -12039262.32446
                  22042815.3914                                   22042811.2194
                                                                        49.0004
        37.5004
 -17939975.46548 -13962798.97346
                  21144982.8524                                   21144979.4694
                                                                        49.2504
        39.2504
   -569117.84447   -408314.29744
                  23610203.0004                                   23610196.9614
                                                                        43.0004
        27.0004
   6828786.13746   5354854.05143
                  23925774.3134                                   23925769.5234
                                                                        40.5004
        21.2504
   7925624.68046   6215976.10244
                  24025373.8364                                   24025370.3524
                                                                        41.0004
        26.7504
  -4349619.03947  -3329719.88344
                  22797440.5784                                   22797436.5234
                                                                        43.0004
        28.7504
 09 10  8  1  5 30.0000000  0 10G02G04G05G13G29G10G23G16G07G25
 -14531755.91848 -11269426.73846
                  20673977.7894                                   20673971.9024
                                                                        50.2504
        41.2504
   3510874.21147   2765247.59445
                  22964917.4304                                   22964914.6374
                                                                        45.7504
        32.5004
 -12926867.88348 -10056900.09446
                  21782290.2344                                   21782286.2074
                                                                        49.7504
        39.5004
 -18779460.48448 -14571075.45345
                  21281287.6174                                   21281283.6024
                                                                        49.2504
        35.5004
 -15625066.48848 -12133866.51246
                  22019711.8364                                   22019708.2384
                                                                        49.5004
        37.5004
 -18100092.89148 -14087565.80546
                  21114513.8364                                   21114509.9924
                                                                        50.0004
        39.5004
   -560300.81247   -401443.87544
                  23611880.6174                                   23611874.5004
                                                                        42.0004
        25.7504
   6683862.11746   5241926.25443
                  23898195.8834                                   23898191.3014
                                                                        37.2504
        20.7504
   7741534.73047   6072529.60944
                  23990341.9454                                   23990338.1684
                                                                        42.0004
        25.2504
  -4489024.56647  -3438347.52744
                  22770912.6174                                   22770908.5004
                                                                        44.2504
        29.7504
 09 10  8  1  6  0.0000000  0 10G02G04G05G13G29G10G23G16G07G25
 -14573498.58648 -11301953.46946
                  20666034.6094                                   20666028.7344
                                                                        50.7504
        41.7504
   3526499.48447   2777423.09045
                  22967890.7504                                   22967887.7624
                                                                        46.0004
        31.0004
 -13099182.37948 -10191171.12946
                  21749500.0004                                   21749496.2154
                                                                        49.7504
        39.7504
 -18831019.05948 -14611250.96145
                  21271476.6254                                   21271471.9184
                                                                        49.7504
        35.5004
 -15745898.20748 -12228021.08646
                  21996718.3054                                   21996714.9964
                                                                        49.0004
        37.0004
 -18259755.91448 -14211978.55146
                  21084130.7034                                   21084127.0004
                                                                        49.2504
        39.5004
   -551184.12546   -394339.98443
                  23613614.7194                                   23613609.7194
                                                                        40.7504
        22.0004
   6539449.67246   5129397.13343
                  23870715.4064                                   23870710.9024
                                                                        37.2504
        21.5004
   7557735.01247   5929309.26644
                  23955365.3524                                   23955362.0084
                                                                        42.0004
        24.7504
  -4627923.77747  -3546580.66445
                  22744481.1644                                   22744476.8754
                                                                        45.0004
        30.0004
 09 10  8  1  6 30.0000000  0 10G02G04G05G13G29G10G23G16G07G25
 -13039283.57848 -10106461.29346
                  20957986.0234                                   20957979.6564
                                                                        51.0004
        41.5004
   5117770.77347   4017374.50445
                  23270699.8524                                   23270696.9144
                                                                        46.0004
        30.5004
 -11695711.42248  -9097557.39546
                  22016571.6174                                   22016567.8054
                                                                        50.0004
        39.2504
 -17306543.92648 -13423348.25445
                  21561574.4534                                   21561570.1484
                                                                        49.0004
        35.0004
 -14290728.71548 -11094122.76646
                  22273627.9144                                   22273624.5474
                                                                        49.5004
        37.7504
 -16843538.44148 -13108432.47346
                  21353627.9774                                   21353624.3594
                                                                        51.0004
        39.0004
   1033648.00046    840594.10243
                  23915199.0314                                   23915192.8714
                                                                        41.7504
        21.5004
   7970974.40246   6244870.95743
                  24143125.2034                                   24143121.4144
                                                                        40.2504
        21.7504
   8949653.57047   7013921.35944
                  24220239.0474                                   24220235.1294
                                                                        42.5004
        26.2504
  -3190891.32047  -2426815.13345
                  23017939.2974                                   23017935.4454
                                                                        44.2504
        30.5004
 09 10  8  1  7  0.0000000  0 10G02G04G05G13G29G10G23G16G07G25
 -13079955.00848 -10138153.32046
                  20950246.2814                                   20950240.5314
                                                                        50.5004
        41.7504
   5133847.56347   4029901.87945
                  23273759.1094                                   23273755.8324
                                                                        46.5004
        31.2504
 -11867305.07848  -9231266.72746
                  21983918.4614                                   21983914.4654
                                                                        50.2504
        40.0004
 -17356880.20348 -13462571.33645
                  21551996.1334                                   21551991.4224
                                                                        49.7504
        35.5004
 -14410405.46148 -11187377.36746
                  22250854.0394                                   22250850.9844
                                                                        49.2504
        37.2504
 -17002289.91048 -13232134.92246
                  21323418.9384                                   21323414.7504
                                                                        49.5004
        40.0004
   1043353.08647    848156.58243
                  23917046.1024                                   23917039.3324
                                                                        44.0004
        22.5004
   7827588.50846   6133141.72343
                  24115840.0554                                   24115836.1414
                                                                        39.0004
        23.5004
   8766439.89147   6871157.27744
                  24185374.8134                                   24185370.3204
                                                                        43.0004
        26.2504
  -3328774.86347  -2534256.84045
                  22991700.7114                                   22991696.8984
                                                                        44.5004
        30.7504
 09 10  8  1  7 30.0000000  0 10G02G04G05G13G29G10G23G16G07G25
 -13120093.53548 -10169430.17646
                  20942608.5234                                   20942602.5554
                                                                        51.0004
        41.7504
   5150146.26247   4042601.92645
                  23276861.2424                                   23276857.3284
                                                                        46.7504
        30.2504
 -12038535.47748  -9364693.01246
                  21951333.9454                                   21951329.8914
                                                                        50.5004
        40.0004
 -17406607.45748 -13501319.85546
                  21542533.2274                                   21542528.4144
                                                                        48.7504
        36.0004
 -14529502.71148 -11280180.41446
                  22228190.5704                                   22228187.0474
                                                                        48.7504
        38.0004
 -17160583.25848 -13355480.37946
                  21293296.7814                                   21293292.6374
                                                                        49.5004
        39.5004
   1053348.53947    855945.32843
                  23918948.2894                                   23918940.2664
                                                                        44.2504
        22.5004
   7684718.81646   6021814.71143
                  24088653.0784                                   24088648.0394
                                                                        40.5004
        22.7504
   8583524.52747   6728625.89544
                  24150567.0394                                   24150562.4344
                                                                        43.5004
        27.0004
  -3466147.96947  -2641300.80145
                  22965559.4064                                   22965555.3914
                                                                        44.7504
        30.5004
 09 10  8  1  8  0.0000000  0 10G02G04G05G13G29G10G23G16G07G25
 -13159700.10248 -10200292.43746
                  20935071.6094                                   20935065.4494
                                                                        50.7504
        41.2504
   5166664.25447   4055472.90245
                  23280004.7424                                   23280001.5984
                                                                        46.2504
        30.5004
 -12209402.30148  -9497836.01246
                  21918819.3674                                   21918815.1994
                                                                        49.5004
        39.7504
 -17455728.26648 -13539595.81245
                  21533185.6644                                   21533181.1094
                                                                        48.7504
        35.7504
 -14648021.02748 -11372532.34046
                  22205637.4064                                   22205633.9144
                                                                        49.2504
        37.0004
 -17318418.07448 -13478468.56246
                  21263261.4384                                   21263257.9804
                                                                        50.5004
        40.0004
   1063630.29347    863957.13743
                  23920904.6564                                   23920898.3094
                                                                        43.0004
        22.7504
   7542366.31346   5910890.67243
                  24061564.4224                                   24061559.5744
                                                                        41.0004
        22.5004
   8400908.56347   6586327.77044
                  24115816.2274                                   24115812.2274
                                                                        43.7504
        24.7504
  -3603010.04347  -2747946.54744
                  22939515.6884                                   22939511.3164
                                                                        44.5004
        29.2504
 09 10  8  1  8 30.0000000  0 10G02G04G05G13G29G10G23G16G07G25
 -13198775.09848 -10230740.48046
                  20927635.7344                                   20927630.1214
                                                                        51.0004
        41.7504
   5183401.06347   4068514.69145
                  23283189.2344                                   23283186.4654
                                                                        46.5004
        30.7504
 -12379901.93748  -9630692.87946
                  21886374.3284                                   21886370.5354
                                                                        50.0004
        40.0004
 -17504243.35248 -13577399.76645
                  21523953.6484                                   21523948.8244
                                                                        48.0004
        35.2504
 -14765957.60548 -11464430.96946
                  22183194.5704                                   22183190.7774
                                                                        49.2504
        36.7504
 -17475790.87948 -13601096.72346
                  21233314.2584                                   21233310.6454
                                                                        49.5004
        39.5004
   1074197.16847    872191.08643
                  23922915.2194                                   23922909.6564
                                                                        42.5004
        23.5004
   7400534.31646   5800372.23443
                  24034574.1414                                   24034569.9184
                                                                        40.5004
        22.0004
   8218596.84447   6444266.78944
                  24081124.0704                                   24081119.5004
                                                                        43.5004
        26.7504
  -3739358.20747  -2854191.86744
                  22913569.2894                                   22913565.6884
                                                                        44.7504
        29.2504
 09 10  8  1  9  0.0000000  0 10G02G04G05G13G29G10G23G16G07G25
 -13237323.41048 -10260778.11746
                  20920300.2274                                   20920294.0354
                                                                        51.0004
        41.7504
   5200351.32447   4081722.86745
                  23286414.7194                                   23286411.9024
                                                                        47.0004
        32.0004
 -12550036.05548  -9763264.91046
                  21853999.0554                                   21853994.9414
                                                                        49.7504
        40.5004
 -17552157.18447 -13614735.22345
                  21514835.8754                                   21514831.1724
                                                                        47.7504
        34.7504
 -14883314.39848 -11555877.80946
                  22160862.4844                                   22160858.8714
                                                                        50.0004
        37.5004
 -17632703.27748 -13723366.11346
                  21203455.0864                                   21203451.2854
                                                                        49.5004
        39.2504
   1085043.33246    880642.57843
                  23924978.8984                                   23924973.5554
                                                                        40.5004
        23.5004
   7259221.52046   5690258.38343
                  24007683.4304                                   24007678.9384
                                                                        41.0004
        22.2504
   8036588.98047   6302442.65644
                  24046488.7974                                   24046484.1214
                                                                        43.2504
        26.7504
  -3875193.59047  -2960037.60544
                  22887720.3674                                   22887716.6174
                                                                        43.2504
        29.2504
 09 10  8  1  9 30.0000000  0 10G02G04G05G13G29G10G23G16G07G25
 -13275343.35248 -10290404.05146
                  20913065.3204                                   20913059.3054
                                                                        51.0004
        41.0004
   5217515.00047   4095097.30945
                  23289680.7664                                   23289677.7034
                                                                        46.7504
        31.0004
 -12719800.59448  -9895548.94946
                  21821693.7344                                   21821689.8524
                                                                        50.0004
        40.0004
 -17599469.08648 -13651601.63745
                  21505832.5314                                   21505828.1374
                                                                        48.2504
        35.5004
 -15000088.25848 -11646870.42246
                  22138641.0634                                   22138637.6094
                                                                        49.5004
        37.2504
 -17789151.22348 -13845273.59846
                  21173684.0314                                   21173679.7544
                                                                        50.0004
        40.0004
   1096168.56346    889311.53143
                  23927095.9144                                   23927090.4694
                                                                        39.7504
        22.7504
   7118432.19946   5580552.43043
                  23980892.3754                                   23980887.4694
                                                                        40.5004
        21.2504
   7854889.75847   6160858.87944
                  24011912.1254                                   24011908.6804
                                                                        42.5004
        27.0004
  -4010512.35247  -3065480.80544
                  22861970.4064                                   22861966.1644
                                                                        43.5004
        29.2504
 09 10  8  1 10  0.0000000  0 10G02G04G05G13G29G10G23G16G07G25
 -13312838.41848 -10319620.92646
                  20905930.0084                                   20905924.1414
                                                                        51.5004
        41.0004
   5234887.43447   4108634.30945
                  23292986.2974                                   23292983.2894
                                                                        46.2504
        30.0004
 -12889195.44148 -10027544.93446
                  21789459.1094                                   21789455.3794
                                                                        50.2504
        40.0004
 -17646182.72748 -13688001.87945
                  21496943.3984                                   21496939.0124
                                                                        48.0004
        35.2504
 -15116280.06648 -11737409.48446
                  22116530.4384                                   22116526.7934
                                                                        50.0004
        37.2504
 -17945134.96548 -13966819.37146
                  21144001.4064                                   21143997.5514
                                                                        50.2504
        39.7504
   1107568.06647    898194.26643
                  23929265.2194                                   23929259.3674
                                                                        42.7504
        23.0004
   6978166.31346   5471254.34043
                  23954200.3984                                   23954196.2074
                                                                        41.5004
        22.0004
   7673500.63747   6019516.78544
                  23977394.7114                                   23977390.9534
                                                                        42.2504
        25.2504
  -4145314.83647  -3170521.69144
                  22836318.3204                                   22836314.0594
                                                                        43.7504
        29.2504
 09 10  8  1 10 30.0000000  0 10G02G04G05G13G29G10G23G16G07G25
 -13349810.51648 -10348430.42246
                  20898894.4694                                   20898888.8714
                                                                        51.0004
        41.5004
   5252466.49247   4122332.18444
                  23296331.7894                                   23296328.9184
                                                                        46.2504
        29.7504
 -13058219.32048 -10159251.84846
                  21757294.8284                                   21757290.8094
                                                                        50.5004
        40.0004
 -17692300.17247 -13723937.55545
                  21488167.6024                                   21488163.0864
                                                                        47.5004
        35.0004
 -15231889.10548 -11827494.44946
                  22094530.5944                                   22094527.1644
                                                                        50.0004
        37.0004
 -18100653.54348 -14088002.69546
                  21114406.9304                                   21114403.5514
                                                                        50.0004
        39.7504
   1119238.89847    907288.47744
                  23931486.7114                                   23931480.1524
                                                                        43.2504
        26.0004
   6838425.20346   5362365.18443
                  23927608.4224                                   23927604.0594
                                                                        41.5004
        22.0004
   7492423.82847   5878418.11744
                  23942936.7274                                   23942932.6414
                                                                        42.5004
        24.2504
  -4279599.78147  -3275159.32844
                  22810764.1724                                   22810760.6914
                                                                        45.0004
        29.0004
 09 10  8  1 11  0.0000000  0 10G02G04G05G13G29G10G23G16G07G25
 -13386262.21948 -10376834.37947
                  20891958.1484                                   20891952.2344
                                                                        51.2504
        42.2504
   5270248.74247   4136188.41444
                  23299715.3984                                   23299712.4614
                                                                        46.0004
        29.5004
 -13226871.84848 -10290669.39846
                  21725201.6254                                   21725197.7114
                                                                        50.7504
        40.2504
 -17737825.13347 -13759411.55945
                  21479504.0004                                   21479499.9454
                                                                        47.0004
        35.7504
 -15346916.10548 -11917125.86746
                  22072641.7114                                   22072638.2544
                                                                        50.0004
        37.0004
 -18255706.60948 -14208823.25046
                  21084901.2894                                   21084897.8204
                                                                        49.7504
        39.7504
   1131176.96547    916590.90643
                  23933758.3364                                   23933751.9104
                                                                        42.2504
        22.2504
   6699209.36747   5253885.32043
                  23901117.2664                                   23901112.3524
                                                                        42.2504
        23.7504
   7311661.28947   5737564.33244
                  23908539.5394                                   23908534.6804
                                                                        43.7504
        26.7504
  -4413367.01647  -3379393.53545
                  22785309.6334                                   22785305.6564
                                                                        44.2504
        30.0004
 09 10  8  1 11 30.0000000  0 10G02G04G05G13G29G10G23G16G07G25
 -13422195.66048 -10404834.46546
                  20885120.3284                                   20885114.4804
                                                                        51.2504
        41.2504
   5288231.44147   4150200.93844
                  23303137.8444                                   23303134.2114
                                                                        46.0004
        29.7504
 -13395151.76248 -10421796.60546
                  21693178.9454                                   21693174.6414
                                                                        50.5004
        40.2504
 -17782759.34047 -13794425.23045
                  21470953.6024                                   21470949.0554
                                                                        47.7504
        35.5004
 -15461360.35248 -12006303.20346
                  22050863.9614                                   22050860.5664
                                                                        49.5004
        38.0004
 -18410293.28948 -14329280.39146
                  21055484.6724                                   21055480.9024
                                                                        50.0004
        40.0004
   1143378.81647    926098.89543
                  23936080.5394                                   23936073.8164
                                                                        42.7504
        22.0004
   6560519.98447   5145815.68443
                  23874724.9534                                   23874720.1604
                                                                        42.7504
        23.5004
   7131214.46947   5596956.43044
                  23874201.0704                                   23874196.8914
                                                                        43.5004
        28.0004
  -4546615.62947  -3483223.62144
                  22759952.8914                                   22759949.1294
                                                                        45.0004
        29.7504
 09 10  8  1 12  0.0000000  0 10G02G04G05G13G29G10G23G16G07G25
 -13457611.75448 -10432431.45346
                  20878380.7114                                   20878374.6724
                                                                        51.2504
        41.5004
   5306412.62147   4164367.96144
                  23306597.4384                                   23306594.6644
                                                                        45.7504
        29.7504
 -13563057.35948 -10552632.12546
                  21661227.3204                                   21661222.9804
                                                                        51.5004
        40.0004
 -17827103.85548 -13828979.41045
                  21462515.3444                                   21462510.8554
                                                                        48.2504
        35.0004
 -15575220.72348 -12095025.55946
                  22029197.1484                                   22029193.2194
                                                                        49.7504
        37.5004
 -18564411.49648 -14449372.50846
                  21026156.8524                                   21026153.0904
                                                                        49.5004
        40.2504
   1155842.07446    935810.56343
                  23938451.1484                                   23938445.4534
                                                                        40.7504
        20.0004
   6422359.42647   5038158.13743
                  23848434.2664                                   23848429.7194
                                                                        42.2504
        22.5004
   6951087.34847   5456597.75444
                  23839924.0944                                   23839920.1994
                                                                        43.7504
        28.5004
  -4679343.49647  -3586647.91844
                  22734695.8594                                   22734692.1094
                                                                        44.5004
        29.7504
 09 10  8  1 12 30.0000000  0 10G02G04G05G13G29G10G23G16G07G25
 -13492514.28948 -10459628.22747
                  20871739.1804                                   20871732.9144
                                                                        51.2504
        42.0004
   5324788.11347   4178686.48044
                  23310094.6884                                   23310091.1764
                                                                        46.0004
        29.7504
 -13730589.18448 -10683176.38746
                  21629346.8914                                   21629342.9654
                                                                        51.5004
        40.5004
 -17870863.47748 -13863077.82845
                  21454187.7814                                   21454183.8164
                                                                        48.5004
        35.2504
 -15688498.65648 -12183294.07846
                  22007641.1564                                   22007637.5634
                                                                        49.5004
        37.5004
 -18718062.12548 -14569100.26646
                  20996918.3914                                   20996914.0634
                                                                        51.2504
        40.2504
   1168561.76646    945722.01243
                  23940871.5234                                   23940865.7544
                                                                        40.5004
        20.5004
   6284726.77347   4930911.93043
                  23822243.4774                                   23822239.0984
                                                                        43.0004
        23.7504
   6771279.86347   5316487.90644
                  23805707.5944                                   23805703.6374
                                                                        44.2504
        28.5004
  -4811551.73047  -3689667.32844
                  22709537.6564                                   22709533.6724
                                                                        45.0004
        29.7504
 09 10  8  1 13  0.0000000  0 10G02G04G05G13G29G10G23G16G07G25
 -13526905.52348 -10486426.64146
                  20865194.6564                                   20865188.7154
                                                                        51.0004
        41.2504
   5343354.78547   4193153.93044
                  23313627.3444                                   23313624.7974
                                                                        45.5004
        29.7504
 -13897745.96948 -10813428.42646
                  21597538.4144                                   21597534.4924
                                                                        51.2504
        40.5004
 -17914040.41048 -13896722.18745
                  21445971.9304                                   21445967.2934
                                                                        48.5004
        35.0004
 -15801194.02748 -12271108.64846
                  21986196.2424                                   21986192.4804
                                                                        49.7504
        38.2504
 -18871244.25448 -14688462.96146
                  20967768.3984                                   20967764.6764
                                                                        49.7504
        40.2504
   1181534.76647    955830.81343
                  23943340.2974                                   23943334.4694
                                                                        42.5004
        22.2504
   6147623.21147   4824078.00043
                  23796153.2504                                   23796148.9734
                                                                        42.7504
        23.0004
   6591793.69147   5176628.13344
                  23771552.9534                                   23771549.0084
                                                                        44.0004
        27.2504
  -4943239.39147  -3792281.10244
                  22684478.5554                                   22684474.3984
                                                                        45.5004
        29.2504
 09 10  8  1 13 30.0000000  0 10G02G04G05G13G29G10G23G16G07G25
 -13560785.94948 -10512826.96146
                  20858747.6724                                   20858741.7424
                                                                        51.5004
        41.5004
   5362111.37947   4207769.50445
                  23317196.6024                                   23317193.7854
                                                                        46.0004
        31.2504
 -14064525.57448 -10943386.56646
                  21565801.1334                                   21565796.9614
                                                                        52.0004
        41.0004
 -17956636.53148 -13929913.98045
                  21437865.9844                                   21437861.5004
                                                                        49.2504
        34.7504
 -15913305.28548 -12358468.05946
                  21964861.6884                                   21964858.4494
                                                                        50.7504
        37.7504
 -19023955.57048 -14807458.78946
                  20938708.3674                                   20938704.5274
                                                                        50.0004
        40.2504
   1194758.80547    966135.26244
                  23945857.3754                                   23945851.0744
                                                                        44.2504
        25.7504
   6011051.22347   4717658.30143
                  23770164.3204                                   23770159.6844
                                                                        42.5004
        22.2504
   6412633.91447   5037023.07444
                  23737460.4534                                   23737455.6604
                                                                        42.5004
        25.7504
  -5074404.30147  -3894487.50845
                  22659518.8984                                   22659514.5594
                                                                        46.2504
        30.5004
 09 10  8  1 14  0.0000000  0 10G02G04G05G13G29G10G23G16G07G25
 -13594159.76248 -10538832.51246
                  20852396.8054                                   20852390.7464
                                                                        52.0004
        41.7504
   5381052.94947   4222529.09045
                  23320801.0864                                   23320798.3634
                                                                        45.5004
        30.0004
 -14230928.57848 -11073051.24646
                  21534136.0084                                   21534131.6254
                                                                        51.5004
        40.5004
 -17998655.39148 -13962655.94145
                  21429870.0944                                   21429865.4104
                                                                        49.5004
        34.7504
 -16024834.09048 -12445373.61746
                  21943638.5554                                   21943634.7734
                                                                        49.5004
        38.2504
 -19176197.31648 -14926088.73046
                  20909738.0704                                   20909734.4884
                                                                        50.2504
        40.0004
   1208228.67247    976631.25843
                  23948420.6174                                   23948414.5204
                                                                        43.5004
        23.7504
   5875009.82846   4611652.02343
                  23744277.0704                                   23744271.4344
                                                                        41.0004
        21.2504
   6233800.16846   4897671.99244
                  23703429.2344                                   23703424.4454
                                                                        41.2504
        25.5004
  -5205047.52347  -3996287.43045
                  22634658.2814                                   22634653.8874
                                                                        46.0004
        30.0004
 09 10  8  1 14 30.0000000  0 10G02G04G05G13G29G10G23G16G07G25
 -13627028.47348 -10564444.45746
                  20846141.8364                                   20846135.9654
                                                                        51.2504
        40.7504
   5400177.63347   4237431.68044
                  23324440.3754                                   23324437.5474
                                                                        46.2504
        29.7504
 -14396953.63348 -11202421.41846
                  21502542.0784                                   21502538.2304
                                                                        51.2504
        41.0004
 -18040099.41848 -13994949.99245
                  21421983.4614                                   21421979.4804
                                                                        49.2504
        34.5004
 -16135779.98048 -12531824.93446
                  21922526.2344                                   21922522.6134
                                                                        49.5004
        37.7504
 -19327968.06648 -15044351.65646
                  20880856.6644                                   20880853.1684
                                                                        49.5004
        40.0004
   1221941.41847    987316.52343
                  23951029.9454                                   23951023.4344
                                                                        44.2504
        23.5004
   5739500.49646   4506060.31343
                  23718490.0554                                   23718484.6994
                                                                        41.0004
        22.0004
   6055294.42646   4758576.35944
                  23669460.6024                                   23669456.9184
                                                                        40.5004
        27.0004
  -5335168.03147  -4097680.02344
                  22609896.7424                                   22609892.5084
                                                                        46.0004
        29.2504
 09 10  8  1 15  0.0000000  0 10G02G04G05G13G29G10G23G16G07G25
 -12083977.03948  -9362066.80946
                  21139775.2424                                   21139769.2154
                                                                        52.0004
        40.7504
   6994897.96547   5480071.02044
                  23627905.2034                                   23627902.3524
                                                                        46.2504
        29.2504
 -12987177.62548 -10103894.64846
                  21770813.8134                                   21770810.1684
                                                                        52.0004
        40.7504
 -16505553.25048 -12799199.73045
                  21713998.3594                                   21713993.6294
                                                                        49.5004
        35.0004
 -14670722.55148 -11390221.74246
                  22201317.2504                                   22201313.4734
                                                                        50.0004
        37.5004
 -17903845.53948 -13934645.77746
                  21151858.2894                                   21151854.5514
                                                                        50.0004
        40.5004
   2811310.05547   2225785.59443
                  24253476.7584                                   24253470.4804
                                                                        43.2504
        22.5004
   7179945.42246   5628484.94143
                  23992597.5084                                   23992592.0824
                                                                        41.0004
        20.7504
   7452540.85947   5847339.01644
                  23935348.6414                                   23935344.2194
                                                                        42.5004
        27.0004
  -3889343.93047  -2971063.82844
                  22885028.0234                                   22885023.5514
                                                                        46.0004
        28.7504
 09 10  8  1 15 30.0000000  0 10G02G04G05G13G29G10G23G16G07G25
 -12115846.43448  -9386900.23446
                  21133710.3984                                   21133704.4184
                                                                        51.0004
        41.5004
   7014375.31347   5495248.18044
                  23631611.8594                                   23631608.5044
                                                                        45.2504
        29.5004
 -13152447.95748 -10232676.72746
                  21739363.3594                                   21739359.6454
                                                                        51.7504
        41.0004
 -16545859.19948 -12830606.95745
                  21706327.7114                                   21706323.5084
                                                                        49.2504
        35.0004
 -14780506.08648 -11475767.34846
                  22180426.2664                                   22180422.6054
                                                                        49.5004
        37.5004
 -18054675.60948 -14052175.70346
                  21123156.4384                                   21123152.3164
                                                                        50.2504
        40.0004
   2825494.87947   2236838.69143
                  24256176.7894                                   24256169.8094
                                                                        42.0004
        21.5004
   7045499.12146   5523721.59043
                  23967013.7344                                   23967008.3204
                                                                        41.0004
        20.0004
   7274694.39147   5708756.79744
                  23901505.8914                                   23901502.2074
                                                                        42.0004
        27.5004
  -4018420.17247  -3071642.67645
                  22860465.7974                                   22860461.7934
                                                                        46.0004
        30.0004
 09 10  8  1 16  0.0000000  0 10G02G04G05G13G29G10G23G16G07G25
 -12147218.54348  -9411345.96546
                  21127740.6484                                   21127734.6334
                                                                        52.0004
        41.5004
   7034025.68047   5510560.18844
                  23635351.0474                                   23635348.0084
                                                                        45.5004
        29.2504
 -13317338.48448 -10361162.84046
                  21707985.8444                                   21707981.9264
                                                                        51.0004
        41.0004
 -16585599.71548 -12861573.59445
                  21698765.5704                                   21698761.2584
                                                                        49.5004
        34.7504
 -14889707.82048 -11560859.60246
                  22159645.7504                                   22159641.9184
                                                                        49.5004
        38.0004
 -18205033.89148 -14169338.00046
                  21094543.9454                                   21094540.1374
                                                                        50.5004
        41.0004
   2839910.94546   2248071.99243
                  24258919.6174                                   24258912.7344
                                                                        40.7504
        21.5004
   6911586.67246   5419374.25443
                  23941529.9384                                   23941524.9104
                                                                        41.7504
        21.2504
   7097180.52047   5570433.28944
                  23867727.1804                                   23867723.9104
                                                                        42.0004
        27.7504
  -4146972.55947  -3171813.25845
                  22836002.7504                                   22835999.0744
                                                                        45.5004
        30.0004
