     2.11           OBSERVATION DATA    G (GPS)             RINEX VERSION / TYPE
teqc  2019Feb25                         20221121 12:28:47UTCPGM / RUN BY / DATE
OSX ker:10.11.6|Core i5|gcc 4.3 -m64|OSX ker:10.10+|=+      COMMENT
BIT 2 OF LLI FLAGS DATA COLLECTED UNDER A/S CONDITION       COMMENT
04713001                                                    MARKER NAME
3001                                                        MARKER NUMBER
-Unknown-           -Unknown-                               OBSERVER / AGENCY
0220400471          TRIMBLE R7          2.30                REC # / TYPE / VERS
-Unknown-           TRM39105.00     NONE                    ANT # / TYPE
  1449458.4749 -1709242.9043  5952441.7246                  APPROX POSITION XYZ
        0.0000        0.0000        0.0000                  ANTENNA: DELTA H/E/N
     1     1                                                WAVELENGTH FACT L1/2
    20    L1    L2    L5    L6    L7    L8    C1    P1    C2# / TYPES OF OBSERV
          P2    C5    C6    C7    C8    S1    S2    S5    S6# / TYPES OF OBSERV
          S7    S8                                          # / TYPES OF OBSERV
    30.0000                                                 INTERVAL
    15                                                      LEAP SECONDS
Forced Modulo Decimation to 30 seconds                      COMMENT
 SNR is mapped to RINEX snr flag value [0-9]                COMMENT
  L1 & L2: min(max(int(snr_dBHz/6), 0), 9)                  COMMENT
teqc edited: Beidou # 1 - 37 excluded                       COMMENT
  2009    10    27    23    11   30.0000000     GPS         TIME OF FIRST OBS
                                                            END OF HEADER
 09 10 27 23 11 30.0000000  0  8G02G04G05G10G13G23G29G30
   -166598.18758   -117242.08657
                  20434476.8834                                   20434470.9964
                                                                        52.0004
        42.5004
    -21657.24658    -15772.41056
                  21994522.3524                                   21994518.6334
                                                                        48.0004
        36.0004
   -357564.72357   -231707.06255
                  22967299.5394                                   22967295.7424
                                                                        47.7504
        35.0004
   -357558.52757   -250476.09455
                  22059618.8284                                   22059615.3634
                                                                        46.0004
        35.5004
   -192069.00858   -135169.54756
                  21200549.8524                                   21200545.4064
                                                                        48.7504
        36.7504
    -50494.50857    -35989.12555
                  22620523.1094                                   22620516.0354
                                                                        45.5004
        30.2504
   -304852.09057   -215253.07055
                  22697819.3204                                   22697815.8054
                                                                        46.0004
        35.0004
     -4665.38357     -3533.24253
                  24158604.9064                                   24158601.5164
                                                                        43.7504
        23.7504
 09 10 27 23 12  0.0000000  0  8G02G04G05G10G13G23G29G30
   -256540.38348   -187326.85947
                  20417361.2734                                   20417355.7894
                                                                        52.5004
        43.2504
    -34138.93048    -25498.40646
                  21992146.9064                                   21992143.5634
                                                                        48.0004
        36.0004
   -558999.98448   -388669.62145
                  22928968.2504                                   22928963.6054
                                                                        48.0004
        35.2504
   -549587.96148   -400109.42646
                  22023077.3444                                   22023073.1764
                                                                        48.0004
        36.2504
   -295556.10548   -215808.80546
                  21180856.9304                                   21180852.2464
                                                                        49.5004
        36.7504
    -78309.70747    -57663.32045
                  22615229.8284                                   22615223.7154
                                                                        46.5004
        30.7504
   -469117.23647   -343251.88345
                  22666560.6644                                   22666556.7114
                                                                        46.0004
        34.5004
     -8092.48847     -6203.59043
                  24157952.0784                                   24157948.9804
                                                                        42.2504
        22.2504
 09 10 27 23 12 30.0000000  0  7G02G04G05G10G13G23G29
   -345584.18048   -256711.62547
                  20400416.8054                                   20400411.0704
                                                                        52.0004
        42.7504
    -45948.11748    -34700.37546
                  21989899.5394                                   21989896.6684
                                                                        49.0004
        36.0004
   -759870.04747   -545191.76245
                  22890743.2194                                   22890739.7774
                                                                        47.7504
        34.5004
   -740941.98448   -549216.50846
                  21986663.6024                                   21986659.7934
                                                                        48.7504
        36.7504
   -398059.27048   -295681.36746
                  21161351.3054                                   21161346.7774
                                                                        50.0004
        36.7504
   -105336.39147    -78723.08645
                  22610086.8834                                   22610080.7074
                                                                        45.7504
        30.2504
   -632588.32047   -470631.93445
                  22635452.7664                                   22635449.1134
                                                                        46.0004
        34.0004
 09 10 27 23 13  0.0000000  0  7G02G04G05G10G13G23G29
   -433593.74248   -325290.53547
                  20383669.1724                                   20383663.1414
                                                                        51.7504
        42.7504
    -56951.21548    -43274.22745
                  21987806.1024                                   21987802.6254
                                                                        49.0004
        35.7504
   -960036.84847   -701165.96545
                  22852652.5864                                   22852649.0864
                                                                        47.2504
        35.5004
   -931482.19148   -697689.37146
                  21950404.9224                                   21950401.4144
                                                                        48.0004
        37.0004
   -499443.14548   -374681.77046
                  21142058.2584                                   21142053.7114
                                                                        50.0004
        37.0004
   -131441.54347    -99064.74645
                  22605119.0394                                   22605112.5904
                                                                        45.7504
        30.0004
   -795127.27047   -597285.64545
                  22604523.0314                                   22604519.0984
                                                                        45.7504
        33.5004
 09 10 27 23 13 30.0000000  0  7G02G04G05G10G13G23G29
   -520513.64848   -393020.31247
                  20367128.7194                                   20367122.6764
                                                                        53.0004
        43.0004
    -67094.31248    -51177.94546
                  21985875.5554                                   21985871.8794
                                                                        49.7504
        36.0004
  -1159443.73848   -856547.97745
                  22814707.0234                                   22814703.3364
                                                                        48.2504
        35.2504
  -1121151.84048   -845483.89146
                  21914312.0394                                   21914308.7704
                                                                        49.0004
        37.0004
   -599651.66848   -452766.30946
                  21122989.6414                                   21122985.1994
                                                                        49.5004
        37.2504
   -156571.56247   -118646.59844
                  22600336.4534                                   22600330.4104
                                                                        46.2504
        29.2504
   -956677.50847   -723168.94145
                  22573780.8364                                   22573777.1884
                                                                        46.2504
        34.5004
 09 10 27 23 14  0.0000000  0  7G02G04G05G10G13G23G29
   -606332.20348   -459891.92647
                  20350798.0004                                   20350791.8094
                                                                        52.2504
        42.5004
    -76367.90248    -58404.10545
                  21984111.0784                                   21984107.8554
                                                                        49.5004
        35.7504
  -1358076.01248  -1011326.45745
                  22776908.5234                                   22776905.1294
                                                                        49.0004
        35.7504
  -1309936.72348   -992589.00046
                  21878387.3834                                   21878383.7544
                                                                        49.0004
        36.2504
   -698673.78548   -529926.39546
                  21104145.9144                                   21104141.5944
                                                                        50.7504
        37.0004
   -180717.46947   -137461.62944
                  22595741.7034                                   22595735.5904
                                                                        46.2504
        28.5004
  -1117223.91047   -848270.02745
                  22543229.9304                                   22543226.3244
                                                                        46.2504
        35.2504
 09 10 27 23 14 30.0000000  0  7G02G04G05G10G13G23G29
   -691060.39848   -525913.87947
                  20334674.6174                                   20334668.9414
                                                                        52.0004
        42.5004
    -84784.55148    -64962.53945
                  21982509.4224                                   21982506.2384
                                                                        48.0004
        35.0004
  -1555942.79748  -1165508.34446
                  22739256.0164                                   22739252.1604
                                                                        48.7504
        36.2504
  -1497845.25048  -1139011.19146
                  21842629.6024                                   21842626.1454
                                                                        48.5004
        36.5004
   -796519.93748   -606170.18746
                  21085526.3914                                   21085521.8364
                                                                        49.7504
        36.7504
   -203891.80547   -155519.56244
                  22591332.9384                                   22591325.8914
                                                                        45.5004
        29.5004
  -1276775.77747   -972596.16045
                  22512868.3054                                   22512864.7974
                                                                        46.7504
        35.5004
 09 10 27 23 15  0.0000000  0  7G02G04G05G10G13G23G29
   -774715.96148   -591100.07047
                  20318755.4454                                   20318749.6804
                                                                        53.5004
        43.0004
    -92364.44947    -70869.00845
                  21981066.7894                                   21981063.7194
                                                                        47.7504
        35.7504
  -1753059.72348  -1319105.98046
                  22701746.5004                                   22701742.0274
                                                                        49.2504
        36.0004
  -1684893.42248  -1284763.01646
                  21807034.9614                                   21807032.0314
                                                                        48.5004
        36.5004
   -893208.02748   -681511.56246
                  21067127.1804                                   21067123.0514
                                                                        49.2504
        36.2504
   -226115.06647   -172836.40644
                  22587103.0164                                   22587096.8954
                                                                        47.0004
        29.5004
  -1435348.60947  -1096159.40246
                  22482693.2584                                   22482689.5594
                                                                        46.0004
        36.2504
 09 10 27 23 15 30.0000000  0  7G02G04G05G10G13G23G29
    718100.97748    572133.89147
                  20602829.0084                                   20602823.1994
                                                                        52.7504
        42.7504
   1476288.23448   1151457.75045
                  22279571.6644                                   22279568.5514
                                                                        48.5004
        35.2504
   -374021.30148   -244530.59845
                  22964168.2274                                   22964164.6174
                                                                        49.0004
        35.5004
   -295675.41848   -202255.46946
                  22071394.6254                                   22071391.6094
                                                                        49.0004
        37.0004
    586662.35948    471634.20746
                  21348737.3594                                   21348732.8484
                                                                        48.7504
        36.7504
   1328008.39547   1038168.90244
                  22882842.9844                                   22882836.6454
                                                                        46.0004
        29.0004
    -17537.91047      8628.17646
                  22752493.1724                                   22752490.1414
                                                                        45.7504
        36.5004
 09 10 27 23 16  0.0000000  0  7G02G04G05G10G13G23G29
    636516.69548    508561.69547
                  20587304.3914                                   20587298.3094
                                                                        52.7504
        43.0004
   1470302.47348   1146793.52345
                  22278433.0314                                   22278429.4694
                                                                        48.0004
        34.7504
   -569706.12548   -397012.21146
                  22926930.5474                                   22926926.7704
                                                                        48.7504
        36.0004
   -481069.70748   -346718.54746
                  22036115.5704                                   22036112.3834
                                                                        49.2504
        37.2504
    492216.39148    398039.93846
                  21330764.7034                                   21330760.5514
                                                                        49.7504
        36.5004
   1307606.77347   1022271.52744
                  22878961.0704                                   22878954.4264
                                                                        46.7504
        28.7504
   -174219.54747   -113461.39546
                  22722677.4224                                   22722674.4104
                                                                        47.0004
        36.2504
 09 10 27 23 16 30.0000000  0  7G02G04G05G10G13G23G29
    555932.42648    445768.74647
                  20571969.6564                                   20571963.8324
                                                                        52.5004
        42.5004
   1465075.35248   1142720.43045
                  22277437.7424                                   22277434.3364
                                                                        48.0004
        35.0004
   -764708.36348   -548962.02045
                  22889822.4694                                   22889819.4734
                                                                        48.5004
        35.7504
   -665670.12948   -490563.04746
                  22000986.9304                                   22000983.5744
                                                                        48.2504
        37.5004
    398855.73048    325291.35246
                  21312999.2114                                   21312994.6724
                                                                        48.7504
        36.5004
   1288077.07447   1007053.61344
                  22875244.6254                                   22875237.6134
                                                                        46.5004
        29.0004
   -329989.25047   -234840.36745
                  22693035.6094                                   22693032.3094
                                                                        46.7504
        35.7504
 09 10 27 23 17  0.0000000  0  7G02G04G05G10G13G23G29
    476327.21148    383738.70347
                  20556821.0084                                   20556815.3874
                                                                        52.5004
        42.5004
   1460583.73848   1139220.42245
                  22276583.2504                                   22276579.9734
                                                                        48.2504
        35.5004
   -959045.55548   -700393.62146
                  22852841.9064                                   22852838.3674
                                                                        49.5004
        36.2504
   -849494.80947   -633803.09446
                  21966006.4614                                   21966003.3134
                                                                        47.7504
        36.7504
    306559.19148    253371.95346
                  21295435.3984                                   21295430.9104
                                                                        49.0004
        36.5004
   1269395.86747    992496.82444
                  22871689.2034                                   22871683.1414
                                                                        44.5004
        28.5004
   -484864.25047   -355522.16845
                  22663563.6334                                   22663560.4694
                                                                        46.5004
        35.7504
 09 10 27 23 17 30.0000000  0  7G02G04G05G10G13G23G29
    397680.83248    322455.82447
                  20541855.0704                                   20541849.7274
                                                                        52.5004
        42.2504
   1456806.04748   1136276.74645
                  22275864.4774                                   22275861.2384
                                                                        48.0004
        34.5004
  -1152736.53148   -851321.67246
                  22815983.5634                                   22815980.1764
                                                                        49.5004
        36.5004
  -1032561.97348   -776452.84846
                  21931170.0314                                   21931166.6564
                                                                        48.7504
        37.2504
    215306.84848    182266.23445
                  21278070.6804                                   21278066.7504
                                                                        48.5004
        35.7504
   1251540.79347    978583.77744
                  22868291.1804                                   22868285.1374
                                                                        44.5004
        29.2504
   -638863.53547   -475521.58646
                  22634258.6484                                   22634255.1524
                                                                        46.0004
        36.2504
 09 10 27 23 18  0.0000000  0  7G02G04G05G10G13G23G29
    319977.46548    261907.80947
                  20527068.7274                                   20527063.0354
                                                                        52.0004
        42.2504
   1453723.82448   1133874.98445
                  22275277.7424                                   22275274.7274
                                                                        49.0004
        35.5004
  -1345794.50448  -1001756.47346
                  22779245.8444                                   22779242.4454
                                                                        49.0004
        36.5004
  -1214884.95748   -918522.70746
                  21896475.0394                                   21896471.4964
                                                                        48.2504
        37.0004
    125082.26248    111961.37146
                  21260901.2194                                   21260897.3284
                                                                        49.2504
        36.2504
   1234493.29347    965300.02744
                  22865047.2974                                   22865041.5514
                                                                        45.2504
        28.5004
   -791999.64547   -594848.41045
                  22605117.7344                                   22605114.6994
                                                                        47.0004
        35.0004
 09 10 27 23 18 30.0000000  0  7G02G04G05G10G13G23G29
    243199.09848    202080.51647
                  20512458.1644                                   20512452.1214
                                                                        51.7504
        42.7504
   1451318.39847   1132000.60945
                  22274819.7114                                   22274816.9534
                                                                        47.7504
        34.5004
  -1538236.09448  -1151710.93746
                  22742625.5234                                   22742622.2584
                                                                        49.0004
        36.7504
  -1396480.23848  -1060025.53546
                  21861918.5314                                   21861915.0634
                                                                        49.2504
        37.2504
     35868.45748     42444.13346
                  21243925.1644                                   21243920.4804
                                                                        48.5004
        36.2504
   1218234.22347    952630.66444
                  22861953.8984                                   22861947.5514
                                                                        46.2504
        29.7504
   -944290.05547   -713516.25045
                  22576138.1414                                   22576134.4384
                                                                        47.0004
        35.5004
 09 10 27 23 19  0.0000000  0  7G02G04G05G10G13G23G29
    167328.49648    142960.55147
                  20498020.6484                                   20498014.7974
                                                                        52.7504
        42.7504
   1449569.55147   1130637.85945
                  22274487.4844                                   22274483.9964
                                                                        47.7504
        34.5004
  -1730074.38748  -1301195.28546
                  22706119.7974                                   22706115.8444
                                                                        48.5004
        36.0004
  -1577360.82048  -1200971.34046
                  21827498.1094                                   21827494.7544
                                                                        48.7504
        37.0004
    -52353.24248    -26300.06646
                  21227136.6484                                   21227132.0434
                                                                        48.5004
        36.0004
   1202743.28547    940559.82845
                  22859005.9534                                   22858999.7704
                                                                        46.5004
        30.0004
  -1095747.18047   -831534.79745
                  22547316.9774                                   22547312.9734
                                                                        47.5004
        35.2504
 09 10 27 23 19 30.0000000  0  7G02G04G05G10G13G23G29
     92352.28948     84537.53947
                  20483753.2734                                   20483747.4064
                                                                        52.7504
        43.2504
   1448463.30948   1129775.85245
                  22274277.0234                                   22274273.6564
                                                                        48.0004
        34.2504
  -1921322.47347  -1450219.73845
                  22669726.4924                                   22669722.6484
                                                                        47.7504
        35.7504
  -1757539.71548  -1341370.44546
                  21793211.2814                                   21793207.9414
                                                                        48.5004
        37.0004
   -139594.83248    -94280.50046
                  21210535.1724                                   21210530.8364
                                                                        49.5004
        36.2504
   1188005.44947    929075.80545
                  22856201.5474                                   22856195.3284
                                                                        46.2504
        30.2504
  -1246385.05148   -948915.01645
                  22518650.9614                                   22518647.6644
                                                                        48.2504
        35.2504
 09 10 27 23 20  0.0000000  0  7G02G04G05G10G13G23G29
     18257.66848     26801.46547
                  20469653.5864                                   20469647.5274
                                                                        52.2504
        42.2504
   1447983.96948   1129402.35245
                  22274185.5944                                   22274182.7194
                                                                        48.5004
        35.5004
  -2111989.88748  -1598791.74646
                  22633443.5314                                   22633439.8404
                                                                        48.0004
        36.2504
  -1937026.54348  -1481230.28146
                  21759055.9844                                   21759052.4844
                                                                        48.7504
        37.2504
   -225870.63748   -161508.39846
                  21194117.6954                                   21194113.2814
                                                                        49.7504
        36.0004
   1174005.55547    918166.81644
                  22853537.1564                                   22853530.9494
                                                                        46.5004
        29.2504
  -1396211.91448  -1065663.25045
                  22490140.1884                                   22490136.5944
                                                                        48.2504
        35.0004
 09 10 27 23 20 30.0000000  0  7G02G04G05G10G13G23G29
    -54969.38348    -30258.59847
                  20455718.7424                                   20455712.6334
                                                                        53.0004
        42.5004
   1448116.48448   1129505.58645
                  22274211.0164                                   22274208.1294
                                                                        48.5004
        34.2504
  -2302088.94548  -1746920.91846
                  22597268.8834                                   22597265.4614
                                                                        48.0004
        36.7504
  -2115833.45748  -1620560.37946
                  21725029.8594                                   21725026.3714
                                                                        49.5004
        36.7504
   -311193.57048   -227993.78546
                  21177880.7734                                   21177876.7304
                                                                        49.7504
        36.5004
   1160727.49647    907820.26644
                  22851010.2584                                   22851004.2384
                                                                        45.2504
        28.0004
  -1545240.99248  -1181789.81246
                  22461781.1254                                   22461777.3674
                                                                        48.5004
        36.5004
 09 10 27 23 21  0.0000000  0  7G02G04G05G10G13G23G29
   -127341.85948    -86652.75447
                  20441946.8364                                   20441940.8914
                                                                        52.0004
        42.7504
   1448845.39548   1130073.53545
                  22274349.7114                                   22274346.3014
                                                                        48.2504
        34.2504
  -2491630.06247  -1894615.30946
                  22561200.7424                                   22561196.7854
                                                                        47.5004
        36.7504
  -2293970.91848  -1759368.84446
                  21691131.7114                                   21691128.5904
                                                                        49.2504
        38.0004
   -395577.55948   -293747.53546
                  21161823.0554                                   21161819.1604
                                                                        50.2504
        36.2504
   1148155.82847    898024.17644
                  22848617.9144                                   22848611.3554
                                                                        45.2504
        28.0004
  -1693482.41448  -1297302.60946
                  22433571.5554                                   22433567.7424
                                                                        48.7504
        36.0004
 09 10 27 23 21 30.0000000  0  7G02G04G05G10G13G23G29
   -198870.47348   -142389.31647
                  20428335.1024                                   20428329.7704
                                                                        52.5004
        42.7504
   1450158.78148   1131096.94145
                  22274599.5234                                   22274596.5664
                                                                        48.2504
        33.5004
  -2680621.82848  -2041881.60546
                  22525236.7504                                   22525233.2304
                                                                        48.7504
        37.2504
  -2471446.98848  -1897661.87946
                  21657359.3054                                   21657355.8554
                                                                        49.0004
        37.7504
   -479033.08248   -358777.81246
                  21145942.1644                                   21145938.2424
                                                                        50.2504
        36.5004
   1136277.87547    888768.64544
                  22846357.5944                                   22846351.0904
                                                                        44.5004
        27.2504
  -1840944.73448  -1412208.32446
                  22405510.5164                                   22405507.2624
                                                                        48.0004
        36.2504
 09 10 27 23 22  0.0000000  0  7G02G04G05G10G13G23G29
   -269567.52748   -197477.89847
                  20414882.1804                                   20414876.3484
                                                                        52.0004
        42.7504
   1452042.20347   1132564.51645
                  22274958.0784                                   22274955.2424
                                                                        47.2504
        34.2504
  -2869073.80147  -2188727.27346
                  22489375.3754                                   22489371.5904
                                                                        47.5004
        37.2504
  -2648272.03148  -2035447.64846
                  21623710.6644                                   21623706.9224
                                                                        49.5004
        37.0004
   -561572.74648   -423094.44146
                  21130235.6024                                   21130231.2234
                                                                        51.0004
        36.5004
   1125078.94547    880042.19944
                  22844225.7734                                   22844219.9884
                                                                        44.5004
        26.5004
  -1987637.77047  -1526514.58246
                  22377595.5554                                   22377592.1604
                                                                        47.5004
        36.5004
 09 10 27 23 22 30.0000000  0  7G02G04G05G10G13G23G29
   -339443.66048   -251926.81247
                  20401585.0864                                   20401579.5124
                                                                        51.7504
        42.5004
   1454484.07447   1134467.25445
                  22275422.6094                                   22275419.3794
                                                                        47.5004
        34.0004
  -3056995.18447  -2335159.52346
                  22453615.0554                                   22453611.6804
                                                                        47.2504
        37.2504
  -2824454.21148  -2172732.50846
                  21590184.1954                                   21590180.9304
                                                                        49.5004
        37.7504
   -643206.80548   -486705.41046
                  21114700.7424                                   21114696.7624
                                                                        50.5004
        36.7504
   1114547.00447    871835.50444
                  22842222.7194                                   22842216.1724
                                                                        45.5004
        27.5004
  -2133570.80148  -1640228.65646
                  22349825.7894                                   22349822.0314
                                                                        48.0004
        36.2504
 09 10 27 23 23  0.0000000  0  7G02G04G05G10G13G23G29
   -408508.48448   -305743.55147
                  20388442.2894                                   20388437.0514
                                                                        51.7504
        43.0004
   1457472.03947   1136795.51645
                  22275991.1414                                   22275987.6374
                                                                        47.7504
        33.7504
  -3244392.10947  -2481183.06646
                  22417954.6174                                   22417951.0234
                                                                        47.5004
        37.5004
  -3000000.69148  -2309521.93046
                  21556778.6094                                   21556775.7114
                                                                        49.7504
        38.2504
   -723945.88748   -549618.97346
                  21099336.6564                                   21099332.3324
                                                                        51.0004
        36.5004
   1104669.94947    864139.08644
                  22840343.3834                                   22840336.4614
                                                                        44.5004
        28.5004
  -2278749.52348  -1753354.93046
                  22322198.5164                                   22322195.5044
                                                                        48.0004
        36.2504
 09 10 27 23 23 30.0000000  0  7G02G04G05G10G13G23G29
   -476773.27748   -358936.94947
                  20375452.0474                                   20375446.6564
                                                                        52.0004
        42.2504
   1460994.48447   1139540.26245
                  22276661.5314                                   22276658.6024
                                                                        46.7504
        34.0004
  -3431274.01247  -2626805.30146
                  22382391.9534                                   22382388.5084
                                                                        47.5004
        36.7504
  -3174920.50848  -2445823.04746
                  21523492.3364                                   21523489.4304
                                                                        50.5004
        38.2504
   -803800.44948   -611843.35246
                  21084141.2194                                   21084136.7504
                                                                        51.0004
        36.2504
   1095434.16847    856942.36344
                  22838585.3524                                   22838579.3714
                                                                        44.7504
        28.7504
  -2423184.34848  -1865901.53546
                  22294713.7584                                   22294710.3714
                                                                        48.0004
        36.5004
 09 10 27 23 24  0.0000000  0  7G02G04G05G10G13G23G29
   1031176.37948    816088.77347
                  20662405.3834                                   20662399.6294
                                                                        52.5004
        42.7504
   3040461.12947   2370293.48045
                  22577224.0084                                   22577220.8444
                                                                        47.7504
        34.5004
  -2042220.50847  -1544425.88746
                  22646720.0004                                   22646716.7624
                                                                        47.5004
        37.2504
  -1773793.05948  -1354035.42246
                  21790118.3444                                   21790114.8714
                                                                        50.0004
        37.7504
    692643.94548    554217.13746
                  21368905.2034                                   21368900.7384
                                                                        50.0004
        36.5004
   2662250.23847   2077838.01644
                  23136741.1954                                   23136734.8834
                                                                        44.5004
        29.5004
   -991456.12247   -750269.14845
                  22567162.4924                                   22567159.6094
                                                                        47.2504
        35.7504
 09 10 27 23 24 30.0000000  0  7G02G04G05G10G13G23G29
    964487.18848    764123.21147
                  20649714.8134                                   20649709.1484
                                                                        52.2504
        42.0004
   3045021.34047   2373846.87545
                  22578091.7894                                   22578089.1134
                                                                        47.5004
        35.2504
  -2228089.09048  -1689258.49646
                  22611350.8524                                   22611347.2344
                                                                        48.5004
        36.7504
  -1947476.05948  -1489372.80146
                  21757067.8054                                   21757064.1414
                                                                        49.5004
        38.5004
    614532.55948    493351.12545
                  21354040.8054                                   21354036.5084
                                                                        51.0004
        35.7504
   2654266.59447   2071616.98044
                  23135220.9614                                   23135215.3014
                                                                        44.0004
        28.5004
  -1134419.47347   -861669.15645
                  22539957.5164                                   22539954.0314
                                                                        46.2504
        35.5004
 09 10 27 23 25  0.0000000  0  7G02G04G05G10G13G23G29
    898573.83248    712762.18447
                  20637171.9144                                   20637166.0514
                                                                        52.7504
        42.5004
   3050086.49247   2377793.71945
                  22579055.6884                                   22579052.6994
                                                                        46.2504
        33.7504
  -2413460.38748  -1833703.63346
                  22576076.0004                                   22576071.6914
                                                                        49.0004
        37.7504
  -2120549.78948  -1624235.43046
                  21724132.9614                                   21724129.2974
                                                                        49.7504
        38.5004
    537280.44948    433154.66846
                  21339340.4774                                   21339335.9384
                                                                        50.5004
        36.2504
   2646894.21947   2065872.24244
                  23133817.8674                                   23133812.4414
                                                                        43.0004
        28.0004
  -1276656.52048   -972503.21545
                  22512890.8134                                   22512887.2584
                                                                        48.0004
        35.5004
 09 10 27 23 25 30.0000000  0  7G02G04G05G10G13G23G29
    833425.26648    661997.09047
                  20624774.3204                                   20624769.0864
                                                                        52.7504
        42.0004
   3055643.65647   2382123.95745
                  22580113.1174                                   22580110.0084
                                                                        46.7504
        33.0004
  -2598342.13348  -1977767.27746
                  22540893.3754                                   22540890.2704
                                                                        49.0004
        37.2504
  -2293022.12148  -1758629.43746
                  21691312.4454                                   21691308.8794
                                                                        50.0004
        38.5004
    460876.89148    373619.41846
                  21324801.0394                                   21324796.9654
                                                                        49.7504
        36.5004
   2640119.67647   2060593.36344
                  23132529.2344                                   23132522.9734
                                                                        42.2504
        27.5004
  -1418175.48448  -1082777.71946
                  22485960.6564                                   22485956.8364
                                                                        48.0004
        36.0004
 09 10 27 23 26  0.0000000  0  7G02G04G05G10G13G23G29
    769034.00848    611822.09047
                  20612521.1724                                   20612515.7234
                                                                        52.5004
        42.0004
   3061683.60547   2386830.39845
                  22581262.6334                                   22581259.2114
                                                                        45.7504
        33.0004
  -2782739.48048  -2121453.48846
                  22505803.7344                                   22505800.0704
                                                                        49.2504
        38.2504
  -2464898.23048  -1892558.89146
                  21658605.5084                                   21658601.9414
                                                                        50.0004
        38.5004
    385313.77748    314739.05946
                  21310421.9384                                   21310417.6914
                                                                        50.2504
        36.5004
   2633933.78547   2055773.19144
                  23131351.5474                                   23131345.9224
                                                                        42.0004
        26.7504
  -1558981.19148  -1192496.43446
                  22459166.0234                                   22459162.7384
                                                                        48.0004
        36.5004
 09 10 27 23 26 30.0000000  0  7G02G04G05G10G13G23G29
    705389.91448    562229.34047
                  20600410.3054                                   20600404.3634
                                                                        52.2504
        42.5004
   3068194.50047   2391903.83645
                  22582501.4774                                   22582498.2304
                                                                        47.2504
        33.2504
  -2966660.05148  -2264768.20746
                  22470805.0164                                   22470801.8954
                                                                        49.0004
        38.2504
  -2636185.98048  -2026029.81646
                  21626010.3834                                   21626006.9344
                                                                        50.5004
        38.5004
    310580.73048    256505.49646
                  21296200.6174                                   21296196.4654
                                                                        50.2504
        36.2504
   2628323.97747   2051401.90644
                  23130284.7664                                   23130278.4534
                                                                        43.7504
        27.5004
  -1699081.42248  -1301665.43446
                  22432505.8444                                   22432502.3324
                                                                        49.0004
        37.0004
 09 10 27 23 27  0.0000000  0  7G02G04G05G10G13G23G29
    642487.27748    513214.30147
                  20588440.4454                                   20588434.5394
                                                                        51.7504
        42.0004
   3075169.68447   2397339.03145
                  22583828.7814                                   22583825.6254
                                                                        45.7504
        33.5004
  -3150107.21148  -2407714.01646
                  22435895.8364                                   22435892.7704
                                                                        48.0004
        37.7504
  -2806888.35948  -2159044.62146
                  21593526.7814                                   21593523.4064
                                                                        50.0004
        39.0004
    236672.16048    198914.36745
                  21282136.4224                                   21282132.1484
                                                                        50.5004
        35.5004
   2623283.08247   2047473.94144
                  23129325.7194                                   23129319.1684
                                                                        43.0004
        27.2504
  -1838480.11347  -1410287.80146
                  22405979.3204                                   22405975.5514
                                                                        47.7504
        36.5004
 09 10 27 23 27 30.0000000  0  7G02G04G05G10G13G23G29
    580319.19148    464771.62947
                  20576609.9774                                   20576604.0084
                                                                        51.5004
        42.5004
   3082600.55547   2403129.34045
                  22585242.7664                                   22585239.9774
                                                                        47.0004
        32.5004
  -3333085.65248  -2550294.58646
                  22401076.5704                                   22401073.0124
                                                                        48.0004
        38.2504
  -2977010.00448  -2291606.91046
                  21561153.5164                                   21561150.0044
                                                                        49.5004
        38.7504
    163580.77348    141960.04745
                  21268227.3444                                   21268223.1994
                                                                        49.5004
        35.5004
   2618801.48447   2043981.82044
                  23128472.5314                                   23128466.2854
                                                                        42.5004
        27.2504
  -1977181.99648  -1518367.17646
                  22379585.1024                                   22379581.6214
                                                                        48.7504
        37.0004
 09 10 27 23 28  0.0000000  0  7G02G04G05G10G13G23G29
    518881.05148    416897.76647
                  20564918.9144                                   20564912.9924
                                                                        51.7504
        43.0004
   3090480.33247   2409269.41045
                  22586742.6414                                   22586739.2584
                                                                        46.5004
        33.7504
  -3515596.95348  -2692511.16446
                  22366346.1024                                   22366341.8874
                                                                        49.0004
        37.5004
  -3146552.64148  -2423718.03146
                  21528890.3754                                   21528887.2774
                                                                        49.5004
        38.2504
     91302.00048     85638.94545
                  21254473.4224                                   21254469.2504
                                                                        50.7504
        35.7504
   2614873.22347   2040920.83244
                  23127725.1334                                   23127718.6954
                                                                        43.0004
        26.5004
  -2115188.63748  -1625904.82046
                  22353323.3524                                   22353319.6094
                                                                        48.0004
        36.5004
 09 10 27 23 28 30.0000000  0  7G02G04G05G10G13G23G29
    458163.96148    369585.78147
                  20553364.5634                                   20553358.8524
                                                                        51.5004
        42.5004
   3098799.16447   2415751.63745
                  22588325.6094                                   22588322.5204
                                                                        46.5004
        33.2504
  -3697647.70348  -2834368.89846
                  22331703.1174                                   22331698.6844
                                                                        48.0004
        37.7504
  -3315522.93048  -2555383.19946
                  21496736.8444                                   21496733.1334
                                                                        50.0004
        38.5004
     19826.51648     29943.77346
                  21240871.7034                                   21240868.1484
                                                                        50.0004
        36.0004
   2611487.08247   2038282.28144
                  23127080.7504                                   23127074.7274
                                                                        44.0004
        26.2504
  -2252507.25848  -1732906.34046
                  22327192.4384                                   22327188.7734
                                                                        48.5004
        36.5004
 09 10 27 23 29  0.0000000  0  7G02G04G05G10G13G23G29
    398162.69148    322831.57447
                  20541946.7034                                   20541941.1724
                                                                        52.0004
        42.2504
   3107550.49247   2422570.83745
                  22589990.7114                                   22589987.5234
                                                                        47.0004
        32.7504
  -3879240.71948  -2975869.95746
                  22297146.6484                                   22297142.6134
                                                                        48.5004
        38.2504
  -3483923.89848  -2686604.71946
                  21464691.1174                                   21464687.7344
                                                                        50.0004
        38.5004
    -50850.98448    -25129.59045
                  21227422.5164                                   21227418.2304
                                                                        50.2504
        35.2504
   2608636.20347   2036060.79744
                  23126538.0164                                   23126532.4694
                                                                        43.7504
        27.7504
  -2389140.30548  -1839373.64546
                  22301191.8754                                   22301188.3754
                                                                        49.0004
        37.2504
 09 10 27 23 29 30.0000000  0  7G02G04G05G10G13G23G29
    338871.05548    276630.31647
                  20530663.9304                                   20530658.3244
                                                                        51.2504
        42.0004
   3116726.25447   2429720.78545
                  22591736.5314                                   22591733.5084
                                                                        46.5004
        32.5004
  -4060379.27347  -3117016.88746
                  22262677.1094                                   22262673.4454
                                                                        47.7504
        38.2504
  -3651758.85248  -2817385.20746
                  21432753.0164                                   21432749.8364
                                                                        50.0004
        38.5004
   -120737.11348    -79586.30945
                  21214123.7504                                   21214119.4454
                                                                        50.5004
        35.7504
   2606312.12947   2034249.82444
                  23126095.7274                                   23126090.2074
                                                                        43.0004
        26.5004
  -2525092.07048  -1945310.06646
                  22275320.9614                                   22275317.8674
                                                                        49.0004
        37.0004
 09 10 27 23 30  0.0000000  0  8G02G04G05G10G13G23G29G16
    280282.39148    230976.82447
                  20519514.6414                                   20519509.2854
                                                                        52.0004
        42.2504
   3126318.71147   2437195.42245
                  22593562.2034                                   22593558.9924
                                                                        47.2504
        32.5004
  -4241067.77747  -3257813.10946
                  22228292.9694                                   22228289.4264
                                                                        47.5004
        38.2504
  -3819031.65248  -2947727.59846
                  21400922.0164                                   21400918.6414
                                                                        50.7504
        39.2504
   -189838.56248   -133431.59045
                  21200974.1174                                   21200969.6484
                                                                        50.7504
        35.5004
   2604507.02047   2032843.23844
                  23125752.2034                                   23125746.0314
                                                                        43.0004
        26.0004
  -2660366.32848  -2050718.57446
                  22249579.5084                                   22249576.0474
                                                                        48.7504
        36.0004
   2891755.36756   2287045.90253
                  24270650.6564                                   24270647.5824
                                                                        38.5004
        19.0004
 09 10 27 23 30 30.0000000  0  8G02G04G05G10G13G23G29G16
    222387.90648    185864.21147
                  20508497.6334                                   20508491.9384
                                                                        51.5004
        42.2504
   3136316.99647   2444986.28145
                  22595464.9144                                   22595462.1804
                                                                        46.7504
        32.5004
  -4421312.10248  -3398263.22746
                  22193993.7974                                   22193990.6844
                                                                        48.0004
        38.2504
  -3985749.04748  -3077637.23846
                  21369196.6174                                   21369193.2274
                                                                        50.7504
        39.5004
   -258164.40248   -186672.48045
                  21187971.9694                                   21187967.8444
                                                                        49.7504
        35.7504
   2603209.32047   2031832.07044
                  23125505.5784                                   23125498.7584
                                                                        43.7504
        27.0004
  -2794970.32448  -2155604.79346
                  22223964.8984                                   22223961.4844
                                                                        49.0004
        37.0004
   2734555.78146   2164552.74243
                  24240737.0004                                   24240733.4024
                                                                        38.0004
        20.2504
 09 10 27 23 31  0.0000000  0  8G02G04G05G10G13G23G29G16
    165180.31348    141286.87147
                  20497611.5314                                   20497605.8094
                                                                        51.7504
        42.0004
   3146712.87547   2453086.93045
                  22597442.8364                                   22597440.2194
                                                                        46.0004
        32.5004
  -4601117.50048  -3538371.34046
                  22159778.1484                                   22159774.7304
                                                                        48.5004
        39.0004
  -4151915.73848  -3207117.76646
                  21337576.2344                                   21337573.2234
                                                                        50.5004
        39.2504
   -325722.21548   -239314.90245
                  21175116.5314                                   21175112.0864
                                                                        49.7504
        35.5004
   2602409.56347   2031208.88744
                  23125353.3834                                   23125347.1294
                                                                        43.7504
        27.5004
  -2928908.66048  -2259972.32046
                  22198477.7894                                   22198474.4884
                                                                        49.0004
        36.5004
   2577933.15246   2042509.15243
                  24210933.3914                                   24210929.3244
                                                                        40.2504
        20.5004
 09 10 27 23 31 30.0000000  0  8G02G04G05G10G13G23G29G16
    108658.46948     97243.86347
                  20486856.0474                                   20486850.4104
                                                                        52.0004
        42.0004
   3157503.85247   2461495.48045
                  22599496.5234                                   22599493.6724
                                                                        47.5004
        31.7504
  -4780482.04748  -3678135.89846
                  22125646.0474                                   22125642.4344
                                                                        48.5004
        38.7504
  -4317530.20748  -3336167.98446
                  21306061.0554                                   21306057.8404
                                                                        50.2504
        39.5004
   -392513.55948   -291360.07045
                  21162405.9774                                   21162401.9024
                                                                        50.0004
        35.7504
   2602105.17247   2030971.70744
                  23125295.7974                                   23125289.4884
                                                                        43.7504
        26.7504
  -3062180.35948  -2363820.39846
                  22173116.8134                                   22173113.4694
                                                                        48.2504
        37.0004
   2421889.47747   1920916.70743
                  24181239.3134                                   24181234.8364
                                                                        42.2504
        22.2504
 09 10 27 23 32  0.0000000  0  8G02G04G05G10G13G23G29G16
     52819.07048     53732.64147
                  20476230.0394                                   20476224.0434
                                                                        51.5004
        42.0004
   3168685.06347   2470208.09445
                  22601624.3594                                   22601621.1214
                                                                        46.7504
        31.5004
  -4959406.31248  -3817557.39846
                  22091597.7974                                   22091594.1054
                                                                        48.7504
        39.5004
  -4482592.91048  -3464788.25846
                  21274650.5704                                   21274647.4414
                                                                        50.0004
        38.5004
   -458541.84048   -342810.64545
                  21149841.5554                                   21149837.4534
                                                                        50.2504
        35.5004
   2602291.09847   2031116.59444
                  23125330.8524                                   23125324.6844
                                                                        44.2504
        24.2504
  -3194785.79748  -2467149.32046
                  22147882.5004                                   22147879.2664
                                                                        48.7504
        36.7504
   2266425.44147   1799775.88343
                  24151655.7894                                   24151650.4884
                                                                        42.7504
        22.2504
 09 10 27 23 32 30.0000000  0  8G02G04G05G10G13G23G29G16
   1573083.75048   1238354.45747
                  20765526.6484                                   20765520.9884
                                                                        52.0004
        42.0004
   4755674.48448   3706823.23045
                  22903618.5704                                   22903615.4064
                                                                        48.0004
        31.5004
  -3562461.87148  -2729029.23446
                  22357427.4534                                   22357424.2194
                                                                        48.2504
        38.5004
  -3071675.63748  -2365372.15246
                  21543139.1094                                   21543135.6684
                                                                        49.2504
        39.0004
   1051615.02348    833935.03145
                  21437214.6644                                   21437210.3404
                                                                        50.2504
        35.5004
   4178385.35247   3259241.99244
                  23425251.2814                                   23425245.2584
                                                                        43.5004
        26.2504
  -1751298.41047  -1342353.96146
                  22422569.3134                                   22422566.3164
                                                                        47.5004
        36.7504
   3686969.02047   2906692.92243
                  24421975.3834                                   24421971.2974
                                                                        43.0004
        22.0004
 09 10 27 23 33  0.0000000  0  8G02G04G05G10G13G23G29G16
   1518606.23048   1195904.43447
                  20755160.3524                                   20755154.6094
                                                                        51.7504
        42.2504
   4767629.34847   3716138.68845
                  22905893.2274                                   22905890.4344
                                                                        47.5004
        31.7504
  -3740501.37148  -2867761.32846
                  22323547.4844                                   22323544.1484
                                                                        48.7504
        38.7504
  -3235630.38748  -2493129.07846
                  21511939.3594                                   21511935.7544
                                                                        49.5004
        38.7504
    987109.49248    783671.02045
                  21424939.9144                                   21424935.5744
                                                                        50.7504
        35.5004
   4179543.57447   3260144.50444
                  23425471.4694                                   23425465.6094
                                                                        43.7504
        26.0004
  -1882568.52747  -1444642.36746
                  22397589.4774                                   22397586.0004
                                                                        47.5004
        36.7504
   3532669.55947   2786459.56643
                  24392614.1724                                   24392608.8524
                                                                        42.0004
        21.7504
 09 10 27 23 33 30.0000000  0  8G02G04G05G10G13G23G29G16
   1464801.41848   1153978.61747
                  20744921.2664                                   20744915.4104
                                                                        53.0004
        42.0004
   4779960.63747   3725747.48845
                  22908239.9304                                   22908237.3164
                                                                        47.5004
        32.0004
  -3918102.51648  -3006151.87146
                  22289751.6484                                   22289747.7114
                                                                        49.2504
        38.2504
  -3399035.50048  -2620457.72346
                  21480844.6804                                   21480841.1684
                                                                        49.5004
        39.2504
    923356.54748    733993.41046
                  21412807.8524                                   21412803.5354
                                                                        50.7504
        36.0004
   4181176.78147   3261417.15244
                  23425782.8754                                   23425776.6994
                                                                        45.0004
        27.2504
  -2013175.34047  -1546413.90246
                  22372735.6094                                   22372732.6604
                                                                        47.7504
        37.5004
   3378949.05146   2666677.34443
                  24363360.6884                                   24363356.8554
                                                                        40.5004
        21.7504
 09 10 27 23 34  0.0000000  0  8G02G04G05G10G13G23G29G16
   1411669.54748   1112577.15647
                  20734810.7504                                   20734805.1484
                                                                        52.7504
        42.5004
   4792667.34048   3735648.81645
                  22910657.5004                                   22910655.1294
                                                                        48.0004
        32.7504
  -4095261.77748  -3144198.02346
                  22256039.3674                                   22256035.5944
                                                                        50.5004
        38.7504
  -3561887.97348  -2747355.72746
                  21449855.0394                                   21449851.6174
                                                                        51.5004
        39.5004
    860356.03148    684902.10946
                  21400819.2664                                   21400815.1054
                                                                        51.0004
        36.0004
   4183283.22747   3263058.56344
                  23426183.9144                                   23426177.4224
                                                                        44.5004
        27.2504
  -2143116.35948  -1647666.62946
                  22348008.5164                                   22348005.3444
                                                                        49.2504
        37.0004
   3225810.33246   2547348.53543
                  24334219.1414                                   24334215.9184
                                                                        39.7504
        21.0004
 09 10 27 23 34 30.0000000  0  8G02G04G05G10G13G23G29G16
   1359208.35248   1071698.31347
                  20724827.7114                                   20724821.8674
                                                                        52.5004
        42.2504
   4805746.12948   3745840.05945
                  22913146.3134                                   22913143.7544
                                                                        48.0004
        32.0004
  -4271979.82448  -3281900.38346
                  22222410.9304                                   22222407.1914
                                                                        50.0004
        38.5004
  -3724187.64548  -2873823.00446
                  21418970.1804                                   21418966.9494
                                                                        50.0004
        39.7504
    798105.34448    636395.07845
                  21388973.3984                                   21388968.9414
                                                                        50.5004
        35.5004
   4185858.85547   3265065.54344
                  23426673.9454                                   23426667.4804
                                                                        44.0004
        27.0004
  -2272392.27348  -1748401.09446
                  22323408.3204                                   22323405.1994
                                                                        48.0004
        37.5004
   3073254.20346   2428473.64543
                  24305188.8984                                   24305185.6684
                                                                        39.5004
        19.7504
 09 10 27 23 35  0.0000000  0  8G02G04G05G10G13G23G29G16
   1307413.19148   1031338.42647
                  20714971.1804                                   20714965.8674
                                                                        52.2504
        42.0004
   4819190.45747   3756316.16045
                  22915705.4304                                   22915702.3674
                                                                        47.5004
        31.2504
  -4448257.75848  -3419259.78946
                  22188866.1094                                   22188862.9304
                                                                        50.0004
        38.5004
  -3885936.50048  -2999861.06246
                  21388190.3594                                   21388187.1804
                                                                        51.0004
        39.5004
    736599.81648    588468.69145
                  21377269.5084                                   21377264.4304
                                                                        50.7504
        35.0004
   4188897.66847   3267433.41844
                  23427251.7504                                   23427245.7894
                                                                        44.0004
        26.5004
  -2401004.10948  -1848618.10546
                  22298934.2734                                   22298931.2344
                                                                        48.5004
        37.5004
   2921279.91446   2310052.16043
                  24276269.3754                                   24276265.7194
                                                                        39.7504
        20.0004
 09 10 27 23 35 30.0000000  0  9G02G04G05G10G13G23G29G16G07
   1256279.08648    991493.66447
                  20705240.7974                                   20705235.4494
                                                                        51.7504
        42.2504
   4832994.39147   3767072.43845
                  22918332.1174                                   22918328.8834
                                                                        47.0004
        31.0004
  -4624098.06648  -3556278.21146
                  22155404.7814                                   22155401.3404
                                                                        49.5004
        38.5004
  -4047136.47748  -3125471.41846
                  21357514.7194                                   21357511.6374
                                                                        50.0004
        39.5004
    675833.62148    541118.41445
                  21365705.8284                                   21365701.5744
                                                                        50.0004
        35.5004
   4192392.01247   3270156.27344
                  23427916.8134                                   23427910.5124
                                                                        43.2504
        26.0004
  -2528955.31648  -1948320.33646
                  22274586.0234                                   22274582.7854
                                                                        48.0004
        36.5004
   2769884.72346   2192081.88343
                  24247460.1884                                   24247455.3134
                                                                        41.2504
        19.2504
   4417874.00856   3478527.67253
                  24460581.2194                                   24460577.5944
                                                                        39.7504
        19.7504
 09 10 27 23 36  0.0000000  0  9G02G04G05G10G13G23G29G16G07
   1205796.22348    952156.37146
                  20695634.1884                                   20695628.9024
                                                                        52.2504
        41.5004
   4847147.18047   3778100.55545
                  22921025.0944                                   22921021.5434
                                                                        47.0004
        30.5004
  -4799508.28148  -3692961.46146
                  22122025.7424                                   22122021.8914
                                                                        50.0004
        39.2504
  -4207795.76648  -3250660.39546
                  21326942.2814                                   21326938.6804
                                                                        50.0004
        38.7504
    615797.39848    494336.93445
                  21354281.4534                                   21354277.5204
                                                                        49.5004
        35.7504
   4196331.35547   3273225.91844
                  23428666.3674                                   23428660.1914
                                                                        43.7504
        24.0004
  -2656253.51648  -2047513.72746
                  22250362.0164                                   22250358.2384
                                                                        48.5004
        37.5004
   2619062.63346   2074558.09843
                  24218759.9224                                   24218754.4534
                                                                        41.5004
        18.5004
   4231121.95346   3333006.62543
                  24425043.8204                                   24425039.6374
                                                                        39.7504
        20.5004
 09 10 27 23 36 30.0000000  0  9G02G04G05G10G13G23G29G16G07
   1155959.86748    913322.85947
                  20686150.8524                                   20686144.7344
                                                                        52.0004
        42.0004
   4861642.48047   3789395.58245
                  22923783.1484                                   22923780.0204
                                                                        46.0004
        31.2504
  -4974489.58648  -3829310.49246
                  22088727.6564                                   22088724.3164
                                                                        50.0004
        39.5004
  -4367915.74648  -3375429.18046
                  21296472.3444                                   21296468.8094
                                                                        51.0004
        39.0004
    556485.86348    448120.14545
                  21342994.6954                                   21342990.7464
                                                                        50.0004
        35.7504
   4200708.84847   3276636.94944
                  23429499.0944                                   23429493.0164
                                                                        44.2504
        25.7504
  -2782900.57048  -2146199.75046
                  22226262.0944                                   22226258.6844
                                                                        49.0004
        37.0004
   2468811.68847   1957479.43843
                  24190168.1094                                   24190163.1764
                                                                        42.0004
        21.2504
   4044706.54346   3187747.89543
                  24389570.4064                                   24389566.5124
                                                                        39.7504
        22.5004
 09 10 27 23 37  0.0000000  0  9G02G04G05G10G13G23G29G16G07
   1106766.38748    874990.29346
                  20676789.3204                                   20676783.7584
                                                                        52.7504
        41.7504
   4876475.34847   3800953.64845
                  22926606.1024                                   22926603.2074
                                                                        46.7504
        31.0004
  -5149043.49248  -3965326.48046
                  22055511.3674                                   22055507.3874
                                                                        50.7504
        39.7504
  -4527497.32048  -3499778.43046
                  21266105.5004                                   21266101.8364
                                                                        50.5004
        38.7504
    497895.02348    402464.94145
                  21331845.3674                                   21331840.7664
                                                                        50.0004
        35.5004
   4205518.91847   3280385.06343
                  23430414.5634                                   23430408.5474
                                                                        43.7504
        22.7504
  -2908898.48848  -2244379.93746
                  22202285.7504                                   22202281.5664
                                                                        48.5004
        37.2504
   2319131.22347   1840845.28943
                  24161685.1804                                   24161679.9384
                                                                        42.2504
        21.5004
   3858627.71147   3042751.42244
                  24354159.9694                                   24354156.6254
                                                                        42.0004
        25.7504
 09 10 27 23 37 30.0000000  0  9G02G04G05G10G13G23G29G16G07
   1058214.98448    837158.02346
                  20667550.2114                                   20667544.6684
                                                                        52.5004
        41.5004
   4891644.02347   3812773.39845
                  22929492.5944                                   22929489.5704
                                                                        46.0004
        30.2504
  -5323167.98448  -4101007.82846
                  22022376.1644                                   22022372.4534
                                                                        50.0004
        39.0004
  -4686538.83648  -3623706.87546
                  21235840.5394                                   21235837.0664
                                                                        50.7504
        39.7504
    440023.39148    357370.16446
                  21320832.6174                                   21320828.7464
                                                                        49.0004
        36.0004
   4210759.07847   3284468.30144
                  23431412.4614                                   23431405.6994
                                                                        43.5004
        25.2504
  -3034245.60248  -2342053.00446
                  22178432.8204                                   22178429.2194
                                                                        49.0004
        37.2504
   2170023.54746   1724657.44543
                  24133310.7664                                   24133305.9654
                                                                        41.7504
        22.5004
   3672888.55547   2898019.62544
                  24318815.4614                                   24318811.9454
                                                                        43.2504
        25.7504
 09 10 27 23 38  0.0000000  0  9G02G04G05G10G13G23G29G16G07
   1010308.10248    799827.98046
                  20658434.2974                                   20658428.4224
                                                                        51.5004
        41.5004
   4907149.63347   3824855.69945
                  22932443.3834                                   22932440.0984
                                                                        44.7504
        31.7504
  -5496857.87948  -4236350.55146
                  21989324.0394                                   21989320.3484
                                                                        49.5004
        39.5004
  -4845035.23448  -3747210.55546
                  21205679.6804                                   21205676.4804
                                                                        50.7504
        40.0004
    382873.51248    312837.77745
                  21309957.1564                                   21309953.2194
                                                                        49.2504
        35.0004
   4216430.30547   3288887.44144
                  23432491.2734                                   23432485.2664
                                                                        43.2504
        26.0004
  -3158936.93748  -2439215.06646
                  22154704.7424                                   22154700.8524
                                                                        50.0004
        37.2504
   2021494.87946   1608920.86743
                  24105046.5394                                   24105042.0044
                                                                        41.0004
        22.5004
   3487495.76647   2753557.71144
                  24283536.6254                                   24283532.3484
                                                                        42.2504
        26.0004
 09 10 27 23 38 30.0000000  0  9G02G04G05G10G13G23G29G16G07
    963041.44148    762996.81346
                  20649439.3754                                   20649433.8404
                                                                        51.5004
        41.5004
   4922987.07847   3837196.52745
                  22935457.1334                                   22935454.5354
                                                                        45.0004
        31.0004
  -5670114.16448  -4371355.36746
                  21956354.3204                                   21956350.5354
                                                                        50.0004
        39.5004
  -5002988.13348  -3870290.75046
                  21175622.1644                                   21175618.9654
                                                                        50.7504
        40.0004
    326441.02047    268864.40245
                  21299218.9144                                   21299214.5904
                                                                        47.7504
        34.7504
   4222526.84047   3293637.98844
                  23433651.6884                                   23433644.9224
                                                                        42.5004
        26.5004
  -3282974.20748  -2535867.48046
                  22131101.1954                                   22131097.4344
                                                                        49.2504
        37.5004
   1873543.82846   1493634.32443
                  24076892.6884                                   24076888.0744
                                                                        40.5004
        22.5004
   3302448.76646   2609365.29744
                  24248322.8914                                   24248319.4654
                                                                        40.5004
        26.0004
 09 10 27 23 39  0.0000000  0  9G02G04G05G10G13G23G29G16G07
    916411.62548    726661.89846
                  20640565.9774                                   20640560.2304
                                                                        51.2504
        41.5004
   4939151.53947   3849792.18845
                  22938532.5864                                   22938530.3284
                                                                        44.5004
        31.0004
  -5842937.19948  -4506022.64846
                  21923467.2584                                   21923463.5784
                                                                        50.0004
        39.2504
  -5160397.43748  -3992947.35946
                  21145668.6174                                   21145664.7584
                                                                        50.7504
        39.5004
    270721.87148    225446.87545
                  21288615.9454                                   21288612.0824
                                                                        48.5004
        35.5004
   4229043.10547   3298715.60544
                  23434891.5234                                   23434885.4384
                                                                        44.0004
        27.2504
  -3406358.58248  -2632011.12546
                  22107621.7664                                   22107618.4734
                                                                        49.0004
        37.7504
   1726170.27046   1378797.80543
                  24048847.5704                                   24048843.0944
                                                                        40.7504
        21.2504
   3117747.88746   2465442.58644
                  24213175.1954                                   24213171.9384
                                                                        39.7504
        24.2504
 09 10 27 23 39 30.0000000  0  9G02G04G05G10G13G23G29G16G07
    870416.54348    690821.56646
                  20631813.4384                                   20631807.7624
                                                                        51.7504
        41.7504
   4955639.79347   3862640.12545
                  22941670.5314                                   22941667.9224
                                                                        45.7504
        30.0004
  -6015326.80948  -4640352.17646
                  21890662.6024                                   21890658.8554
                                                                        49.5004
        39.7504
  -5317263.40248  -4115180.59046
                  21115817.6954                                   21115814.4144
                                                                        50.7504
        39.7504
    215713.49248    182583.19945
                  21278147.7274                                   21278143.6134
                                                                        48.7504
        34.5004
   4235975.46947   3304117.44544
                  23436210.1334                                   23436204.4024
                                                                        43.2504
        25.5004
  -3529090.01648  -2727646.00846
                  22084266.7734                                   22084263.1804
                                                                        48.5004
        37.0004
   1579374.80146   1264411.72343
                  24020913.4924                                   24020909.3364
                                                                        40.0004
        22.0004
   2933395.47746   2321791.42643
                  24178093.6094                                   24178090.8874
                                                                        38.0004
        22.5004
 09 10 27 23 40  0.0000000  0  9G02G04G05G10G13G23G29G16G07
    825053.40648    655473.64847
                  20623181.3754                                   20623175.5394
                                                                        52.0004
        42.2504
   4972447.75047   3875737.23045
                  22944869.0474                                   22944866.0434
                                                                        45.7504
        30.7504
  -6187282.79348  -4774343.85246
                  21857940.1484                                   21857936.8134
                                                                        49.5004
        39.5004
  -5473585.69548  -4236990.16046
                  21086070.7114                                   21086067.3954
                                                                        50.5004
        39.7504
    161412.81648    140270.99645
                  21267814.7114                                   21267810.5084
                                                                        48.0004
        35.5004
   4243319.23047   3309839.84043
                  23437608.0704                                   23437602.0394
                                                                        42.5004
        22.7504
  -3651169.06248  -2822772.53146
                  22061035.8984                                   22061032.4414
                                                                        48.5004
        36.5004
   1433158.19946   1150476.72743
                  23993089.4534                                   23993085.5314
                                                                        40.2504
        22.7504
   2749392.10546   2178412.18443
                  24143079.5864                                   24143075.7544
                                                                        39.0004
        22.5004
 09 10 27 23 40 30.0000000  0  9G02G04G05G10G13G23G29G16G07
    780320.14148    620616.55546
                  20614668.6024                                   20614662.9064
                                                                        51.7504
        41.5004
   4989572.25047   3889080.96945
                  22948127.8134                                   22948125.0004
                                                                        46.5004
        30.5004
  -6358804.73848  -4907997.32446
                  21825300.9144                                   21825297.2544
                                                                        49.5004
        39.2504
  -5629363.82848  -4358375.68746
                  21056427.0704                                   21056423.4884
                                                                        50.7504
        40.0004
    107817.35548     98508.32845
                  21257615.8834                                   21257611.1764
                                                                        48.7504
        35.5004
   4251071.23047   3315880.35243
                  23439082.5554                                   23439077.0554
                                                                        42.0004
        23.0004
  -3772595.50848  -2917390.53146
                  22037929.0864                                   22037925.7274
                                                                        48.5004
        36.7504
   1287521.19146   1036993.35243
                  23965376.0084                                   23965371.2934
                                                                        40.2504
        23.2504
   2565739.94746   2035306.56843
                  24108131.7814                                   24108127.3954
                                                                        39.5004
        21.7504
 09 10 27 23 41  0.0000000  0  9G02G04G05G10G13G23G29G16G07
    736214.23448    586248.33646
                  20606275.7814                                   20606270.0314
                                                                        52.0004
        41.5004
   5007010.26247   3902669.03945
                  22951446.0554                                   22951442.7274
                                                                        45.5004
        30.0004
  -6529891.75848  -5041311.89546
                  21792744.0864                                   21792740.4964
                                                                        49.5004
        39.5004
  -5784597.70348  -4479337.15246
                  21026887.1724                                   21026883.4264
                                                                        51.2504
        39.7504
     54924.45348     57293.09045
                  21247550.9534                                   21247546.3674
                                                                        48.7504
        35.2504
   4259227.31647   3322235.74244
                  23440635.4774                                   23440628.7154
                                                                        43.5004
        24.2504
  -3893369.79748  -3011500.35546
                  22014946.5634                                   22014943.2544
                                                                        49.5004
        37.5004
   1142464.35546    923962.02743
                  23937771.6484                                   23937767.9414
                                                                        40.0004
        22.0004
   2382440.79746   1892476.02343
                  24073251.1644                                   24073247.0044
                                                                        41.2504
        23.7504
 09 10 27 23 41 30.0000000  0  9G02G04G05G10G13G23G29G16G07
   2268154.46948   1779967.96946
                  20897794.5004                                   20897788.5744
                                                                        52.2504
        41.5004
   6600177.17647   5144097.81344
                  23254615.6564                                   23254612.3714
                                                                        45.2504
        29.5004
  -5125118.39148  -3946683.28546
                  22060063.2894                                   22060060.1484
                                                                        49.7504
        40.2504
  -4363862.02348  -3372270.37946
                  21297243.8834                                   21297240.4264
                                                                        50.2504
        40.2504
   1578152.79348   1244224.25445
                  21537411.3364                                   21537407.5594
                                                                        48.7504
        35.5004
   5843202.56647   4556502.18043
                  23742055.2424                                   23742048.8204
                                                                        43.2504
        23.0004
  -2438068.11348  -1877499.03546
                  22291881.1884                                   22291877.7424
                                                                        48.7504
        38.0004
   2573413.10946   2038987.03543
                  24210072.4614                                   24210068.3244
                                                                        38.5004
        20.7504
   3774922.00447   2977526.31644
                  24338231.7274                                   24338227.9574
                                                                        42.2504
        25.5004
 09 10 27 23 42  0.0000000  0  9G02G04G05G10G13G23G29G16G07
   2225294.12548   1746570.32846
                  20889638.1254                                   20889632.9574
                                                                        52.0004
        41.5004
   6618228.46147   5158163.69145
                  23258051.2894                                   23258047.8754
                                                                        45.7504
        30.2504
  -5295335.99248  -4079320.35946
                  22027672.0634                                   22027668.8164
                                                                        50.7504
        40.2504
  -4518007.89848  -3492384.00446
                  21267911.2194                                   21267907.0984
                                                                        50.5004
        40.0004
   1526654.64548   1204095.82045
                  21527611.6644                                   21527607.8284
                                                                        49.5004
        34.7504
   5852152.80947   4563476.41843
                  23743758.9774                                   23743751.8054
                                                                        42.5004
        22.5004
  -2557538.75448  -1970593.02046
                  22269146.7974                                   22269143.4884
                                                                        48.7504
        37.5004
   2429518.47746   1926861.37143
                  24182690.2734                                   24182686.2274
                                                                        38.0004
        20.7504
   3592331.01246   2835247.61344
                  24303486.0554                                   24303482.2584
                                                                        40.5004
        24.5004
 09 10 27 23 42 30.0000000  0  9G02G04G05G10G13G23G29G16G07
   2183052.58248   1713654.84446
                  20881600.0784                                   20881594.4614
                                                                        53.0004
        41.5004
   6636581.68447   5172464.87945
                  23261543.4844                                   23261540.6524
                                                                        46.0004
        30.5004
  -5465119.03948  -4211618.84846
                  21995363.7814                                   21995359.9614
                                                                        51.0004
        40.0004
  -4671609.92248  -3612073.85946
                  21238681.5554                                   21238678.2074
                                                                        51.0004
        40.0004
   1475849.34848   1164507.28145
                  21517943.6024                                   21517939.3794
                                                                        50.0004
        35.5004
   5861493.41047   4570754.84444
                  23745536.0864                                   23745529.8484
                                                                        43.7504
        26.0004
  -2676359.25448  -2063180.41046
                  22246535.8674                                   22246532.8754
                                                                        49.0004
        37.7504
   2286204.55946   1815188.18843
                  24155419.1334                                   24155414.2544
                                                                        38.2504
        20.7504
   3410096.47746   2693246.68444
                  24268807.4694                                   24268804.0594
                                                                        41.5004
        26.7504
 09 10 27 23 43  0.0000000  0  9G02G04G05G10G13G23G29G16G07
   2141427.96948   1681220.09446
                  20873678.8364                                   20873673.7734
                                                                        53.0004
        41.7504
   6655233.30247   5186998.57644
                  23265091.9924                                   23265089.9104
                                                                        45.2504
        29.7504
  -5634465.44948  -4343577.05946
                  21963138.1644                                   21963134.1374
                                                                        50.5004
        40.0004
  -4824667.16048  -3731339.23446
                  21209555.5864                                   21209552.6644
                                                                        51.5004
        40.0004
   1425734.20748   1125456.52745
                  21508406.9224                                   21508402.8634
                                                                        49.7504
        34.7504
   5871220.92247   4578334.70744
                  23747387.5234                                   23747381.5784
                                                                        43.7504
        27.0004
  -2794528.35948  -2155260.21546
                  22224049.1954                                   22224045.9614
                                                                        48.5004
        37.7504
   2143472.99646   1703968.81343
                  24128257.9844                                   24128253.5204
                                                                        41.2504
        21.7504
   3228220.37146   2551525.13744
                  24234197.6174                                   24234194.4614
                                                                        40.7504
        25.0004
 09 10 27 23 43 30.0000000  0  9G02G04G05G10G13G23G29G16G07
   2100417.75448   1649264.09046
                  20865875.1334                                   20865869.9844
                                                                        51.7504
        41.5004
   6674180.02747   5201762.25445
                  23268698.2894                                   23268695.2584
                                                                        46.5004
        30.0004
  -5803376.20348  -4475195.83246
                  21930995.6644                                   21930991.7194
                                                                        51.0004
        40.2504
  -4977179.42248  -3850179.94546
                  21180533.3444                                   21180530.2234
                                                                        51.7504
        40.2504
   1376307.16848   1086941.94145
                  21499001.5234                                   21498997.3054
                                                                        49.7504
        34.5004
   5881332.02747   4586213.47744
                  23749311.0234                                   23749305.7974
                                                                        43.0004
        25.0004
  -2912046.92648  -2246833.12146
                  22201686.1484                                   22201682.7154
                                                                        49.5004
        37.7504
   2001324.33646   1593203.62543
                  24101208.7034                                   24101203.6954
                                                                        41.0004
        22.5004
   3046704.42246   2410084.19944
                  24199656.0784                                   24199653.1604
                                                                        40.5004
        25.7504
 09 10 27 23 44  0.0000000  0  9G02G04G05G10G13G23G29G16G07
   2060019.38748   1617784.81346
                  20858187.6644                                   20858181.9304
                                                                        52.0004
        41.7504
   6693418.12147   5216752.97345
                  23272359.3834                                   23272356.1604
                                                                        46.0004
        30.7504
  -5971849.79748  -4606473.87146
                  21898935.8444                                   21898932.3984
                                                                        50.2504
        39.5004
  -5129146.21948  -3968595.62146
                  21151615.1954                                   21151612.0824
                                                                        51.0004
        40.5004
   1327565.00848   1048961.03145
                  21489726.2034                                   21489722.1954
                                                                        49.2504
        35.0004
   5891822.05146   4594387.46943
                  23751307.1644                                   23751302.0164
                                                                        41.7504
        23.7504
  -3028914.18448  -2337898.50846
                  22179446.7584                                   22179443.6214
                                                                        49.5004
        38.0004
   1859759.84846   1482893.61343
                  24074269.2344                                   24074264.5864
                                                                        41.7504
        22.0004
   2865549.97746   2268924.94544
                  24165182.9614                                   24165180.4384
                                                                        41.0004
        25.0004
 09 10 27 23 44 30.0000000  0  9G02G04G05G10G13G23G29G16G07
   2020225.70348   1586776.76246
                  20850615.2034                                   20850609.8094
                                                                        52.2504
        41.5004
   6712939.58647   5231964.49544
                  23276074.1334                                   23276070.4614
                                                                        46.5004
        29.5004
  -6139890.91448  -4737414.95746
                  21866958.7274                                   21866955.1524
                                                                        50.2504
        39.5004
  -5280572.07048  -4086589.78546
                  21122799.9384                                   21122796.5394
                                                                        52.2504
        40.7504
   1279500.06348   1011507.82445
                  21480579.7734                                   21480575.6844
                                                                        50.0004
        34.2504
   5902682.45746   4602850.07043
                  23753374.0234                                   23753368.4264
                                                                        40.7504
        22.2504
  -3145135.51648  -2428460.57046
                  22157330.6804                                   22157327.5554
                                                                        50.0004
        38.0004
   1718775.41046   1373035.61743
                  24047441.3524                                   24047436.2544
                                                                        41.0004
        22.2504
   2684754.08647   2128045.04344
                  24130779.0314                                   24130775.4924
                                                                        42.0004
        25.0004
 09 10 27 23 45  0.0000000  0  9G02G04G05G10G13G23G29G16G07
   1981036.71948   1556239.89846
                  20843157.3754                                   20843151.8754
                                                                        52.0004
        41.0004
   6732742.94147   5247395.68844
                  23279842.2424                                   23279839.0984
                                                                        45.0004
        29.0004
  -6307496.32448  -4868016.50846
                  21835064.4924                                   21835060.7074
                                                                        50.7504
        39.7504
  -5431454.39548  -4204160.39146
                  21094088.0004                                   21094084.2734
                                                                        52.0004
        40.0004
   1232111.78148    974581.90645
                  21471561.9304                                   21471557.4734
                                                                        49.5004
        34.2504
   5913911.44547   4611599.94143
                  23755510.5314                                   23755504.8134
                                                                        42.5004
        22.2504
  -3260708.53148  -2518517.44946
                  22135337.8204                                   22135334.6214
                                                                        50.0004
        38.2504
   1578374.18446   1263632.05543
                  24020723.0234                                   24020718.2734
                                                                        40.0004
        22.0004
   2504320.15247   1987447.10944
                  24096444.3524                                   24096440.0514
                                                                        43.7504
        25.7504
 09 10 27 23 45 30.0000000  0  9G02G04G05G10G13G23G29G16G07
   1942450.78148   1526172.93846
                  20835815.2504                                   20835809.5394
                                                                        51.7504
        41.7504
   6752826.47347   5263045.16444
                  23283663.6954                                   23283660.9924
                                                                        44.0004
        29.7504
  -6474665.24648  -4998277.98846
                  21803253.0704                                   21803249.4144
                                                                        51.0004
        39.7504
  -5581792.13348  -4321306.65646
                  21065479.8134                                   21065476.5004
                                                                        52.2504
        40.0004
   1185398.29748    938181.79345
                  21462672.5864                                   21462668.7464
                                                                        49.2504
        34.7504
   5925506.56347   4620635.10943
                  23757717.4844                                   23757711.2114
                                                                        43.0004
        22.7504
  -3375633.40648  -2608069.29346
                  22113468.7114                                   22113465.3674
                                                                        49.7504
        38.0004
   1438557.19146   1154683.74643
                  23994117.2344                                   23994112.3484
                                                                        40.2504
        21.7504
   2324250.77047   1847132.72744
                  24062178.4144                                   24062173.5664
                                                                        44.2504
        25.2504
 09 10 27 23 46  0.0000000  0  9G02G04G05G10G13G23G29G16G07
   1904464.37548   1496573.13746
                  20828586.2814                                   20828580.8364
                                                                        52.2504
        41.5004
   6773185.22747   5278909.09044
                  23287537.9774                                   23287535.0274
                                                                        44.5004
        28.0004
  -6641397.69548  -5128199.38746
                  21771525.2974                                   21771521.2274
                                                                        51.2504
        40.5004
  -5731585.27348  -4438028.57846
                  21036975.0944                                   21036971.5984
                                                                        51.5004
        40.2504
   1139355.48048    902304.27745
                  21453910.8524                                   21453906.7894
                                                                        49.5004
        35.2504
   5937462.44147   4629951.36743
                  23759992.9064                                   23759986.3954
                                                                        43.5004
        22.7504
  -3489910.44148  -2697116.34046
                  22091722.2664                                   22091719.0744
                                                                        49.7504
        38.0004
   1299324.27046   1046190.55543
                  23967621.6564                                   23967616.8714
                                                                        40.7504
        21.5004
   2144546.94947   1707103.17644
                  24027983.2894                                   24027978.4304
                                                                        44.0004
        24.7504
 09 10 27 23 46 30.0000000  0  9G02G04G05G10G13G23G29G16G07
   1867074.05148   1467437.82846
                  20821471.1484                                   20821465.6914
                                                                        52.2504
        41.0004
   6793815.09447   5294984.24644
                  23291463.8594                                   23291461.1414
                                                                        44.5004
        29.5004
  -6807694.20748  -5257781.08646
                  21739879.7814                                   21739876.1764
                                                                        51.2504
        40.0004
  -5880834.87948  -4554326.95346
                  21008573.8204                                   21008570.4804
                                                                        51.7504
        40.7504
   1093979.68448    866946.52345
                  21445276.2664                                   21445272.2114
                                                                        50.0004
        35.2504
   5949774.20747   4639545.00043
                  23762335.7274                                   23762329.3984
                                                                        43.5004
        22.7504
  -3603541.25448  -2785659.82446
                  22070099.5314                                   22070095.9064
                                                                        50.5004
        37.7504
   1160674.60946    938151.84043
                  23941237.4384                                   23941233.0944
                                                                        37.7504
        20.7504
   1965211.21147   1567361.36744
                  23993855.5944                                   23993851.6334
                                                                        43.5004
        24.5004
 09 10 27 23 47  0.0000000  0  9G02G04G05G10G13G23G29G16G07
   1830276.18848   1438764.18046
                  20814468.8444                                   20814463.1374
                                                                        51.7504
        41.5004
   6814711.44147   5311267.05144
                  23295440.2814                                   23295437.9184
                                                                        43.0004
        29.2504
  -6973555.12148  -5387023.31646
                  21708317.3364                                   21708313.9344
                                                                        50.2504
        40.0004
  -6029541.92248  -4670202.56646
                  20980275.6484                                   20980272.2934
                                                                        52.0004
        40.5004
   1049266.98448    832105.46945
                  21436767.5864                                   21436763.5474
                                                                        48.5004
        35.2504
   5962436.98846   4649412.09843
                  23764744.7504                                   23764739.1054
                                                                        39.7504
        22.2504
  -3716526.91448  -2873700.59046
                  22048598.5084                                   22048595.4264
                                                                        50.7504
        38.0004
   1022608.65246    830567.99643
                  23914963.3444                                   23914959.7934
                                                                        38.7504
        20.7504
   1786241.87147   1427904.69144
                  23959798.8364                                   23959795.8014
                                                                        42.2504
        26.0004
 09 10 27 23 47 30.0000000  0  9G02G04G05G10G13G23G29G16G07
   1794070.18848   1410551.71546
                  20807578.8834                                   20807573.6804
                                                                        51.5004
        41.2504
   6835873.14547   5327756.66045
                  23299467.7114                                   23299464.4884
                                                                        43.7504
        30.0004
  -7138978.28948  -5515924.46946
                  21676838.6644                                   21676834.9224
                                                                        50.0004
        40.0004
  -6177704.34448  -4785653.79746
                  20952081.2584                                   20952077.5904
                                                                        52.0004
        40.2504
   1005216.61348    797780.50845
                  21428385.1644                                   21428380.7774
                                                                        48.5004
        34.2504
   5975448.90646   4659551.19143
                  23767221.0314                                   23767215.1914
                                                                        40.0004
        22.7504
  -3828865.89548  -2961237.46146
                  22027221.3524                                   22027217.9064
                                                                        50.5004
        38.5004
    885129.57446    723441.48843
                  23888802.1724                                   23888799.2424
                                                                        39.5004
        22.0004
   1607643.21947   1288736.86344
                  23925812.1254                                   23925809.7424
                                                                        42.0004
        24.7504
 09 10 27 23 48  0.0000000  0  9G02G04G05G10G13G23G29G16G07
   1758453.65248   1382798.57446
                  20800801.3364                                   20800795.8754
                                                                        51.0004
        41.2504
   6857296.16447   5344449.88744
                  23303543.9224                                   23303541.8054
                                                                        44.0004
        29.7504
  -7303963.10248  -5644484.04346
                  21645442.7894                                   21645439.2934
                                                                        49.5004
        40.0004
  -6325321.26248  -4900679.96146
                  20923990.4454                                   20923987.1764
                                                                        51.7504
        40.5004
    961825.19947    763969.01645
                  21420128.5004                                   21420124.2274
                                                                        47.5004
        34.0004
   5988805.60246   4669958.96144
                  23769762.7814                                   23769757.2234
                                                                        40.5004
        26.0004
  -3940558.41048  -3048270.59046
                  22005966.8364                                   22005963.6094
                                                                        49.7504
        38.0004
    748236.49646    616771.57043
                  23862753.0784                                   23862749.3594
                                                                        40.5004
        22.7504
   1429416.73847   1149859.15644
                  23891897.5634                                   23891893.9534
                                                                        42.2504
        26.5004
 09 10 27 23 48 30.0000000  0  9G02G04G05G10G13G23G29G16G07
   1723424.70348   1355503.27746
                  20794135.7344                                   20794129.8014
                                                                        52.0004
        41.2504
   6878978.45747   5361345.10944
                  23307669.5864                                   23307667.3674
                                                                        44.0004
        29.0004
  -7468508.40248  -5772701.15646
                  21614131.1954                                   21614127.1294
                                                                        50.0004
        40.5004
  -6472391.78948  -5015280.37946
                  20896003.9304                                   20896000.4534
                                                                        51.5004
        40.5004
    919090.50048    730669.25045
                  21411996.0084                                   21411991.7704
                                                                        48.2504
        34.5004
   6002504.07847   4680633.07044
                  23772369.6414                                   23772364.1214
                                                                        43.5004
        24.5004
  -4051603.93748  -3134799.56246
                  21984835.3054                                   21984832.1914
                                                                        50.7504
        38.0004
    611931.19547    510559.67244
                  23836815.5164                                   23836811.0634
                                                                        42.2504
        25.5004
   1251565.19547   1011273.77744
                  23858053.2814                                   23858049.5984
                                                                        42.7504
        27.0004
 09 10 27 23 49  0.0000000  0  9G02G04G05G10G13G23G29G16G07
   1688976.18048   1328660.25846
                  20787580.2114                                   20787574.7774
                                                                        52.0004
        41.0004
   6900911.84047   5378436.06644
                  23311843.8134                                   23311841.2734
                                                                        45.0004
        28.5004
  -7632618.38748  -5900579.07046
                  21582901.9694                                   21582898.3094
                                                                        50.2504
        40.2504
  -6618920.79748  -5129458.82846
                  20868120.3054                                   20868116.7464
                                                                        51.0004
        40.7504
    877005.19147    697875.51245
                  21403987.5394                                   21403983.4734
                                                                        47.0004
        34.2504
   6016536.13346   4691567.09443
                  23775040.4844                                   23775033.9804
                                                                        41.5004
        22.5004
  -4162007.66048  -3220828.42246
                  21963826.5164                                   21963823.3204
                                                                        50.5004
        38.5004
    476210.02346    404802.91444
                  23810988.7734                                   23810984.6484
                                                                        41.5004
        25.7504
   1074084.07447    872976.38344
                  23824280.0554                                   23824276.8284
                                                                        43.5004
        27.0004
 09 10 27 23 49 30.0000000  0  9G02G04G05G10G13G23G29G16G07
   1655105.09848   1302267.19146
                  20781134.8204                                   20781128.8444
                                                                        52.7504
        40.7504
   6923091.73447   5395718.83644
                  23316064.4064                                   23316061.6454
                                                                        44.2504
        27.2504
  -7796292.36748  -6028117.22346
                  21551755.7344                                   21551752.2504
                                                                        50.5004
        40.5004
  -6764907.81248  -5243214.93446
                  20840339.9384                                   20840337.0044
                                                                        51.7504
        41.0004
    835565.47747    665584.83245
                  21396101.6724                                   21396097.6564
                                                                        47.7504
        34.5004
   6030896.99247   4702757.35243
                  23777772.5164                                   23777765.9804
                                                                        42.2504
        22.0004
  -4271769.87548  -3306357.41846
                  21942939.5164                                   21942936.1054
                                                                        49.7504
        38.5004
    341073.06347    299501.39544
                  23785272.4694                                   23785269.1914
                                                                        42.5004
        25.0004
    896976.25847    734970.28144
                  23790578.0864                                   23790573.9024
                                                                        43.5004
        27.5004
 09 10 27 23 50  0.0000000  0  9G02G04G05G10G13G23G29G16G07
   1621811.33648   1276324.00446
                  20774799.3594                                   20774793.7424
                                                                        52.5004
        41.0004
   6945518.44947   5413193.94544
                  23320332.9064                                   23320329.8404
                                                                        43.7504
        27.0004
  -7959527.82848  -6155313.69546
                  21520693.2584                                   21520689.4574
                                                                        50.2504
        40.2504
  -6910350.26648  -5356546.71546
                  20812663.3674                                   20812659.7114
                                                                        52.0004
        40.7504
    794771.35248    633797.19545
                  21388339.0234                                   21388334.5314
                                                                        49.0004
        33.7504
   6045585.63346   4714203.06643
                  23780567.5474                                   23780561.7584
                                                                        41.7504
        21.2504
  -4380888.70748  -3391385.07446
                  21922174.7344                                   21922171.4694
                                                                        50.5004
        38.2504
    206523.48047    194657.57444
                  23759669.0554                                   23759664.4264
                                                                        42.2504
        24.5004
    720246.07447    597258.51644
                  23756946.4384                                   23756943.2734
                                                                        43.5004
        26.5004
 09 10 27 23 50 30.0000000  0  9G02G04G05G10G13G23G29G16G07
   1589091.41048   1250827.96546
                  20768572.4924                                   20768566.8634
                                                                        52.2504
        41.5004
   6968187.24247   5430857.80944
                  23324646.5634                                   23324643.8834
                                                                        45.7504
        29.0004
  -8122325.27748  -6282168.84846
                  21489713.5164                                   21489709.9344
                                                                        50.2504
        40.2504
  -7055249.13348  -5469454.93446
                  20785090.0474                                   20785086.1134
                                                                        51.7504
        40.7504
    754618.43847    602509.21145
                  21380697.8364                                   21380693.5004
                                                                        47.7504
        34.2504
   6060596.80546   4725900.11343
                  23783424.4064                                   23783418.3914
                                                                        40.5004
        20.2504
  -4489365.31648  -3475912.28946
                  21901532.3364                                   21901528.7234
                                                                        50.0004
        38.0004
     72560.31347     90270.66843
                  23734176.0164                                   23734172.1094
                                                                        42.7504
        22.2504
    543893.49647    459840.99244
                  23723387.6334                                   23723383.9454
                                                                        42.5004
        25.5004
 09 10 27 23 51  0.0000000  0  9G02G04G05G10G13G23G29G16G07
   3132362.74248   2453377.03146
                  21062247.7734                                   21062242.1214
                                                                        52.7504
        41.7504
   8566513.21147   6676306.38744
                  23628798.5784                                   23628795.6254
                                                                        45.5004
        28.0004
  -6709259.81248  -5181078.89846
                  21758611.4614                                   21758607.3674
                                                                        50.7504
        40.7504
  -5624180.02348  -4354336.16446
                  21057413.5164                                   21057410.0744
                                                                        51.7504
        41.0004
   2290524.55948   1799319.19145
                  21672970.9924                                   21672966.7464
                                                                        48.0004
        34.5004
   7651345.82046   5965444.83243
                  24086133.9064                                   24086127.6334
                                                                        39.5004
        20.7504
  -3021777.62948  -2332337.46946
                  22180804.8284                                   22180801.6644
                                                                        50.2504
        38.7504
   1514607.97746   1213944.17243
                  24008589.5784                                   24008584.0204
                                                                        41.7504
        22.0004
   1943345.51646   1550323.23044
                  23989694.5864                                   23989690.9804
                                                                        41.7504
        24.5004
 09 10 27 23 51 30.0000000  0  9G02G04G05G10G13G23G29G16G07
   3100779.98048   2428767.06646
                  21056237.8204                                   21056232.1294
                                                                        53.0004
        41.2504
   8589654.55947   6694338.83644
                  23633201.4694                                   23633199.0044
                                                                        45.0004
        27.7504
  -6871182.05948  -5307252.08646
                  21727798.7034                                   21727794.9454
                                                                        50.7504
        40.7504
  -5767993.31248  -4466398.48446
                  21030046.6724                                   21030043.2034
                                                                        52.2504
        40.7504
   2251643.06647   1769021.93445
                  21665571.8204                                   21665567.7934
                                                                        47.2504
        33.5004
   7666988.49246   5977633.91843
                  24089110.2504                                   24089104.9574
                                                                        38.5004
        21.7504
  -3128973.84848  -2415866.98446
                  22160405.9534                                   22160402.7934
                                                                        50.0004
        37.7504
   1381817.46147   1110471.00043
                  23983320.0084                                   23983314.8204
                                                                        42.2504
        21.7504
   1767751.16047   1413496.60244
                  23956279.8674                                   23956276.6134
                                                                        42.5004
        24.7504
 09 10 27 23 52  0.0000000  0  9G02G04G05G10G13G23G29G16G07
   3069757.23848   2404593.50846
                  21050334.2664                                   21050328.3834
                                                                        52.7504
        41.0004
   8613021.43847   6712546.82844
                  23637647.9384                                   23637645.2664
                                                                        44.2504
        28.0004
  -7032670.57848  -5433087.27746
                  21697068.3834                                   21697064.4304
                                                                        50.2504
        40.5004
  -5911268.21548  -4578041.25046
                  21002782.2274                                   21002778.5274
                                                                        50.7504
        40.7504
   2213387.61747   1739212.50445
                  21658292.8754                                   21658288.2624
                                                                        47.5004
        34.0004
   7682936.12146   5990060.58643
                  24092145.3524                                   24092139.3484
                                                                        40.7504
        22.7504
  -3235535.10948  -2498901.73446
                  22140127.9454                                   22140124.7504
                                                                        49.7504
        38.0004
   1249609.27746   1007451.63743
                  23958161.2194                                   23958155.6334
                                                                        40.5004
        21.2504
   1592532.52046   1276962.62144
                  23922937.1484                                   23922933.6644
                                                                        40.2504
        26.0004
 09 10 27 23 52 30.0000000  0  9G02G04G05G10G13G23G29G16G07
   3039294.06348   2380855.96146
                  21044537.2034                                   21044531.5744
                                                                        52.2504
        41.2504
   8636613.60947   6730930.39144
                  23642137.0314                                   23642135.4144
                                                                        44.7504
        27.0004
  -7193723.13748  -5558582.76246
                  21666420.9064                                   21666416.8204
                                                                        51.0004
        40.5004
  -6054002.46548  -4689262.73446
                  20975620.8524                                   20975617.3094
                                                                        51.5004
        40.5004
   2175757.46148   1709890.30545
                  21651131.8914                                   21651127.9264
                                                                        48.0004
        34.0004
   7699187.19146   6002723.75844
                  24095238.3444                                   24095232.0164
                                                                        41.0004
        24.5004
  -3341460.10248  -2581440.68746
                  22119971.1484                                   22119967.7774
                                                                        49.7504
        38.0004
   1117986.25846    904888.21543
                  23933114.2114                                   23933108.8484
                                                                        41.2504
        21.7504
   1417695.19546   1140725.86344
                  23889666.3984                                   23889663.1804
                                                                        40.0004
        25.7504
 09 10 27 23 53  0.0000000  0  9G02G04G05G10G13G23G29G16G07
   3009387.22748   2357551.93046
                  21038845.9534                                   21038840.3204
                                                                        53.0004
        41.0004
   8660425.99247   6749485.27744
                  23646668.4224                                   23646666.4024
                                                                        45.2504
        27.7504
  -7354339.55948  -5683738.41846
                  21635856.5164                                   21635853.0314
                                                                        51.7504
        40.7504
  -6196196.52348  -4800063.28146
                  20948562.1254                                   20948558.3714
                                                                        51.2504
        40.7504
   2138748.80948   1681052.39845
                  21644089.1024                                   21644084.8364
                                                                        48.7504
        33.2504
   7715737.13747   6015619.81643
                  24098387.4144                                   24098381.6334
                                                                        42.0004
        22.0004
  -3446749.53548  -2663484.40246
                  22099935.2424                                   22099932.3874
                                                                        49.5004
        38.0004
    986947.75446    802780.25043
                  23908178.3524                                   23908173.3484
                                                                        40.7504
        20.7504
   1243239.33246   1004786.40244
                  23856468.7584                                   23856465.0354
                                                                        40.2504
        27.0004
 09 10 27 23 53 30.0000000  0  9G02G04G05G10G13G23G29G16G07
   2980035.87548   2334680.73846
                  21033260.7504                                   21033255.3054
                                                                        52.5004
        41.0004
   8684458.04747   6768211.28944
                  23651242.3594                                   23651239.7274
                                                                        44.5004
        26.7504
  -7514517.02748  -5808552.02046
                  21605376.1174                                   21605372.4414
                                                                        51.5004
        41.2504
  -6337847.73048  -4910440.85246
                  20921606.8754                                   20921603.6024
                                                                        51.5004
        41.0004
   2102360.74648   1652698.07045
                  21637164.5314                                   21637160.3794
                                                                        49.0004
        33.5004
   7732584.11346   6028747.28543
                  24101593.0784                                   24101587.3834
                                                                        41.5004
        22.7504
  -3551401.58248  -2745031.45346
                  22080020.5314                                   22080017.5314
                                                                        49.7504
        38.0004
    856496.93446    701130.26243
                  23883354.1484                                   23883349.4774
                                                                        41.0004
        21.5004
   1069168.21147    869146.51644
                  23823343.6094                                   23823340.1724
                                                                        42.5004
        28.0004
 09 10 27 23 54  0.0000000  0  9G02G04G05G10G13G23G29G16G07
   2951237.21948   2312240.22746
                  21027780.8444                                   21027775.2194
                                                                        51.7504
        41.0004
   8708705.80147   6787105.19544
                  23655856.9224                                   23655854.2304
                                                                        44.7504
        28.5004
  -7674255.96948  -5933023.92646
                  21574978.5784                                   21574974.9064
                                                                        50.7504
        40.7504
  -6478956.93748  -5020396.09046
                  20894754.2974                                   20894751.1414
                                                                        51.0004
        41.0004
   2066590.00448   1624824.76245
                  21630357.8204                                   21630353.8014
                                                                        48.5004
        34.0004
   7749723.88746   6042102.91044
                  24104854.6954                                   24104848.9184
                                                                        40.5004
        24.0004
  -3655417.73448  -2826083.00446
                  22060227.2424                                   22060223.7464
                                                                        49.0004
        38.2504
    726633.25846    599937.79343
                  23858642.1174                                   23858637.4734
                                                                        41.0004
        20.7504
    895484.60547    733808.85544
                  23790293.3984                                   23790289.3204
                                                                        42.5004
        27.5004
 09 10 27 23 54 30.0000000  0  9G02G04G05G10G13G23G29G16G07
   2922987.91848   2290227.78546
                  21022405.1024                                   21022399.6214
                                                                        51.5004
        40.7504
   8733165.99247   6806164.67644
                  23660511.4384                                   23660508.8754
                                                                        43.0004
        27.0004
  -7833556.03548  -6057153.82046
                  21544664.7274                                   21544660.8594
                                                                        50.7504
        41.0004
  -6619524.10948  -5129928.95346
                  20868005.5634                                   20868001.7774
                                                                        51.7504
        40.7504
   2031432.48448   1597429.28545
                  21623667.6564                                   21623663.3134
                                                                        48.7504
        33.7504
   7767151.96146   6055683.16043
                  24108171.0944                                   24108165.6644
                                                                        40.7504
        21.5004
  -3758798.32848  -2906639.29746
                  22040554.1884                                   22040551.1334
                                                                        50.2504
        37.7504
    597356.65646    499202.80143
                  23834041.5784                                   23834037.4414
                                                                        41.7504
        22.5004
    722188.46947    598773.07844
                  23757316.5164                                   23757311.8284
                                                                        43.2504
        27.0004
 09 10 27 23 55  0.0000000  0  9G02G04G05G10G13G23G29G16G07
   2895289.06648   2268644.26246
                  21017134.2424                                   21017128.4844
                                                                        51.5004
        40.7504
   8757840.73847   6825392.53944
                  23665206.4064                                   23665204.3364
                                                                        44.5004
        25.5004
  -7992413.36348  -6180938.75846
                  21514435.3364                                   21514431.8594
                                                                        51.5004
        40.5004
  -6759545.40248  -5239036.44946
                  20841360.5234                                   20841356.9264
                                                                        51.2504
        41.0004
   1996889.10248   1570512.38345
                  21617094.5314                                   21617090.3634
                                                                        49.5004
        33.2504
   7784868.44546   6069488.20743
                  24111542.7274                                   24111536.5084
                                                                        41.0004
        18.5004
  -3861540.42648  -2986698.09846
                  22021003.0704                                   22021000.0864
                                                                        50.2504
        38.7504
    468671.74247    398928.84043
                  23809553.6804                                   23809550.1024
                                                                        42.5004
        22.0004
    549285.39846    464043.67244
                  23724412.7734                                   23724409.4734
                                                                        41.2504
        27.2504
 09 10 27 23 55 30.0000000  0  9G02G04G05G10G13G23G29G16G07
   2868138.28148   2247487.78146
                  21011967.3594                                   21011961.7704
                                                                        51.7504
        41.0004
   8782723.31347   6844781.39144
                  23669942.0234                                   23669940.4024
                                                                        43.7504
        27.0004
  -8150826.83248  -6304377.81246
                  21484290.0704                                   21484286.3444
                                                                        50.5004
        40.7504
  -6899020.45348  -5347718.30546
                  20814819.3834                                   20814815.6884
                                                                        52.0004
        40.5004
   1962956.74648   1544071.57045
                  21610637.2194                                   21610632.9384
                                                                        49.2504
        34.2504
   7802869.44146   6083514.94543
                  24114968.1564                                   24114961.4024
                                                                        40.5004
        19.0004
  -3963644.37948  -3066259.63746
                  22001573.5314                                   22001570.0904
                                                                        48.7504
        38.0004
    340578.69546    299116.08244
                  23785178.4924                                   23785174.8754
                                                                        41.0004
        24.5004
    376777.16447    329621.96544
                  23691585.5234                                   23691582.1254
                                                                        42.5004
        26.7504
 09 10 27 23 56  0.0000000  0  9G02G04G05G10G13G23G29G16G07
   2841532.75848   2226756.21146
                  21006904.6884                                   21006899.1374
                                                                        51.7504
        41.0004
   8807813.08247   6864332.26244
                  23674716.0164                                   23674713.5474
                                                                        42.2504
        26.5004
  -8308796.24248  -6427470.86746
                  21454229.4144                                   21454225.9454
                                                                        51.0004
        41.0004
  -7037949.30148  -5455974.56246
                  20788382.2274                                   20788378.6564
                                                                        52.0004
        40.5004
   1929632.39148   1518104.54745
                  21604295.5314                                   21604291.8444
                                                                        48.7504
        32.7504
   7821151.34446   6097760.54743
                  24118446.8914                                   24118440.9144
                                                                        40.0004
        19.7504
  -4065110.80948  -3145324.39146
                  21982265.1954                                   21982261.9774
                                                                        49.5004
        38.5004
    213077.96146    199764.88343
                  23760915.6954                                   23760911.5744
                                                                        41.0004
        22.7504
    204665.07446    195508.69944
                  23658833.2344                                   23658830.0514
                                                                        41.5004
        24.0004
 09 10 27 23 56 30.0000000  0  9G02G04G05G10G13G23G29G16G07
   2815468.13348   2206446.11346
                  21001944.8834                                   21001939.2114
                                                                        52.2504
        40.7504
   8833102.75847   6884038.28444
                  23679528.4694                                   23679525.6844
                                                                        42.2504
        26.2504
  -8466322.39548  -6550218.51246
                  21424253.2894                                   21424249.4494
                                                                        50.0004
        41.5004
  -7176332.58248  -5563805.68746
                  20762048.4534                                   20762044.9494
                                                                        52.0004
        41.0004
   1896911.06348   1492607.42245
                  21598068.8674                                   21598064.9774
                                                                        48.2504
        33.5004
   7839708.73847   6112220.84443
                  24121978.3834                                   24121972.1214
                                                                        42.2504
        21.0004
  -4165941.08048  -3223893.42046
                  21963078.0084                                   21963074.9774
                                                                        49.2504
        38.2504
     86169.04746    100874.84044
                  23736765.7734                                   23736762.0314
                                                                        41.7504
        24.7504
     32949.43046     61704.44344
                  23626156.5554                                   23626153.5514
                                                                        40.5004
        26.7504
 09 10 27 23 57  0.0000000  0  8G02G04G05G10G13G29G16G07
   2789943.92648   2186557.11746
                  20997087.4224                                   20997082.1684
                                                                        52.0004
        41.0004
   8858593.40647   6903901.09844
                  23684378.7344                                   23684377.0004
                                                                        42.2504
        26.5004
  -8623403.52748  -6672619.40246
                  21394361.7734                                   21394357.9734
                                                                        51.0004
        41.0004
  -7314168.93448  -5671210.63746
                  20735819.0164                                   20735815.8444
                                                                        52.0004
        41.0004
   1864791.79348   1467579.43845
                  21591956.5164                                   21591952.6644
                                                                        48.0004
        33.7504
  -4266135.36348  -3301966.89146
                  21944011.7664                                   21944007.8164
                                                                        49.2504
        38.5004
    -40146.55946      2447.09844
                  23712728.9144                                   23712724.7464
                                                                        41.7504
        24.0004
   -138365.71947    -71787.75444
                  23593557.0394                                   23593553.0354
                                                                        42.5004
        26.7504
 09 10 27 23 57 30.0000000  0  8G02G04G05G10G13G29G16G07
   2764959.35948   2167088.60946
                  20992333.3754                                   20992327.9654
                                                                        51.5004
        40.5004
   8884283.26247   6923919.33644
                  23689267.8914                                   23689265.7424
                                                                        42.7504
        27.0004
  -8780036.35948  -6794670.96146
                  21364555.3754                                   21364551.9574
                                                                        50.5004
        41.2504
  -7451455.91448  -5778187.51246
                  20709694.3204                                   20709690.7194
                                                                        51.7504
        41.0004
   1833273.45748   1443019.69945
                  21585958.8594                                   21585955.0944
                                                                        48.7504
        33.2504
  -4365690.96148  -3379542.69146
                  21925066.4614                                   21925062.8134
                                                                        49.5004
        39.0004
   -165865.99247    -95516.08644
                  23688805.6094                                   23688801.0784
                                                                        42.0004
        24.2504
   -309276.81247   -204965.12544
                  23561033.5234                                   23561029.3014
                                                                        42.5004
        26.2504
 09 10 27 23 58  0.0000000  0  8G02G04G05G10G13G29G16G07
   2740515.96948   2148041.78946
                  20987681.5474                                   20987676.2194
                                                                        50.5004
        40.2504
   8910172.83247   6944093.20344
                  23694194.5474                                   23694191.8324
                                                                        42.7504
        27.2504
  -8936216.22748  -6916369.55146
                  21334835.3594                                   21334831.9264
                                                                        50.0004
        40.5004
  -7588189.17248  -5884732.90246
                  20683674.9694                                   20683671.5634
                                                                        52.2504
        41.2504
   1802356.80548   1418928.81645
                  21580075.5394                                   21580071.3634
                                                                        48.7504
        33.0004
  -4464604.45348  -3456618.11746
                  21906244.3444                                   21906240.7344
                                                                        48.0004
        38.7504
   -290985.69947   -193011.95344
                  23664995.8054                                   23664991.6414
                                                                        42.2504
        26.0004
   -479778.35247   -337823.44544
                  23528588.1024                                   23528584.0314
                                                                        43.7504
        27.7504
 09 10 27 23 58 30.0000000  0  8G02G04G05G10G13G29G16G07
   2716611.98448   2129415.29746
                  20983132.8364                                   20983127.2504
                                                                        51.2504
        40.2504
   8936260.02747   6964421.10244
                  23699158.8984                                   23699155.4264
                                                                        43.5004
        27.2504
  -9091942.24648  -7037714.52346
                  21305201.8594                                   21305198.0124
                                                                        50.0004
        41.5004
  -7724367.68748  -5990846.03946
                  20657760.8134                                   20657757.6994
                                                                        52.5004
        41.5004
   1772040.09048   1395305.40645
                  21574306.8524                                   21574303.3014
                                                                        48.7504
        33.0004
  -4562876.05548  -3533193.39146
                  21887543.3204                                   21887540.0744
                                                                        49.0004
        38.5004
   -415502.82047   -290038.27744
                  23641300.7584                                   23641296.5704
                                                                        42.0004
        25.7504
   -649867.10947   -470360.14544
                  23496222.0474                                   23496217.5234
                                                                        43.0004
        28.5004
 09 10 27 23 59  0.0000000  0  8G02G04G05G10G13G29G16G07
   2693243.53148   2111206.06346
                  20978686.2504                                   20978680.3364
                                                                        51.0004
        40.2504
   8962539.85947   6984898.87144
                  23704159.4924                                   23704156.0044
                                                                        42.2504
        24.5004
  -9247214.41848  -7158705.83647
                  21275654.5784                                   21275650.6484
                                                                        50.7504
        42.0004
  -7859992.24248  -6096527.51646
                  20631952.5634                                   20631948.9264
                                                                        52.0004
        41.5004
   1742318.69948   1372145.89145
                  21568650.8834                                   21568647.2704
                                                                        49.0004
        32.5004
  -4660506.62148  -3609269.16046
                  21868965.1954                                   21868961.2814
                                                                        49.0004
        39.0004
   -539418.73847   -386596.09844
                  23617720.8984                                   23617716.3554
                                                                        42.0004
        25.2504
   -819543.07847   -602575.09844
                  23463932.8444                                   23463929.2034
                                                                        43.7504
        28.2504
 09 10 27 23 59 30.0000000  0  8G02G04G05G10G13G29G16G07
   2670404.52748   2093409.42246
                  20974340.1334                                   20974334.4414
                                                                        51.2504
        40.5004
   8989006.09847   7005521.78143
                  23709195.1024                                   23709192.3364
                                                                        42.0004
        22.7504
  -9402035.62948  -7279345.73446
                  21246193.1484                                   21246189.2194
                                                                        51.0004
        41.5004
  -7995066.19548  -6201779.94146
                  20606248.7734                                   20606245.0514
                                                                        52.7504
        41.0004
   1713185.84048   1349444.97345
                  21563107.1644                                   21563103.0124
                                                                        48.2504
        33.0004
  -4757500.27748  -3684848.63746
                  21850507.8594                                   21850504.3794
                                                                        48.7504
        39.0004
   -662736.39547   -482687.77344
                  23594254.5164                                   23594250.2464
                                                                        42.2504
        24.5004
   -988808.23047   -734469.98444
                  23431723.2664                                   23431719.3874
                                                                        43.2504
        29.0004
