     2.11           OBSERVATION DATA    G (GPS)             RINEX VERSION / TYPE
teqc  2019Feb25                         20221121 12:28:06UTCPGM / RUN BY / DATE
OSX ker:10.11.6|Core i5|gcc 4.3 -m64|OSX ker:10.10+|=+      COMMENT
BIT 2 OF LLI FLAGS DATA COLLECTED UNDER A/S CONDITION       COMMENT
04712800                                                    MARKER NAME
2800                                                        MARKER NUMBER
-Unknown-           -Unknown-                               OBSERVER / AGENCY
0220400471          TRIMBLE R7          2.30                REC # / TYPE / VERS
-Unknown-           TRM39105.00     NONE                    ANT # / TYPE
  1449460.8532 -1709239.8473  5952444.0122                  APPROX POSITION XYZ
        0.0000        0.0000        0.0000                  ANTENNA: DELTA H/E/N
     1     1                                                WAVELENGTH FACT L1/2
    20    L1    L2    L5    L6    L7    L8    C1    P1    C2# / TYPES OF OBSERV
          P2    C5    C6    C7    C8    S1    S2    S5    S6# / TYPES OF OBSERV
          S7    S8                                          # / TYPES OF OBSERV
    30.0000                                                 INTERVAL
    15                                                      LEAP SECONDS
Forced Modulo Decimation to 30 seconds                      COMMENT
 SNR is mapped to RINEX snr flag value [0-9]                COMMENT
  L1 & L2: min(max(int(snr_dBHz/6), 0), 9)                  COMMENT
teqc edited: Beidou # 1 - 37 excluded                       COMMENT
  2009    10     7     0     0    0.0000000     GPS         TIME OF FIRST OBS
                                                            END OF HEADER
 09 10  7  0  0  0.0000000  0  9G02G04G12G13G29G10G23G30G31
 -15395736.21948 -11924537.53947
                  20706971.0944                                   20706965.3204
                                                                        52.0004
        42.7504
  -7068627.87148  -5473817.14846
                  21031620.7424                                   21031617.1524
                                                                        52.7504
        41.7504
  -1591640.35947  -1226206.69144
                  24463093.0164                                   24463089.4414
                                                                        42.7504
        26.0004
 -17681466.26248 -13712849.28545
                  21726868.1954                                   21726863.8674
                                                                        49.5004
        35.0004
  -4784250.15647  -3687923.00044
                  24025194.2664                                   24025191.4344
                                                                        42.0004
        26.5004
  -2959912.35546  -2291269.36344
                  23911226.5084                                   23911222.8914
                                                                        41.0004
        26.2504
  -9565184.92248  -7412125.99645
                  22022342.3134                                   22022335.9224
                                                                        48.7504
        34.0004
  -6509471.68047  -5037681.58244
                  23124580.8524                                   23124577.8524
                                                                        44.0004
        27.5004
  -7006666.31646  -5426794.53144
                  24157286.1334                                   24157282.1484
                                                                        41.7504
        24.0004
 09 10  7  0  0 30.0000000  0  9G02G04G12G13G29G10G23G30G31
 -15517622.02048 -12019513.48047
                  20683776.7664                                   20683770.9734
                                                                        52.0004
        42.7504
  -7106291.00448  -5503165.02046
                  21024453.7194                                   21024450.2974
                                                                        52.5004
        41.5004
  -1584477.12947  -1220624.89544
                  24464456.2034                                   24464452.3204
                                                                        43.2504
        25.5004
 -17824186.61748 -13824059.96545
                  21699709.2974                                   21699704.6994
                                                                        49.7504
        35.2504
  -4969155.59046  -3832005.09044
                  23990007.5944                                   23990004.9844
                                                                        40.5004
        27.2504
  -3165312.03147  -2451321.02343
                  23872139.8364                                   23872136.0164
                                                                        42.2504
        23.5004
  -9622643.73448  -7456899.12145
                  22011408.0864                                   22011401.7194
                                                                        49.2504
        34.7504
  -6537337.41847  -5059395.15644
                  23119278.7814                                   23119275.6454
                                                                        44.5004
        28.7504
  -7042606.12147  -5454799.61744
                  24150446.5784                                   24150443.3794
                                                                        42.0004
        24.2504
 09 10  7  0  1  0.0000000  0  9G02G04G12G13G29G10G23G30G31
 -15638920.36348 -12114031.64847
                  20660694.5554                                   20660688.6414
                                                                        51.7504
        43.2504
  -7143406.12948  -5532085.91046
                  21017391.1564                                   21017387.6564
                                                                        53.2504
        41.5004
  -1576997.66847  -1214796.88344
                  24465879.5164                                   24465875.4224
                                                                        43.2504
        26.5004
 -17966262.68048 -13934768.57845
                  21672673.0004                                   21672668.5204
                                                                        49.7504
        35.2504
  -5153719.09046  -3975820.77044
                  23954886.1334                                   23954883.0984
                                                                        40.7504
        26.5004
  -3370492.25846  -2611201.75044
                  23833095.3054                                   23833092.0984
                                                                        41.7504
        27.0004
  -9679448.03148  -7501162.24245
                  22000598.6564                                   22000592.4694
                                                                        48.7504
        34.5004
  -6564600.17647  -5080638.84445
                  23114090.4144                                   23114087.6094
                                                                        45.7504
        30.2504
  -7077988.67646  -5482370.43044
                  24143714.3284                                   24143709.7384
                                                                        41.5004
        24.0004
 09 10  7  0  1 30.0000000  0  9G02G04G12G13G29G10G23G30G31
 -15759627.90648 -12208089.46147
                  20637724.6644                                   20637718.6844
                                                                        51.5004
        43.0004
  -7179972.62548  -5560579.27046
                  21010432.7114                                   21010429.3204
                                                                        52.0004
        41.2504
  -1569202.51247  -1208722.83644
                  24467362.9304                                   24467359.1564
                                                                        42.2504
        27.2504
 -18107690.75048 -14044972.30946
                  21645760.2424                                   21645755.7814
                                                                        49.7504
        36.0004
  -5337936.59046  -4119366.86744
                  23919830.7114                                   23919827.6994
                                                                        40.5004
        27.0004
  -3575448.68747  -2770908.14844
                  23794093.7664                                   23794090.4024
                                                                        43.2504
        28.2504
  -9735596.83248  -7544914.51645
                  21989913.7664                                   21989907.5204
                                                                        48.7504
        34.0004
  -6591260.51247  -5101413.12144
                  23109017.3204                                   23109013.9494
                                                                        45.0004
        29.2504
  -7112814.21147  -5509507.20344
                  24137087.4144                                   24137082.3054
                                                                        42.5004
        24.0004
 09 10  7  0  2  0.0000000  0  9G02G04G12G13G29G10G23G30G31
 -15879752.06248 -12301692.70347
                  20614865.9064                                   20614860.1484
                                                                        52.5004
        42.7504
  -7216000.69548  -5588653.10246
                  21003576.8524                                   21003573.2734
                                                                        51.5004
        41.0004
  -1561102.99646  -1202411.51644
                  24468904.2894                                   24468900.3954
                                                                        41.5004
        25.5004
 -18248477.40648 -14154676.18046
                  21618969.0164                                   21618965.0664
                                                                        50.2504
        36.0004
  -5521813.41446  -4262647.50444
                  23884840.3364                                   23884837.0594
                                                                        41.5004
        26.0004
  -3780187.32847  -2930444.72344
                  23755133.1564                                   23755129.8244
                                                                        43.7504
        27.2504
  -9791100.39848  -7588164.06645
                  21979351.9924                                   21979345.2584
                                                                        49.0004
        33.5004
  -6617329.58647  -5121726.68744
                  23104056.5634                                   23104053.3324
                                                                        45.0004
        29.2504
  -7147093.01246  -5536217.94144
                  24130564.2114                                   24130559.0904
                                                                        40.5004
        26.2504
 09 10  7  0  2 30.0000000  0  9G02G04G12G13G29G10G23G30G31
 -15999287.84848 -12394837.45747
                  20592118.6174                                   20592112.9024
                                                                        52.5004
        42.5004
  -7251487.82448  -5616305.38746
                  20996823.6724                                   20996820.3984
                                                                        52.7504
        40.7504
  -1552698.54746  -1195862.67244
                  24470503.1954                                   24470500.1094
                                                                        40.7504
        25.5004
 -18388617.14548 -14263875.99246
                  21592301.5234                                   21592297.4104
                                                                        50.0004
        36.0004
  -5705343.55147  -4405657.98844
                  23849915.5314                                   23849913.2504
                                                                        42.0004
        27.7504
  -3984702.52747  -3089807.23044
                  23716215.3444                                   23716212.1094
                                                                        43.7504
        28.0004
  -9845956.12948  -7630908.81245
                  21968913.0784                                   21968906.9184
                                                                        49.5004
        33.7504
  -6642806.12147  -5141578.56244
                  23099208.2974                                   23099205.1294
                                                                        45.7504
        29.2504
  -7180823.82847  -5562501.68044
                  24124146.1094                                   24124140.7624
                                                                        43.0004
        28.5004
 09 10  7  0  3  0.0000000  0  9G02G04G12G13G29G10G23G30G31
 -16118234.82848 -12487523.42647
                  20569484.1724                                   20569478.0594
                                                                        52.7504
        42.7504
  -7286436.25048  -5643537.93046
                  20990173.3204                                   20990169.6604
                                                                        52.2504
        40.5004
  -1543992.50046  -1189078.58244
                  24472160.0704                                   24472156.2974
                                                                        40.0004
        26.0004
 -18528108.67248 -14372570.76245
                  21565757.0944                                   21565752.9534
                                                                        50.5004
        35.7504
  -5888525.14546  -4548396.79744
                  23815057.3594                                   23815054.6644
                                                                        40.2504
        27.0004
  -4188992.30147  -3248994.03144
                  23677339.9534                                   23677336.7304
                                                                        44.0004
        28.5004
  -9900165.51248  -7673149.80945
                  21958597.7274                                   21958590.8984
                                                                        48.7504
        33.5004
  -6667693.01647  -5160970.95344
                  23094472.1484                                   23094469.5634
                                                                        45.2504
        28.7504
  -7214008.62946  -5588359.95744
                  24117830.7974                                   24117825.8484
                                                                        41.0004
        29.2504
 09 10  7  0  3 30.0000000  0  9G02G04G12G13G29G10G23G30G31
 -16236592.97748 -12579750.53947
                  20546961.3364                                   20546955.5824
                                                                        52.2504
        42.7504
  -7320848.05148  -5670352.30946
                  20983624.8594                                   20983621.2234
                                                                        52.0004
        41.0004
  -1534989.41846  -1182063.31644
                  24473873.6804                                   24473870.2154
                                                                        41.0004
        28.5004
 -18666951.44548 -14480760.05546
                  21539336.3054                                   21539332.2234
                                                                        50.0004
        36.0004
  -6071356.64846  -4690862.82044
                  23780265.0164                                   23780263.0234
                                                                        40.5004
        28.0004
  -4393055.61347  -3408004.27744
                  23638508.1094                                   23638505.0434
                                                                        44.2504
        29.0004
  -9953731.19548  -7714889.30945
                  21948403.9304                                   21948397.6454
                                                                        49.0004
        33.5004
  -6691994.12147  -5179906.91844
                  23089848.1644                                   23089845.3164
                                                                        44.5004
        27.2504
  -7246650.48847  -5613795.18744
                  24111619.6884                                   24111614.9384
                                                                        42.5004
        28.0004
 09 10  7  0  4  0.0000000  0  9G02G04G12G13G29G10G23G30G31
 -16354358.90248 -12671516.14847
                  20524551.0944                                   20524545.2234
                                                                        52.2504
        43.2504
  -7354723.32848  -5696748.62546
                  20977178.4614                                   20977175.3054
                                                                        51.2504
        41.2504
  -1525689.39547  -1174816.50044
                  24475643.2584                                   24475639.8754
                                                                        42.0004
        27.2504
 -18805141.46548 -14588440.66846
                  21513039.9614                                   21513035.6604
                                                                        50.2504
        36.0004
  -6253834.10247  -4833053.00044
                  23745541.0164                                   23745538.3914
                                                                        42.5004
        27.0004
  -4596888.86747  -3566835.30144
                  23599719.7194                                   23599716.8054
                                                                        42.7504
        27.2504
 -10006652.44548  -7756126.68745
                  21938333.7274                                   21938327.5824
                                                                        49.0004
        34.7504
  -6715710.14147  -5198387.01644
                  23085335.0394                                   23085331.9184
                                                                        43.7504
        26.0004
  -7278749.41046  -5638807.34444
                  24105511.3754                                   24105506.7424
                                                                        40.5004
        27.5004
 09 10  7  0  4 30.0000000  0  8G02G04G13G29G10G23G30G31
 -16471532.85548 -12762820.51647
                  20502253.5234                                   20502247.8914
                                                                        51.7504
        43.0004
  -7388063.78548  -5722728.18746
                  20970834.1484                                   20970830.7464
                                                                        53.0004
        41.0004
 -18942677.86348 -14695611.84846
                  21486867.5944                                   21486863.1564
                                                                        49.7504
        36.0004
  -6435955.09447  -4974965.37544
                  23710884.9774                                   23710881.9384
                                                                        43.5004
        28.7504
  -4800490.52747  -3725485.99644
                  23560975.4614                                   23560971.9184
                                                                        42.7504
        27.5004
 -10058931.38348  -7796863.54345
                  21928385.1174                                   21928379.4104
                                                                        49.0004
        34.2504
  -6738844.03547  -5216413.46144
                  23080932.8134                                   23080930.1454
                                                                        43.5004
        26.7504
  -7310307.96947  -5663398.43744
                  24099505.2114                                   24099501.0904
                                                                        42.5004
        26.2504
 09 10  7  0  5  0.0000000  0  8G02G04G13G29G10G23G30G31
 -16588114.29348 -12853663.20347
                  20480068.9694                                   20480062.8834
                                                                        52.0004
        42.7504
  -7420872.34048  -5748293.29746
                  20964590.6884                                   20964587.2504
                                                                        52.7504
        40.7504
 -19079560.25048 -14802273.54746
                  21460819.7114                                   21460815.2774
                                                                        50.5004
        36.2504
  -6617718.52347  -5116599.22744
                  23676296.5314                                   23676293.2934
                                                                        43.7504
        28.0004
  -5003859.16447  -3883955.13344
                  23522276.4304                                   23522272.7114
                                                                        42.0004
        27.0004
 -10110570.28948  -7837101.68745
                  21918559.2734                                   21918552.6414
                                                                        49.5004
        34.0004
  -6761399.51247  -5233989.18044
                  23076640.3674                                   23076637.6604
                                                                        44.0004
        28.0004
  -7341329.92647  -5687571.41044
                  24093601.7814                                   24093598.1214
                                                                        42.0004
        26.0004
 09 10  7  0  5 30.0000000  0  8G02G04G13G29G10G23G30G31
 -16704098.96548 -12944040.86347
                  20457997.8364                                   20457991.7464
                                                                        52.2504
        42.5004
  -7453147.11748  -5773442.46946
                  20958449.3284                                   20958445.7774
                                                                        52.2504
        41.0004
 -19215783.22348 -14908421.21146
                  21434896.9304                                   21434892.8244
                                                                        51.2504
        36.0004
  -6799118.44547  -5257949.77744
                  23641777.0784                                   23641773.8554
                                                                        43.5004
        27.5004
  -5206989.47347  -4042238.58244
                  23483621.7274                                   23483618.3954
                                                                        42.0004
        26.0004
 -10161567.56248  -7876839.84445
                  21908854.1174                                   21908847.9144
                                                                        49.0004
        34.5004
  -6783376.20747  -5251113.88744
                  23072459.3054                                   23072455.7034
                                                                        42.7504
        26.7504
  -7371814.12946  -5711325.35944
                  24087801.8444                                   24087796.8324
                                                                        39.2504
        25.5004
 09 10  7  0  6  0.0000000  0  8G02G04G13G29G10G23G30G31
 -16819482.59848 -13033950.18047
                  20436040.9614                                   20436034.9384
                                                                        52.0004
        43.0004
  -7484886.25048  -5798174.23446
                  20952409.2894                                   20952405.8284
                                                                        52.7504
        40.7504
 -19351342.27748 -15014051.70345
                  21409101.0944                                   21409096.8594
                                                                        50.5004
        35.5004
  -6980148.88747  -5399012.41044
                  23607328.1884                                   23607325.1564
                                                                        43.5004
        27.7504
  -5409875.28947  -4200331.37144
                  23445013.7194                                   23445010.2194
                                                                        42.5004
        29.0004
 -10211921.19148  -7916076.43445
                  21899272.4774                                   21899266.0084
                                                                        49.7504
        33.7504
  -6804773.35947  -5267787.02344
                  23068387.0164                                   23068384.0634
                                                                        43.2504
        25.5004
  -7401758.81646  -5734658.92644
                  24082102.6804                                   24082098.8164
                                                                        39.0004
        24.5004
 09 10  7  0  6 30.0000000  0  8G02G04G13G29G10G23G30G31
 -16934264.84848 -13123390.91047
                  20414198.6094                                   20414192.6374
                                                                        52.0004
        43.2504
  -7516092.52348  -5822490.83246
                  20946471.1254                                   20946467.5204
                                                                        52.0004
        40.2504
 -19486236.15248 -15119163.74646
                  21383431.8754                                   21383427.3594
                                                                        50.7504
        36.0004
  -7160808.33647  -5539785.93744
                  23572949.9224                                   23572946.8874
                                                                        43.5004
        27.0004
  -5612516.27047  -4358233.56644
                  23406452.6644                                   23406449.0904
                                                                        42.2504
        29.5004
 -10261633.49248  -7954813.30145
                  21889812.7734                                   21889806.5824
                                                                        49.5004
        34.5004
  -6825594.52747  -5284011.37144
                  23064424.7194                                   23064421.7544
                                                                        43.5004
        27.5004
  -7431167.15246  -5757574.51244
                  24076507.2504                                   24076502.3914
                                                                        41.2504
        26.7504
 09 10  7  0  7  0.0000000  0  8G02G04G13G29G10G23G30G31
 -15473025.16848 -11984762.59047
                  20692263.0474                                   20692257.3404
                                                                        52.5004
        43.0004
  -5971349.62148  -4618795.05946
                  21240425.6024                                   21240422.3014
                                                                        51.7504
        40.5004
 -18045042.65248 -13996155.66445
                  21657681.5004                                   21657677.7034
                                                                        50.5004
        35.7504
  -5765672.13747  -4452666.75444
                  23838434.5314                                   23838432.0704
                                                                        43.5004
        27.0004
  -4239487.13747  -3288340.78144
                  23667731.5004                                   23667728.2814
                                                                        42.5004
        29.7504
  -8735287.78548  -6765453.00445
                  22180266.4774                                   22180260.6804
                                                                        49.5004
        34.5004
  -5270425.10247  -4072191.00444
                  23360363.9774                                   23360360.7304
                                                                        43.5004
        29.5004
  -5884623.93746  -4552475.87544
                  24370804.7034                                   24370799.4534
                                                                        39.0004
        25.5004
 09 10  7  0  7 30.0000000  0  9G02G04G05G13G29G10G23G30G31
 -15586615.98448 -12073274.94547
                  20670647.8204                                   20670641.5864
                                                                        52.2504
        42.7504
  -6001507.98848  -4642295.07846
                  21234686.6804                                   21234682.8554
                                                                        52.7504
        40.7504
   1311203.68057   1036513.15654
                  24448995.3914                                   24448991.8634
                                                                        45.0004
        27.5004
 -18178615.40248 -14100238.18046
                  21632263.3834                                   21632259.5474
                                                                        51.0004
        36.5004
  -5945595.98847  -4592867.08644
                  23804197.1564                                   23804193.5514
                                                                        44.0004
        28.7504
  -4441644.67246  -3445866.03144
                  23629261.6804                                   23629259.0394
                                                                        41.7504
        29.0004
  -8783735.00048  -6803204.03145
                  22171047.4224                                   22171040.8754
                                                                        49.7504
        34.0004
  -5290115.67247  -4087534.35944
                  23356616.7664                                   23356613.8404
                                                                        44.7504
        28.5004
  -5912979.84847  -4574571.39844
                  24365407.7034                                   24365403.6954
                                                                        42.5004
        25.0004
 09 10  7  0  8  0.0000000  0  9G02G04G05G13G29G10G23G30G31
 -15699620.70348 -12161330.59047
                  20649143.7194                                   20649137.6844
                                                                        52.5004
        43.0004
  -6031156.25848  -4665397.65246
                  21229044.7504                                   21229041.1334
                                                                        51.7504
        40.5004
   1108090.56347    878243.26644
                  24410343.7664                                   24410340.6414
                                                                        42.7504
        28.5004
 -18311536.83648 -14203813.19546
                  21606969.2734                                   21606964.7344
                                                                        51.0004
        36.2504
  -6125159.90647  -4732786.98844
                  23770026.9774                                   23770023.5634
                                                                        44.0004
        28.5004
  -4643568.73047  -3603209.31645
                  23590836.7974                                   23590834.3094
                                                                        43.0004
        30.0004
  -8831563.53148  -6840473.02045
                  22161945.7974                                   22161939.4454
                                                                        49.5004
        34.2504
  -5309256.26647  -4102449.08244
                  23352974.3754                                   23352971.5554
                                                                        44.2504
        29.2504
  -5940824.05946  -4596268.18444
                  24360109.5704                                   24360105.0704
                                                                        39.5004
        25.5004
 09 10  7  0  8 30.0000000  0  9G02G04G05G13G29G10G23G30G31
 -15812043.60948 -12248932.86747
                  20627750.3754                                   20627743.8984
                                                                        52.0004
        43.0004
  -6060300.77748  -4688107.66446
                  21223499.2344                                   21223495.1334
                                                                        52.7504
        40.5004
    905128.67646    720091.22344
                  24371721.3524                                   24371718.6844
                                                                        40.7504
        28.0004
 -18443810.76248 -14306883.69946
                  21581798.3754                                   21581794.0634
                                                                        51.0004
        36.0004
  -6304365.94947  -4872428.02344
                  23735925.0234                                   23735921.9104
                                                                        44.7504
        29.2504
  -4845261.84447  -3760372.66444
                  23552456.5704                                   23552452.7114
                                                                        44.0004
        28.7504
  -8878779.86748  -6877264.99645
                  22152960.7344                                   22152954.5704
                                                                        48.7504
        33.7504
  -5327854.98047  -4116941.62544
                  23349435.3754                                   23349432.6764
                                                                        43.7504
        29.0004
  -5968163.40647  -4617571.56244
                  24354907.2814                                   24354902.6524
                                                                        43.0004
        26.0004
 09 10  7  0  9  0.0000000  0  9G02G04G05G13G29G10G23G30G31
 -15923882.60248 -12336080.20347
                  20606467.9694                                   20606462.3754
                                                                        52.5004
        43.0004
  -6088942.38348  -4710425.87146
                  21218048.7974                                   21218045.0314
                                                                        53.0004
        40.0004
    702320.67246    562059.05144
                  24333129.1804                                   24333125.1024
                                                                        40.7504
        26.0004
 -18575433.91848 -14409447.12946
                  21556751.4144                                   21556746.9064
                                                                        51.2504
        36.0004
  -6483210.89147  -5011787.71144
                  23701891.8914                                   23701889.2274
                                                                        45.5004
        29.2504
  -5046721.19547  -3917353.90644
                  23514119.5234                                   23514115.1174
                                                                        44.0004
        29.0004
  -8925384.30948  -6913580.14545
                  22144092.5864                                   22144086.0434
                                                                        48.5004
        33.5004
  -5345913.41447  -4131013.14144
                  23345999.3134                                   23345996.0434
                                                                        43.0004
        27.5004
  -5994999.39847  -4638482.72744
                  24349800.4454                                   24349796.2384
                                                                        43.0004
        24.7504
 09 10  7  0  9 30.0000000  0  9G02G04G05G13G29G10G23G30G31
 -16035133.23048 -12422768.98847
                  20585297.4844                                   20585291.7774
                                                                        52.2504
        42.7504
  -6117079.16048  -4732350.63746
                  21212694.8364                                   21212691.1524
                                                                        53.2504
        41.0004
    499672.43446    404151.42644
                  24294565.4304                                   24294562.1334
                                                                        41.2504
        28.0004
 -18706401.78548 -14511499.99646
                  21531828.5234                                   21531824.4694
                                                                        51.0004
        36.7504
  -6661688.86347  -5150861.47344
                  23667929.2734                                   23667925.5474
                                                                        45.0004
        29.2504
  -5247940.98847  -4074148.55944
                  23475828.9694                                   23475824.6524
                                                                        44.5004
        27.5004
  -8971375.10548  -6949417.09445
                  22135340.3444                                   22135334.1174
                                                                        49.0004
        34.0004
  -5363430.62147  -4144662.96944
                  23342665.7504                                   23342662.3954
                                                                        44.2504
        27.5004
  -6021330.71547  -4659000.62544
                  24344790.2814                                   24344785.6604
                                                                        42.5004
        25.2504
 09 10  7  0 10  0.0000000  0  9G02G04G05G13G29G10G23G30G31
 -16145791.35548 -12508996.08647
                  20564240.4534                                   20564234.3954
                                                                        52.0004
        42.5004
  -6144709.43748  -4753880.69946
                  21207436.9064                                   21207433.2074
                                                                        51.7504
        40.2504
    297188.62547    246371.94144
                  24256034.4924                                   24256031.1414
                                                                        43.2504
        29.5004
 -18836709.67248 -14613038.62546
                  21507032.3054                                   21507027.7074
                                                                        51.5004
        36.2504
  -6839793.98047  -5289644.66044
                  23634036.2504                                   23634033.3164
                                                                        44.5004
        29.2504
  -5448916.17247  -4230752.50844
                  23437584.3594                                   23437580.4694
                                                                        45.2504
        28.2504
  -9016750.63748  -6984774.56645
                  22126705.6094                                   22126699.4414
                                                                        49.7504
        33.0004
  -5380406.27747  -4157890.76644
                  23339434.7894                                   23339432.2194
                                                                        43.2504
        26.5004
  -6047156.50446  -4679124.60244
                  24339874.8834                                   24339871.0514
                                                                        39.5004
        26.0004
 09 10  7  0 10 30.0000000  0  9G02G04G05G13G29G10G23G30G31
 -16255852.76248 -12594758.19147
                  20543296.0944                                   20543289.9534
                                                                        52.5004
        43.0004
  -6171831.44948  -4775014.74246
                  21202275.7114                                   21202271.9774
                                                                        52.5004
        40.2504
     94874.56347     88724.67244
                  24217535.1954                                   24217531.4804
                                                                        43.2504
        28.0004
 -18966352.50448 -14714058.98446
                  21482362.1254                                   21482357.7544
                                                                        50.7504
        37.0004
  -7017520.29747  -5428132.68445
                  23600216.8204                                   23600212.9884
                                                                        44.0004
        30.0004
  -5649640.78947  -4387161.31244
                  23399387.3444                                   23399383.6294
                                                                        43.2504
        29.5004
  -9061509.32448  -7019651.46545
                  22118188.3134                                   22118181.8874
                                                                        49.5004
        33.5004
  -5396839.69947  -4170696.07844
                  23336308.1954                                   23336304.8634
                                                                        43.0004
        26.7504
  -6072475.41046  -4698853.63344
                  24335056.8524                                   24335052.6294
                                                                        41.5004
        24.5004
 09 10  7  0 11  0.0000000  0  9G02G04G05G13G29G10G23G30G31
 -16365316.18448 -12680054.36747
                  20522465.8914                                   20522460.1214
                                                                        52.2504
        43.0004
  -6198446.86748  -4795754.07446
                  21197210.6644                                   21197207.4024
                                                                        52.5004
        40.2504
   -107267.34047    -68788.49644
                  24179069.0864                                   24179065.6524
                                                                        43.0004
        28.7504
 -19095328.93048 -14814560.09846
                  21457818.3984                                   21457814.3244
                                                                        51.2504
        36.2504
  -7194865.21547  -5566323.47744
                  23566468.1564                                   23566465.2774
                                                                        43.5004
        29.0004
  -5850112.60247  -4543373.10945
                  23361238.5704                                   23361235.8714
                                                                        44.2504
        30.0004
  -9105652.38748  -7054048.65245
                  22109787.9614                                   22109782.5474
                                                                        49.7504
        34.0004
  -5412733.51647  -4183080.90244
                  23333283.4534                                   23333280.7664
                                                                        43.0004
        26.0004
  -6097289.57046  -4718189.36344
                  24330334.9844                                   24330330.3244
                                                                        41.7504
        24.7504
 09 10  7  0 11 30.0000000  0  9G02G04G05G13G29G10G23G30G31
 -16474181.48048 -12764884.47347
                  20501749.5474                                   20501743.7504
                                                                        52.0004
        43.0004
  -6224557.30548  -4816099.83646
                  21192242.1724                                   21192238.6374
                                                                        53.0004
        40.0004
   -309235.69947   -226166.42244
                  24140635.4064                                   24140631.9654
                                                                        42.2504
        28.5004
 -19223637.69948 -14914540.95346
                  21433402.1024                                   21433397.8444
                                                                        51.2504
        37.0004
  -7371826.80547  -5704215.60944
                  23532794.0704                                   23532790.8794
                                                                        43.2504
        29.2504
  -6050329.12147  -4699385.82445
                  23323139.1334                                   23323136.1644
                                                                        44.7504
        30.5004
  -9149181.60548  -7087967.49645
                  22101504.7974                                   22101498.5004
                                                                        49.0004
        33.2504
  -5428090.57447  -4195047.43444
                  23330361.3984                                   23330358.2074
                                                                        43.5004
        26.0004
  -6121601.28146  -4737133.55544
                  24325708.6644                                   24325704.2344
                                                                        41.2504
        25.7504
 09 10  7  0 12  0.0000000  0  9G02G04G05G13G29G10G23G30G31
 -16582447.54748 -12849247.60947
                  20481147.5784                                   20481141.1604
                                                                        52.0004
        42.5004
  -6250164.94148  -4836053.87546
                  21187369.2424                                   21187365.5594
                                                                        52.7504
        40.5004
   -511028.71946   -383407.73044
                  24102235.4384                                   24102232.2814
                                                                        41.0004
        27.7504
 -19351277.54348 -15014000.57446
                  21409113.2194                                   21409108.5514
                                                                        52.0004
        36.5004
  -7548402.35547  -5841806.91444
                  23499192.8594                                   23499189.4344
                                                                        43.5004
        29.7504
  -6250289.17247  -4855198.83645
                  23285088.0314                                   23285084.6724
                                                                        43.0004
        30.0004
  -9192098.79748  -7121409.46545
                  22093338.7194                                   22093331.8984
                                                                        48.7504
        33.5004
  -5442914.23047  -4206598.32444
                  23327540.6564                                   23327536.8404
                                                                        42.5004
        27.0004
  -6145413.08647  -4755688.20344
                  24321177.5634                                   24321173.0744
                                                                        43.2504
        25.7504
 09 10  7  0 12 30.0000000  0  9G02G04G05G13G29G10G23G30G31
 -16690109.02748 -12933139.64547
                  20460660.3594                                   20460654.0514
                                                                        51.7504
        43.0004
  -6275266.45348  -4855613.49646
                  21182592.8134                                   21182589.2194
                                                                        52.2504
        40.5004
   -712639.86347   -540507.30544
                  24063870.2114                                   24063867.0864
                                                                        42.0004
        29.5004
 -19478242.62148 -15112934.43446
                  21384952.2814                                   21384948.1174
                                                                        51.0004
        36.5004
  -7724584.77747  -5979091.88345
                  23465666.5554                                   23465663.3594
                                                                        44.2504
        30.7504
  -6449985.57447  -5010806.30144
                  23247086.8134                                   23247082.9844
                                                                        43.5004
        28.7504
  -9234401.33648  -7154372.49245
                  22085288.3914                                   22085281.9454
                                                                        49.5004
        34.0004
  -5457202.63347  -4217732.17644
                  23324821.6484                                   23324818.4694
                                                                        43.7504
        28.2504
  -6168722.85947  -4773851.64544
                  24316742.4614                                   24316737.0474
                                                                        43.5004
        25.5004
 09 10  7  0 13  0.0000000  0  9G02G04G05G13G29G10G23G30G31
 -16797170.78148 -13016564.41047
                  20440286.6954                                   20440280.9804
                                                                        52.2504
        43.0004
  -6299869.09848  -4874784.44146
                  21177910.8834                                   21177907.6644
                                                                        51.7504
        40.0004
   -914072.36347   -697467.71545
                  24025538.8284                                   24025535.6484
                                                                        43.0004
        30.2504
 -19604536.85548 -15211345.51246
                  21360919.5164                                   21360914.9574
                                                                        51.0004
        36.5004
  -7900377.32447  -6116073.10245
                  23432213.8674                                   23432211.3834
                                                                        44.0004
        30.7504
  -6649421.52747  -5166210.92644
                  23209135.6724                                   23209131.9454
                                                                        44.2504
        28.5004
  -9276095.65648  -7186861.53145
                  22077354.1484                                   22077347.6994
                                                                        50.0004
        33.5004
  -5470963.77347  -4228455.16844
                  23322202.9694                                   23322200.2934
                                                                        42.7504
        28.5004
  -6191537.94547  -4791629.62144
                  24312400.7814                                   24312395.8714
                                                                        42.7504
        24.7504
 09 10  7  0 13 30.0000000  0  9G02G04G05G13G29G10G23G30G31
 -16903636.22348 -13099524.56247
                  20420027.0474                                   20420021.6374
                                                                        51.7504
        42.5004
  -6323979.00448  -4893571.38746
                  21173322.8984                                   21173319.4184
                                                                        51.5004
        40.2504
  -1115328.81247   -854290.86745
                  23987241.4144                                   23987237.6564
                                                                        43.5004
        30.7504
 -19730163.59448 -15309236.50846
                  21337013.2894                                   21337008.9454
                                                                        51.2504
        37.2504
  -8075781.83647  -6252751.92644
                  23398835.7664                                   23398832.5594
                                                                        43.5004
        29.5004
  -6848599.27047  -5321414.31644
                  23171232.9454                                   23171229.8284
                                                                        43.5004
        29.7504
  -9317188.37148  -7218881.81645
                  22069534.4144                                   22069528.2424
                                                                        49.0004
        33.2504
  -5484205.27747  -4238773.28544
                  23319683.2974                                   23319680.4844
                                                                        42.7504
        28.5004
  -6213865.32446  -4809027.57844
                  24308151.5004                                   24308146.4614
                                                                        41.0004
        24.0004
 09 10  7  0 14  0.0000000  0  9G02G04G05G13G29G10G23G30G31
 -17009498.50448 -13182014.66447
                  20399882.1024                                   20399876.5124
                                                                        52.2504
        42.7504
  -6347592.20348  -4911971.26646
                  21168829.3284                                   21168825.8714
                                                                        51.2504
        40.5004
  -1316401.59846  -1010970.85544
                  23948978.0784                                   23948974.4104
                                                                        41.5004
        28.5004
 -19855115.77048 -15406601.89546
                  21313235.9064                                   21313231.6764
                                                                        51.0004
        36.7504
  -8250790.03947  -6389121.92244
                  23365532.8204                                   23365529.5044
                                                                        42.5004
        29.5004
  -7047510.88747  -5476410.34444
                  23133381.7344                                   23133378.0784
                                                                        42.5004
        29.2504
  -9357675.23448  -7250430.03145
                  22061829.6804                                   22061823.5514
                                                                        48.7504
        33.7504
  -5496924.00847  -4248684.00844
                  23317262.6804                                   23317260.0234
                                                                        42.5004
        27.7504
  -6235701.32446  -4826042.62944
                  24303996.0314                                   24303992.0474
                                                                        40.2504
        25.5004
 09 10  7  0 14 30.0000000  0  9G02G04G05G13G29G10G23G30G31
 -17114758.17248 -13264035.21547
                  20379851.7814                                   20379846.1564
                                                                        52.5004
        43.0004
  -6370711.11348  -4929986.00046
                  21164430.2344                                   21164426.7974
                                                                        51.7504
        40.2504
  -1517289.65246  -1167506.98444
                  23910750.0394                                   23910746.8054
                                                                        41.5004
        27.5004
 -19979392.62548 -15503441.04746
                  21289587.1484                                   21289582.6484
                                                                        51.2504
        36.7504
  -8425400.39847  -6525181.89544
                  23332305.3444                                   23332301.6524
                                                                        43.2504
        28.7504
  -7246155.65247  -5631198.56245
                  23095580.5164                                   23095577.4574
                                                                        43.2504
        31.0004
  -9397558.99648  -7281508.27745
                  22054240.2734                                   22054234.2894
                                                                        49.0004
        33.2504
  -5509123.72347  -4258190.30944
                  23314942.1174                                   23314938.8014
                                                                        42.7504
        28.0004
  -6257049.11346  -4842677.30144
                  24299934.0704                                   24299930.2584
                                                                        39.0004
        25.7504
 09 10  7  0 15  0.0000000  0  9G02G04G05G13G29G10G23G30G31
 -17219415.55548 -13345586.44547
                  20359935.9924                                   20359930.4694
                                                                        52.0004
        43.5004
  -6393338.83648  -4947617.97346
                  21160124.2814                                   21160120.8364
                                                                        51.5004
        41.0004
  -1717992.29347  -1323898.65644
                  23872558.0084                                   23872553.9574
                                                                        42.5004
        28.7504
 -20102994.69548 -15599754.34846
                  21266066.0864                                   21266062.1454
                                                                        51.0004
        36.7504
  -8599611.89547  -6660931.09844
                  23299153.9144                                   23299150.7974
                                                                        43.0004
        29.5004
  -7444531.93747  -5785777.40245
                  23057831.3204                                   23057827.1804
                                                                        44.0004
        31.0004
  -9436842.67648  -7312118.83645
                  22046764.4384                                   22046758.1134
                                                                        49.5004
        33.2504
  -5520808.60547  -4267295.42644
                  23312718.1254                                   23312714.7774
                                                                        43.7504
        25.5004
  -6277912.64146  -4858934.62544
                  24295963.4454                                   24295959.7544
                                                                        41.0004
        24.5004
 09 10  7  0 15 30.0000000  0  9G02G04G05G13G29G10G23G30G31
 -17323467.27348 -13426665.66447
                  20340135.6414                                   20340130.1954
                                                                        52.2504
        43.5004
  -6415474.41048  -4964866.46946
                  21155911.5164                                   21155908.5514
                                                                        51.2504
        40.0004
  -1918505.13347  -1480142.43444
                  23834401.8524                                   23834398.3794
                                                                        44.0004
        29.2504
 -20225917.90648 -15695538.62946
                  21242674.7274                                   21242670.0824
                                                                        51.0004
        37.2504
  -8773419.15647  -6796365.29345
                  23266079.5944                                   23266076.2544
                                                                        43.7504
        30.5004
  -7642635.23047  -5940143.59845
                  23020132.7974                                   23020129.6644
                                                                        45.2504
        32.0004
  -9475525.98048  -7342261.75045
                  22039403.6254                                   22039397.3054
                                                                        49.0004
        33.0004
  -5531979.07447  -4275999.66844
                  23310592.1174                                   23310588.6914
                                                                        42.5004
        25.7504
  -6298291.39846  -4874814.16844
                  24292085.8284                                   24292081.3014
                                                                        41.2504
        26.0004
 09 10  7  0 16  0.0000000  0  9G02G04G05G13G29G10G23G30G31
 -15851490.93048 -12279671.06647
                  20620243.7424                                   20620237.7704
                                                                        52.2504
        42.5004
  -4861700.64848  -3754133.62946
                  21451585.0004                                   21451581.6374
                                                                        51.2504
        40.5004
   -543401.40247   -408633.15645
                  24096075.4534                                   24096071.8634
                                                                        44.5004
        30.5004
 -18772738.79348 -14563191.23446
                  21519205.3284                                   21519200.9414
                                                                        50.7504
        37.0004
  -7371395.99647  -5703879.71545
                  23532876.2894                                   23532872.8404
                                                                        43.7504
        30.7504
  -6265038.39847  -4866691.48844
                  23282280.9064                                   23282277.4024
                                                                        45.5004
        29.7504
  -7938190.16448  -6144337.72345
                  22331949.0314                                   22331942.8984
                                                                        48.7504
        33.0004
  -3967219.54746  -3056706.49244
                  23608355.1954                                   23608353.1254
                                                                        41.5004
        27.0004
  -4742769.09447  -3662718.86744
                  24588092.0234                                   24588087.4654
                                                                        42.5004
        26.0004
 09 10  7  0 16 30.0000000  0  9G02G04G05G13G29G10G23G30G31
 -15954337.58648 -12359811.34047
                  20600672.5554                                   20600666.5044
                                                                        52.7504
        43.0004
  -4882865.37548  -3770625.63346
                  21447557.3834                                   21447554.1094
                                                                        50.0004
        40.2504
   -743536.45347   -564582.38745
                  24057990.3834                                   24057986.9614
                                                                        43.7504
        30.2504
 -18894309.16848 -14657921.41446
                  21496071.3284                                   21496067.2934
                                                                        50.7504
        37.2504
  -7544395.71147  -5838684.59045
                  23499954.9924                                   23499951.5474
                                                                        43.5004
        30.7504
  -6462597.04347  -5020633.19545
                  23244686.5784                                   23244683.6294
                                                                        44.5004
        30.5004
  -7975684.54748  -6173554.09445
                  22324813.9064                                   22324808.0434
                                                                        49.2504
        32.7504
  -3977378.10947  -3064622.20344
                  23606422.9064                                   23606419.6454
                                                                        42.5004
        26.2504
  -4762193.85246  -3677855.05544
                  24584395.9384                                   24584391.5204
                                                                        40.2504
        26.2504
 09 10  7  0 17  0.0000000  0  9G02G04G05G13G29G10G23G30G31
 -16056583.64848 -12439483.56647
                  20581215.7584                                   20581209.8984
                                                                        52.5004
        42.7504
  -4903550.55548  -3786743.96146
                  21443621.2274                                   21443617.6994
                                                                        50.5004
        39.5004
   -943482.78147   -720384.57844
                  24019941.9534                                   24019938.7344
                                                                        44.2504
        29.5004
 -19015204.59448 -14752125.69946
                  21473065.4924                                   21473061.8244
                                                                        51.0004
        37.2504
  -7716991.44547  -5973174.72745
                  23467111.3754                                   23467107.9224
                                                                        43.5004
        30.7504
  -6659883.57047  -5174362.93745
                  23207144.1334                                   23207141.0984
                                                                        44.5004
        30.0004
  -8012590.89548  -6202312.30545
                  22317791.0554                                   22317784.3634
                                                                        49.2504
        32.5004
  -3987038.12147  -3072149.50044
                  23604584.1174                                   23604581.3284
                                                                        42.0004
        27.0004
  -4781148.03546  -3692624.56644
                  24580788.7504                                   24580784.6254
                                                                        40.2504
        25.7504
 09 10  7  0 17 30.0000000  0  9G02G04G05G13G29G10G23G30G31
 -16158225.36748 -12518684.89547
                  20561873.9384                                   20561868.0824
                                                                        52.2504
        43.2504
  -4923754.59048  -3802487.35946
                  21439776.5084                                   21439773.2234
                                                                        50.0004
        40.0004
  -1143235.87947   -876036.34045
                  23981930.4454                                   23981926.9494
                                                                        42.5004
        30.2504
 -19135420.42248 -14845800.36346
                  21450189.3054                                   21450185.2544
                                                                        50.7504
        37.2504
  -7889177.15647  -6107345.31645
                  23434344.9534                                   23434342.4104
                                                                        43.7504
        30.5004
  -6856892.12947  -5327876.08645
                  23169655.0554                                   23169651.4344
                                                                        43.7504
        31.2504
  -8048907.60248  -6230611.04345
                  22310879.8834                                   22310873.7344
                                                                        49.0004
        33.0004
  -3996199.44147  -3079288.19944
                  23602841.1724                                   23602838.2974
                                                                        42.0004
        26.0004
  -4799630.75846  -3707026.68444
                  24577271.5554                                   24577267.1844
                                                                        40.0004
        24.0004
 09 10  7  0 18  0.0000000  0  9G02G04G05G13G29G10G23G30G31
 -16259262.16048 -12597414.91447
                  20542647.5394                                   20542641.3444
                                                                        52.7504
        43.0004
  -4943479.41848  -3817857.34446
                  21436023.2894                                   21436019.9264
                                                                        50.5004
        40.0004
  -1342793.66447  -1031535.94145
                  23943955.7114                                   23943952.5984
                                                                        44.5004
        30.0004
 -19254955.96948 -14938944.95746
                  21427442.4844                                   21427438.0164
                                                                        51.0004
        37.5004
  -8060950.74647  -6241194.73044
                  23401657.2424                                   23401654.2504
                                                                        42.2504
        29.5004
  -7053621.12147  -5481171.40645
                  23132218.9454                                   23132215.6094
                                                                        45.2504
        31.2504
  -8084636.48048  -6258451.69145
                  22304081.1174                                   22304074.2664
                                                                        49.0004
        32.7504
  -4004865.14147  -3086040.67644
                  23601192.0394                                   23601189.4614
                                                                        42.0004
        27.0004
  -4817644.75446  -3721063.53143
                  24573843.1484                                   24573838.9964
                                                                        38.7504
        22.2504
 09 10  7  0 18 30.0000000  0  9G02G04G05G13G29G10G23G30G31
 -16359694.96548 -12675674.20747
                  20523535.7814                                   20523529.8874
                                                                        52.5004
        42.5004
  -4962728.85948  -3832856.93446
                  21432360.0944                                   21432356.5394
                                                                        50.5004
        39.7504
  -1542155.72347  -1186883.05544
                  23906018.1954                                   23906014.7814
                                                                        44.7504
        29.2504
 -19373811.79348 -15031559.84446
                  21404824.8444                                   21404820.9304
                                                                        50.5004
        37.0004
  -8232311.46947  -6374722.39144
                  23369048.7114                                   23369044.6954
                                                                        42.7504
        29.7504
  -7250070.14847  -5634248.60545
                  23094835.6334                                   23094831.7464
                                                                        45.0004
        30.7504
  -8119781.16048  -6285837.16445
                  22297393.5864                                   22297386.7504
                                                                        49.0004
        32.7504
  -4013039.87946  -3092410.58244
                  23599636.3754                                   23599633.7074
                                                                        41.7504
        27.0004
  -4835194.20746  -3734738.41843
                  24570504.4224                                   24570498.8984
                                                                        40.7504
        21.7504
 09 10  7  0 19  0.0000000  0  9G02G04G05G13G29G10G23G30G31
 -16459524.30148 -12753463.27047
                  20504538.8984                                   20504533.2704
                                                                        52.7504
        43.5004
  -4981505.34048  -3847487.95346
                  21428787.2114                                   21428783.5164
                                                                        50.2504
        39.5004
  -1741321.12147  -1342076.79345
                  23868118.8204                                   23868115.0704
                                                                        44.7504
        30.2504
 -19491988.19948 -15123645.30946
                  21382336.7504                                   21382332.5354
                                                                        50.5004
        36.2504
  -8403258.41047  -6507927.75845
                  23336518.2424                                   23336514.6454
                                                                        42.7504
        30.0004
  -7446237.91847  -5787106.65645
                  23057505.7194                                   23057502.4024
                                                                        45.2504
        31.0004
  -8154344.93748  -6312769.97345
                  22290816.0164                                   22290809.6134
                                                                        49.0004
        32.5004
  -4020727.73447  -3098401.06644
                  23598173.4384                                   23598170.9184
                                                                        42.5004
        28.2504
  -4852282.83246  -3748054.23443
                  24567252.3914                                   24567247.1214
                                                                        41.5004
        22.2504
 09 10  7  0 19 30.0000000  0  9G02G04G05G13G29G10G23G30G31
 -16558749.78948 -12830781.82047
                  20485656.7504                                   20485650.9694
                                                                        53.2504
        43.5004
  -4999810.66848  -3861751.85946
                  21425303.8134                                   21425300.6604
                                                                        51.0004
        39.2504
  -1940288.20347  -1497116.09044
                  23830256.1884                                   23830252.5944
                                                                        43.5004
        29.5004
 -19609483.66848 -15215200.05146
                  21359977.8364                                   21359973.4494
                                                                        50.5004
        36.7504
  -8573788.38747  -6640808.10245
                  23304067.1954                                   23304063.8164
                                                                        44.2504
        30.0004
  -7642122.04747  -5939743.68445
                  23020230.2504                                   23020227.2114
                                                                        44.2504
        31.5004
  -8188329.64148  -6339251.54345
                  22284348.9304                                   22284342.5004
                                                                        49.5004
        32.2504
  -4027931.83247  -3104014.67644
                  23596803.0944                                   23596800.2384
                                                                        44.0004
        27.5004
  -4868912.77346  -3761012.61344
                  24564087.0634                                   24564082.4344
                                                                        38.2504
        24.5004
 09 10  7  0 20  0.0000000  0  9G02G04G05G13G29G10G23G30G31
 -16657371.00848 -12907629.50447
                  20466889.9384                                   20466883.8954
                                                                        52.5004
        43.2504
  -5017647.23448  -3875650.46146
                  21421909.5394                                   21421906.0634
                                                                        50.0004
        39.7504
  -2139055.23047  -1651999.50445
                  23792431.8364                                   23792428.4224
                                                                        43.5004
        30.5004
 -19726298.30548 -15306224.41046
                  21337748.8594                                   21337744.5434
                                                                        50.2504
        36.5004
  -8743899.77047  -6773362.32045
                  23271696.4064                                   23271693.0704
                                                                        44.7504
        31.5004
  -7837721.09447  -6092158.49245
                  22983009.0084                                   22983006.3594
                                                                        44.5004
        31.5004
  -8221737.43748  -6365283.59445
                  22277991.7194                                   22277985.3634
                                                                        49.5004
        33.0004
  -4034655.44147  -3109253.84844
                  23595523.7194                                   23595520.5204
                                                                        44.0004
        27.0004
  -4885087.02746  -3773615.94944
                  24561009.2424                                   24561005.8094
                                                                        37.5004
        25.0004
 09 10  7  0 20 30.0000000  0  9G02G04G05G13G29G10G23G30G31
 -16755389.12948 -12984007.24247
                  20448237.6094                                   20448231.8634
                                                                        52.0004
        43.5004
  -5035018.27048  -3889186.32046
                  21418603.8284                                   21418600.3834
                                                                        51.0004
        39.2504
  -2337621.67647  -1806726.54345
                  23754646.2274                                   23754642.7734
                                                                        42.5004
        31.0004
 -19842432.48448 -15396718.58246
                  21315649.2274                                   21315644.7894
                                                                        51.0004
        37.0004
  -8913591.77047  -6905589.78545
                  23239404.8524                                   23239401.6054
                                                                        45.2504
        31.5004
  -8033034.03947  -6244350.34045
                  22945842.5084                                   22945839.1804
                                                                        44.2504
        31.5004
  -8254571.77748  -6390868.80945
                  22271743.2274                                   22271737.3954
                                                                        48.0004
        33.2504
  -4040903.12547  -3114122.15644
                  23594334.4144                                   23594331.2274
                                                                        42.5004
        25.2504
  -4900809.49246  -3785867.26643
                  24558016.6564                                   24558013.6254
                                                                        39.7504
        22.7504
 09 10  7  0 21  0.0000000  0  9G02G04G05G13G29G10G23G30G31
 -16852803.44148 -13059914.46947
                  20429700.2664                                   20429694.4614
                                                                        53.0004
        43.0004
  -5051925.72748  -3902360.93446
                  21415386.5394                                   21415383.2504
                                                                        50.0004
        40.0004
  -2535985.83647  -1961295.95745
                  23716899.1414                                   23716895.5634
                                                                        43.5004
        32.0004
 -19957885.11348 -15486681.65646
                  21293679.3134                                   21293674.8364
                                                                        50.7504
        37.2504
  -9082861.80947  -7037488.42245
                  23207194.1174                                   23207190.4064
                                                                        45.0004
        31.2504
  -8228059.03947  -6396317.93745
                  22908730.7504                                   22908727.1884
                                                                        44.5004
        32.2504
  -8286834.45348  -6416008.59045
                  22265604.0634                                   22265597.5044
                                                                        48.7504
        32.2504
  -4046678.02747  -3118622.10544
                  23593235.1724                                   23593231.4844
                                                                        42.5004
        24.0004
  -4916082.44546  -3797768.31644
                  24555110.9384                                   24555107.1054
                                                                        40.7504
        24.0004
 09 10  7  0 21 30.0000000  0  9G02G04G05G13G29G10G23G30G31
 -16949612.91048 -13135350.35947
                  20411278.0314                                   20411272.3014
                                                                        53.0004
        43.0004
  -5068371.14148  -3915175.59046
                  21412257.1094                                   21412253.5044
                                                                        50.5004
        40.0004
  -2734145.37147  -2115705.96145
                  23679190.5314                                   23679186.7424
                                                                        44.2504
        32.2504
 -20072654.98048 -15576112.73446
                  21271839.2274                                   21271834.7974
                                                                        51.2504
        37.5004
  -9251707.08647  -7169056.03145
                  23175063.2194                                   23175060.1454
                                                                        44.2504
        30.7504
  -8422793.37147  -6548058.99645
                  22871673.9384                                   22871670.4774
                                                                        45.0004
        31.0004
  -8318527.34848  -6440704.31245
                  22259573.0394                                   22259566.7034
                                                                        49.0004
        32.0004
  -4051982.46147  -3122755.37943
                  23592225.7894                                   23592222.0004
                                                                        42.7504
        23.7504
  -4930908.06646  -3809320.77744
                  24552290.0394                                   24552285.9264
                                                                        38.0004
        26.5004
 09 10  7  0 22  0.0000000  0 10G02G04G05G13G29G10G23G30G31G25
 -17045818.20748 -13210315.46547
                  20392970.7974                                   20392964.5824
                                                                        53.0004
        43.0004
  -5084357.15248  -3927632.23046
                  21409214.9224                                   21409211.6024
                                                                        50.7504
        39.7504
  -2932099.43747  -2269955.86345
                  23641521.0634                                   23641517.2774
                                                                        43.5004
        31.5004
 -20186742.04348 -15665011.74246
                  21250129.3444                                   21250125.0594
                                                                        52.0004
        37.0004
  -9420126.33647  -7300291.62945
                  23143014.1024                                   23143010.6334
                                                                        44.2504
        30.0004
  -8617236.14147  -6699572.81245
                  22834672.2814                                   22834669.1024
                                                                        44.0004
        31.0004
  -8349653.39848  -6464958.32845
                  22253649.8364                                   22253643.5084
                                                                        48.2504
        32.2504
  -4056820.67646  -3126525.45743
                  23591304.7584                                   23591301.8054
                                                                        41.5004
        23.5004
  -4945290.12547  -3820527.60244
                  24549553.6954                                   24549549.6884
                                                                        42.7504
        26.2504
   2920311.32456   2313365.23453
                  24143234.1414                                   24143231.7774
                                                                        40.0004
        21.5004
 09 10  7  0 22 30.0000000  0 10G02G04G05G13G29G10G23G30G31G25
 -17141423.43048 -13284813.02347
                  20374777.6884                                   20374771.2774
                                                                        52.5004
        43.5004
  -5099890.07048  -3939735.80146
                  21406259.0864                                   21406255.9534
                                                                        50.5004
        39.7504
  -3129850.18447  -2424047.30945
                  23603890.0474                                   23603886.1994
                                                                        44.5004
        30.7504
 -20300150.23448 -15753381.77046
                  21228548.4694                                   21228544.1054
                                                                        52.0004
        37.0004
  -9588121.86347  -7431197.14845
                  23111045.1484                                   23111042.4614
                                                                        43.7504
        31.5004
  -8811388.98447  -6850860.63345
                  22797726.0944                                   22797723.1724
                                                                        45.0004
        32.2504
  -8380219.04748  -6488775.67645
                  22247833.6414                                   22247827.0984
                                                                        48.5004
        32.2504
  -4061200.13747  -3129937.98044
                  23590471.9534                                   23590468.9494
                                                                        42.2504
        24.0004
  -4959235.29347  -3831393.98444
                  24546900.1484                                   24546895.6604
                                                                        43.5004
        26.5004
   2743332.05946   2175459.30943
                  24109557.1414                                   24109553.5164
                                                                        39.0004
        21.2504
 09 10  7  0 23  0.0000000  0  9G02G04G05G13G29G10G23G30G25
 -17236431.10548 -13358844.96947
                  20356698.3054                                   20356692.4654
                                                                        53.5004
        43.5004
  -5114974.82848  -3951490.18446
                  21403388.6094                                   21403385.0004
                                                                        49.5004
        40.0004
  -3327398.97347  -2577981.36745
                  23566297.3984                                   23566293.3324
                                                                        42.5004
        30.0004
 -20412881.67248 -15841224.44546
                  21207096.4774                                   21207092.0234
                                                                        51.2504
        37.5004
  -9755694.31647  -7561773.03145
                  23079157.2034                                   23079154.4774
                                                                        43.0004
        30.5004
  -9005253.45347  -7001923.83245
                  22760835.5004                                   22760832.3054
                                                                        45.2504
        32.0004
  -8410229.43048  -6512160.42245
                  22242122.8834                                   22242116.6524
                                                                        48.5004
        33.0004
  -4065127.10247  -3132997.89844
                  23589724.2424                                   23589721.4574
                                                                        44.0004
        26.7504
   2566660.44546   2037793.12543
                  24075937.3674                                   24075933.9884
                                                                        39.0004
        20.2504
 09 10  7  0 23 30.0000000  0  9G02G04G05G13G29G10G23G30G25
 -17330842.74248 -13432412.46947
                  20338732.2274                                   20338726.1254
                                                                        52.2504
        43.2504
  -5129615.41448  -3962898.46546
                  21400602.8914                                   21400599.5394
                                                                        51.0004
        39.2504
  -3524746.03547  -2731758.25445
                  23528743.6884                                   23528740.0084
                                                                        44.2504
        31.7504
 -20524937.44548 -15928540.61346
                  21185772.9304                                   21185768.5554
                                                                        51.0004
        37.2504
  -9922843.30147  -7692018.90645
                  23047349.9844                                   23047347.1764
                                                                        44.0004
        31.2504
  -9198829.03147  -7152761.91845
                  22723999.3364                                   22723995.7584
                                                                        45.5004
        32.0004
  -8439688.48048  -6535115.49245
                  22236517.0704                                   22236510.6724
                                                                        48.0004
        33.0004
  -4068607.07847  -3135709.59044
                  23589062.5704                                   23589059.8594
                                                                        44.2504
        26.2504
   2390297.46946   1900367.51643
                  24042376.6564                                   24042373.3014
                                                                        41.2504
        22.2504
 09 10  7  0 24  0.0000000  0  9G02G04G05G13G29G10G23G30G25
 -17424649.66448 -13505508.79347
                  20320881.2734                                   20320875.5984
                                                                        52.5004
        43.0004
  -5143805.48448  -3973955.74646
                  21397902.1644                                   21397898.8244
                                                                        51.5004
        39.7504
  -3721881.15247  -2885370.05545
                  23491230.8594                                   23491226.5164
                                                                        44.0004
        31.0004
 -20636308.77748 -16015323.44146
                  21164579.7664                                   21164574.9614
                                                                        51.0004
        36.7504
 -10089557.96547  -7821926.38745
                  23015625.1724                                   23015621.6094
                                                                        45.2504
        31.5004
  -9392105.59447  -7303366.97745
                  22687219.6724                                   22687215.8674
                                                                        45.2504
        31.7504
  -8468590.14848  -6557636.20345
                  22231016.9064                                   22231010.6374
                                                                        48.5004
        33.0004
  -4071634.71147  -3138068.82044
                  23588486.1094                                   23588483.4264
                                                                        44.0004
        27.7504
   2214254.08647   1763190.91844
                  24008876.7034                                   24008873.1994
                                                                        43.0004
        24.2504
 09 10  7  0 24 30.0000000  0  9G02G04G05G13G29G10G23G30G25
 -17517843.69948 -13578127.56247
                  20303147.2424                                   20303141.2974
                                                                        51.7504
        43.2504
  -5157539.03548  -3984657.24246
                  21395288.9614                                   21395285.8524
                                                                        51.0004
        39.5004
  -3918794.08247  -3038808.63745
                  23453758.9844                                   23453755.3054
                                                                        43.7504
        32.0004
 -20746987.10248 -16101566.30546
                  21143517.9534                                   21143513.3204
                                                                        51.2504
        37.2504
 -10255828.25847  -7951487.61745
                  22983985.2274                                   22983981.4884
                                                                        43.5004
        30.5004
  -9585073.35947  -7453731.39845
                  22650498.9924                                   22650495.6524
                                                                        44.7504
        32.5004
  -8496928.77048  -6579718.23445
                  22225624.4304                                   22225618.0164
                                                                        48.2504
        32.5004
  -4074204.48847  -3140071.21544
                  23587997.3754                                   23587994.7624
                                                                        44.5004
        28.0004
   2038540.06347   1626270.73443
                  23975439.9224                                   23975435.8714
                                                                        42.0004
        23.7504
 09 10  7  0 25  0.0000000  0  9G02G04G05G13G29G10G23G30G25
 -16035000.89548 -12422665.64547
                  20585322.7894                                   20585316.7894
                                                                        52.2504
        43.0004
  -3595397.22748  -2767403.85946
                  21692555.0084                                   21692551.5164
                                                                        50.5004
        39.0004
  -2540056.74247  -1964467.78545
                  23716123.6804                                   23716120.1724
                                                                        44.0004
        32.0004
 -19281547.59048 -14959665.36346
                  21422381.9614                                   21422377.4574
                                                                        51.0004
        37.2504
  -8846226.10247  -6853096.29745
                  23252223.4384                                   23252219.9884
                                                                        44.2504
        32.0004
  -8202303.45747  -6376248.38345
                  22913631.4774                                   22913628.4024
                                                                        46.0004
        32.7504
  -6949285.08648  -5373762.10545
                  22520131.3754                                   22520124.6094
                                                                        49.0004
        31.5004
  -2500899.92247  -1914119.62544
                  23887386.8284                                   23887385.0314
                                                                        44.5004
        28.0004
   3438585.14847   2717214.92644
                  24241859.3134                                   24241855.5554
                                                                        42.7504
        24.2504
 09 10  7  0 25 30.0000000  0  9G02G04G05G13G29G10G23G30G25
 -16126971.89148 -12494331.37547
                  20567821.1884                                   20567815.2424
                                                                        52.2504
        43.0004
  -3608227.75048  -2777401.72746
                  21690113.4924                                   21690109.8714
                                                                        51.5004
        39.7504
  -2736524.87547  -2117559.75445
                  23678736.9144                                   23678733.3634
                                                                        42.7504
        33.0004
 -19390841.81648 -15044829.70346
                  21401584.1254                                   21401579.9304
                                                                        50.5004
        37.0004
  -9011604.94147  -6981962.89145
                  23220753.0084                                   23220749.5004
                                                                        43.7504
        31.7504
  -8394651.27047  -6526129.84045
                  22877029.0164                                   22877025.5124
                                                                        46.0004
        33.0004
  -6976507.72348  -5394974.53145
                  22514950.4844                                   22514944.2154
                                                                        48.2504
        31.7504
  -2502568.89847  -1915420.17244
                  23887068.9614                                   23887066.9184
                                                                        44.2504
        26.2504
   3263535.78146   2580813.07443
                  24208547.7894                                   24208544.9144
                                                                        40.7504
        22.7504
 09 10  7  0 26  0.0000000  0  9G02G04G05G13G29G10G23G30G25
 -16218338.01248 -12565525.79347
                  20550435.0164                                   20550429.0554
                                                                        52.5004
        43.5004
  -3620616.42648  -2787055.30146
                  21687755.9224                                   21687752.6844
                                                                        51.5004
        38.7504
  -2932774.46947  -2270481.46545
                  23641392.1334                                   23641388.3984
                                                                        44.5004
        32.2504
 -19499449.98448 -15129459.43046
                  21380916.3284                                   21380912.4064
                                                                        51.0004
        37.2504
  -9176541.70347  -7110485.01245
                  23189366.4064                                   23189363.5554
                                                                        43.7504
        32.5004
  -8586692.55947  -6675772.39845
                  22840484.8914                                   22840481.7544
                                                                        46.0004
        32.5004
  -7003182.62548  -5415760.19545
                  22509874.9614                                   22509868.3134
                                                                        48.0004
        31.5004
  -2503799.25847  -1916378.91444
                  23886834.4454                                   23886832.2734
                                                                        43.7504
        24.5004
   3088815.32446   2444667.43043
                  24175299.7584                                   24175297.2934
                                                                        41.2504
        22.0004
 09 10  7  0 26 30.0000000  0  9G02G04G05G13G29G10G23G30G25
 -16309099.89548 -12636249.34047
                  20533163.5314                                   20533157.6454
                                                                        53.5004
        43.0004
  -3632566.47748  -2796367.11746
                  21685481.9384                                   21685478.8794
                                                                        49.7504
        39.0004
  -3128805.21547  -2423232.79745
                  23604088.3444                                   23604084.8444
                                                                        44.7504
        32.5004
 -19607372.61348 -15213555.00046
                  21360379.6254                                   21360375.2544
                                                                        51.0004
        36.2504
  -9341035.12147  -7238661.65645
                  23158064.1644                                   23158061.3444
                                                                        43.0004
        32.5004
  -8778426.49247  -6825175.47345
                  22803998.9694                                   22803995.4064
                                                                        46.2504
        33.0004
  -7029312.79347  -5436121.36745
                  22504902.4774                                   22504895.8794
                                                                        47.5004
        31.7504
  -2504594.82047  -1916998.69943
                  23886683.6644                                   23886680.4694
                                                                        44.0004
        22.5004
   2914425.32046   2308779.25843
                  24142114.5394                                   24142111.2624
                                                                        40.2504
        21.5004
 09 10  7  0 27  0.0000000  0  9G02G04G05G13G29G10G23G30G25
 -16399255.73448 -12706500.57447
                  20516007.4844                                   20516001.4844
                                                                        53.0004
        43.5004
  -3644078.31648  -2805337.34046
                  21683291.2814                                   21683287.9104
                                                                        49.7504
        39.0004
  -3324613.26647  -2575810.53145
                  23566827.3284                                   23566824.0274
                                                                        44.0004
        30.7504
 -19714607.74648 -15297114.82046
                  21339973.6884                                   21339969.3364
                                                                        50.5004
        37.0004
  -9505081.38347  -7366489.92245
                  23126847.7344                                   23126844.3364
                                                                        43.2504
        33.2504
  -8969849.79347  -6974336.52345
                  22767572.1724                                   22767568.8634
                                                                        46.5004
        33.0004
  -7054899.57047  -5456059.11745
                  22500033.3594                                   22500026.8674
                                                                        47.7504
        32.0004
  -2504957.94147  -1917281.57843
                  23886615.2194                                   23886611.5864
                                                                        44.0004
        23.5004
   2740369.85247   2173151.68843
                  24108992.4064                                   24108989.4774
                                                                        42.0004
        22.7504
 09 10  7  0 27 30.0000000  0  9G02G04G05G13G29G10G23G30G25
 -16488807.52748 -12776281.17647
                  20498966.3444                                   20498960.3404
                                                                        52.7504
        43.5004
  -3655156.14148  -2813969.43446
                  21681183.1564                                   21681179.5664
                                                                        51.5004
        38.7504
  -3520198.88347  -2728214.89545
                  23529608.9694                                   23529604.7424
                                                                        43.7504
        31.2504
 -19821157.06648 -15380140.30146
                  21319698.0784                                   21319693.6134
                                                                        50.0004
        37.0004
  -9668680.37547  -7493969.65645
                  23095715.6954                                   23095712.4844
                                                                        43.0004
        32.2504
  -9160961.94547  -7123255.04745
                  22731204.7274                                   22731201.3204
                                                                        46.2504
        32.5004
  -7079947.11347  -5475576.71145
                  22495266.9534                                   22495260.8364
                                                                        47.7504
        31.5004
  -2504893.75447  -1917231.51244
                  23886627.3834                                   23886623.4414
                                                                        44.5004
        26.0004
   2566649.40247   2037785.07443
                  24075935.2194                                   24075931.1884
                                                                        42.7504
        21.7504
 09 10  7  0 28  0.0000000  0  9G02G04G05G13G29G10G23G30G25
 -16577756.10948 -12845591.72747
                  20482039.6564                                   20482033.7424
                                                                        52.7504
        42.7504
  -3665803.16448  -2822265.89846
                  21679157.3594                                   21679153.8914
                                                                        51.2504
        39.0004
  -3715561.53547  -2880445.65645
                  23492432.7894                                   23492429.0704
                                                                        45.2504
        31.7504
 -19927021.02348 -15462631.73446
                  21299553.0084                                   21299548.0784
                                                                        50.0004
        36.7504
  -9831831.34047  -7621100.30945
                  23064669.2894                                   23064665.8794
                                                                        43.5004
        32.5004
  -9351762.21147  -7271930.48845
                  22694896.7974                                   22694893.2274
                                                                        46.5004
        34.0004
  -7104458.36747  -5494676.38345
                  22490602.3524                                   22490596.6684
                                                                        47.7504
        31.2504
  -2504406.56647  -1916851.87144
                  23886720.5084                                   23886716.2384
                                                                        45.2504
        25.7504
   2393265.76647   1902680.89543
                  24042940.9064                                   24042937.1884
                                                                        43.2504
        22.5004
 09 10  7  0 28 30.0000000  0  9G02G04G05G13G29G10G23G30G25
 -16666104.23848 -12914434.40247
                  20465227.7974                                   20465222.2464
                                                                        52.5004
        43.2504
  -3676023.91448  -2830230.08646
                  21677212.1804                                   21677208.9534
                                                                        51.0004
        38.7504
  -3910701.39547  -3032502.61745
                  23455298.8834                                   23455295.0164
                                                                        46.0004
        32.5004
 -20032202.07848 -15544591.02346
                  21279537.1644                                   21279532.9304
                                                                        50.5004
        36.7504
  -9994534.32847  -7747881.87545
                  23033707.4614                                   23033703.7704
                                                                        43.5004
        32.2504
  -9542251.54747  -7420363.70345
                  22658647.3134                                   22658644.2774
                                                                        46.2504
        33.0004
  -7128438.76247  -5513362.39545
                  22486039.5784                                   22486032.9344
                                                                        47.7504
        31.2504
  -2503502.15247  -1916147.07444
                  23886892.0394                                   23886888.8404
                                                                        44.5004
        26.5004
   2220218.39847   1767838.65643
                  24010011.6254                                   24010008.1604
                                                                        43.0004
        22.7504
 09 10  7  0 29  0.0000000  0  9G02G04G05G13G29G10G23G30G25
 -16753849.00048 -12982806.98847
                  20448530.3594                                   20448524.4924
                                                                        51.7504
        43.5004
  -3685817.83248  -2837861.72346
                  21675348.4694                                   21675345.2344
                                                                        51.2504
        38.5004
  -4105614.93047  -3184383.26645
                  23418208.1724                                   23418204.1254
                                                                        45.7504
        32.2504
 -20136697.09448 -15626015.76646
                  21259652.4454                                   21259648.2384
                                                                        50.0004
        37.5004
 -10156784.69147  -7874310.77345
                  23002832.5864                                   23002828.9734
                                                                        43.7504
        31.5004
  -9732425.32447  -7568551.09045
                  22622458.6804                                   22622455.5784
                                                                        46.5004
        33.0004
  -7151887.48448  -5531634.12145
                  22481577.4534                                   22481570.9774
                                                                        48.5004
        32.2504
  -2502181.18747  -1915117.75444
                  23887143.2274                                   23887140.0904
                                                                        43.5004
        26.7504
   2047513.07447   1633263.00843
                  23977146.4844                                   23977143.2194
                                                                        42.7504
        22.5004
 09 10  7  0 29 30.0000000  0  9G02G04G05G13G29G10G23G30G25
 -16840990.70748 -13050709.85547
                  20431947.9924                                   20431942.2344
                                                                        52.0004
        43.0004
  -3695187.24648  -2845162.60946
                  21673565.7114                                   21673562.2814
                                                                        51.2504
        39.0004
  -4300300.12547  -3336086.08645
                  23381160.9064                                   23381157.3554
                                                                        45.7504
        33.0004
 -20240505.74248 -15706905.62146
                  21239898.3754                                   21239894.0314
                                                                        49.0004
        37.0004
 -10318580.37147  -8000385.38745
                  22972044.1724                                   22972039.9654
                                                                        44.0004
        31.5004
  -9922280.95747  -7716490.52045
                  22586330.3134                                   22586327.0204
                                                                        46.5004
        33.0004
  -7174807.41848  -5549493.84445
                  22477215.9614                                   22477209.6884
                                                                        48.2504
        32.0004
  -2500447.27747  -1913766.68444
                  23887472.6804                                   23887470.0744
                                                                        42.7504
        26.0004
   1875152.21146   1498955.88744
                  23944347.0784                                   23944344.3554
                                                                        41.5004
        24.5004
 09 10  7  0 30  0.0000000  0  9G02G04G05G13G29G10G23G30G25
 -16927529.10948 -13118142.29747
                  20415480.3364                                   20415474.3914
                                                                        53.0004
        43.0004
  -3704135.28548  -2852135.21546
                  21671862.9304                                   21671859.7274
                                                                        50.7504
        38.2504
  -4494755.61747  -3487609.66845
                  23344157.2344                                   23344153.7774
                                                                        45.5004
        33.7504
 -20343628.68448 -15787261.13346
                  21220274.9144                                   21220270.4184
                                                                        49.2504
        37.0004
 -10479920.25847  -8126104.83245
                  22941341.8674                                   22941338.3014
                                                                        43.7504
        31.7504
 -10111817.95347  -7864181.66045
                  22550262.8204                                   22550259.5084
                                                                        45.7504
        33.5004
  -7197201.47747  -5566943.71545
                  22472954.2424                                   22472947.7624
                                                                        47.5004
        31.7504
  -2498304.41846  -1912096.97343
                  23887880.3914                                   23887878.1644
                                                                        41.5004
        22.2504
   1703137.12946   1364918.16443
                  23911613.8204                                   23911610.4384
                                                                        40.7504
        22.7504
 09 10  7  0 30 30.0000000  0  9G02G04G05G13G29G10G23G30G25
 -17013464.98048 -13185105.26247
                  20399127.3284                                   20399121.5704
                                                                        52.7504
        43.0004
  -3712663.72748  -2858780.80946
                  21670240.2344                                   21670236.6604
                                                                        49.7504
        38.0004
  -4688980.20747  -3638953.47345
                  23307197.3284                                   23307193.9224
                                                                        46.0004
        32.0004
 -20446065.93048 -15867082.32446
                  21200781.6644                                   21200777.3244
                                                                        49.2504
        37.2504
 -10640801.96147  -8251467.23845
                  22910727.2114                                   22910723.7504
                                                                        44.0004
        32.7504
 -10301034.43047  -8011623.05145
                  22514256.4924                                   22514252.8954
                                                                        46.5004
        34.0004
  -7219072.21947  -5583985.85245
                  22468792.1724                                   22468786.0594
                                                                        47.7504
        32.2504
  -2495756.21946  -1910111.34443
                  23888365.8054                                   23888363.0234
                                                                        41.5004
        23.0004
   1531470.20346   1231151.64843
                  23878946.9614                                   23878943.3874
                                                                        40.5004
        22.7504
 09 10  7  0 31  0.0000000  0  9G02G04G05G13G29G10G23G30G25
 -17098797.68048 -13251598.25847
                  20382888.7274                                   20382883.1764
                                                                        52.5004
        43.5004
  -3720774.09848  -2865100.54746
                  21668696.6254                                   21668692.9884
                                                                        50.5004
        38.7504
  -4882971.61347  -3790115.56645
                  23270282.1024                                   23270278.0704
                                                                        45.0004
        32.2504
 -20547816.17248 -15946368.23846
                  21181419.3594                                   21181414.9964
                                                                        49.5004
        37.2504
 -10801223.01247  -8376470.69545
                  22880200.2974                                   22880197.0864
                                                                        44.7504
        33.5004
 -10489927.18747  -8158812.21145
                  22478311.0314                                   22478307.3594
                                                                        45.7504
        34.2504
  -7240421.62547  -5600621.78945
                  22464729.1954                                   22464723.3914
                                                                        47.0004
        31.0004
  -2492805.58646  -1907812.24243
                  23888927.3594                                   23888924.3054
                                                                        41.7504
        22.5004
   1360155.44146   1097659.84443
                  23846347.2424                                   23846343.8834
                                                                        40.7504
        22.7504
 09 10  7  0 31 30.0000000  0  9G02G04G05G13G29G10G23G30G25
 -17183527.96548 -13317621.89847
                  20366765.2734                                   20366759.4104
                                                                        52.7504
        43.5004
  -3728469.50848  -2871097.02346
                  21667232.2814                                   21667228.9224
                                                                        50.0004
        37.7504
  -5076728.60247  -3941095.02745
                  23233411.0164                                   23233407.0704
                                                                        45.5004
        33.5004
 -20648880.33248 -16025119.53546
                  21162187.1484                                   21162183.2974
                                                                        48.5004
        37.2504
 -10961182.20347  -8501114.29745
                  22849760.6334                                   22849757.9924
                                                                        43.5004
        33.7504
 -10678495.91447  -8305748.87145
                  22442427.3594                                   22442424.4144
                                                                        45.2504
        34.0004
  -7261252.67247  -5616853.74645
                  22460765.2424                                   22460759.1414
                                                                        46.5004
        30.7504
  -2489456.49247  -1905202.62943
                  23889564.5004                                   23889561.4384
                                                                        43.0004
        23.5004
   1189193.38346    964442.66043
                  23813813.3984                                   23813810.0594
                                                                        41.7504
        23.5004
 09 10  7  0 32  0.0000000  0  9G02G04G05G13G29G10G23G30G25
 -17267656.18748 -13383176.41847
                  20350756.4454                                   20350750.1884
                                                                        52.5004
        43.0004
  -3735752.18748  -2876771.75046
                  21665846.2034                                   21665843.2584
                                                                        49.5004
        37.5004
  -5270249.88347  -4091890.89545
                  23196585.7194                                   23196581.1884
                                                                        46.2504
        33.5004
 -20749258.45348 -16103336.29346
                  21143086.1414                                   21143081.7114
                                                                        49.2504
        37.5004
 -11120677.68047  -8625396.52745
                  22819409.3134                                   22819406.8014
                                                                        44.5004
        33.2504
 -10866738.85947  -8452431.68745
                  22406606.1484                                   22406602.4264
                                                                        45.7504
        34.0004
  -7281568.12547  -5632683.93445
                  22456899.4614                                   22456893.2704
                                                                        47.2504
        31.0004
  -2485712.41047  -1902285.13344
                  23890277.6564                                   23890273.9654
                                                                        43.0004
        24.2504
   1018586.35547    831501.99244
                  23781348.5634                                   23781345.2424
                                                                        42.2504
        24.5004
 09 10  7  0 32 30.0000000  0  9G02G04G05G13G29G10G23G30G25
 -17351181.93048 -13448261.44547
                  20334861.7194                                   20334856.0704
                                                                        51.2504
        42.7504
  -3742624.31648  -2882126.64546
                  21664538.5704                                   21664535.5904
                                                                        49.0004
        38.0004
  -5463532.94947  -4242501.07445
                  23159804.5784                                   23159800.8364
                                                                        45.5004
        33.5004
 -20848949.96148 -16181018.00446
                  21124115.3134                                   21124111.1294
                                                                        49.0004
        37.0004
 -11279706.89147  -8749315.40245
                  22789147.5944                                   22789144.4574
                                                                        44.2504
        33.5004
 -11054653.16847  -8598858.44545
                  22370847.2274                                   22370843.9804
                                                                        46.0004
        34.0004
  -7301370.26247  -5648114.19545
                  22453131.3914                                   22453125.2234
                                                                        47.5004
        31.0004
  -2481576.31647  -1899062.16444
                  23891064.4924                                   23891060.9844
                                                                        43.5004
        26.2504
    848338.03146    698841.05544
                  23748951.0164                                   23748947.8594
                                                                        41.5004
        24.7504
 09 10  7  0 33  0.0000000  0  9G02G04G05G13G29G10G23G30G25
 -17434106.23448 -13512877.72747
                  20319081.8134                                   20319076.1524
                                                                        52.0004
        43.0004
  -3749089.13348  -2887164.12946
                  21663308.6484                                   21663304.8284
                                                                        48.5004
        38.2504
  -5656577.52047  -4392925.39145
                  23123069.5634                                   23123066.0434
                                                                        46.2504
        33.7504
 -20947956.05148 -16258165.57046
                  21105275.2664                                   21105270.7544
                                                                        49.0004
        36.2504
 -11438269.06247  -8872870.35545
                  22758974.1414                                   22758970.9024
                                                                        44.5004
        33.2504
 -11242238.26247  -8745028.64845
                  22335150.8674                                   22335147.4774
                                                                        46.2504
        34.0004
  -7320662.67247  -5663147.22745
                  22449460.5314                                   22449454.0984
                                                                        46.7504
        31.0004
  -2477053.16047  -1895537.66444
                  23891924.6804                                   23891922.1604
                                                                        42.5004
        25.0004
    678449.34446    566460.50843
                  23716622.3444                                   23716618.8674
                                                                        41.5004
        23.5004
 09 10  7  0 33 30.0000000  0  9G02G04G05G13G29G10G23G30G25
 -17516426.61348 -13577023.43047
                  20303416.7894                                   20303410.9964
                                                                        52.5004
        43.2504
  -3755145.70748  -2891883.48046
                  21662155.9144                                   21662152.3954
                                                                        50.0004
        37.5004
  -5849378.82847  -4543160.14145
                  23086380.6804                                   23086376.8874
                                                                        46.0004
        33.0004
 -21046273.84048 -16334776.84846
                  21086565.8444                                   21086561.5474
                                                                        50.0004
        36.7504
 -11596359.26647  -8996057.54345
                  22728890.7664                                   22728886.9494
                                                                        45.2504
        33.0004
 -11429489.55147  -8890938.77045
                  22299518.3284                                   22299514.7774
                                                                        46.5004
        34.5004
  -7339445.18447  -5677782.97345
                  22445886.4224                                   22445879.5824
                                                                        46.5004
        30.7504
  -2472143.49646  -1891711.93443
                  23892859.1954                                   23892856.6054
                                                                        41.2504
        23.0004
    508925.25446    434364.02044
                  23684362.7894                                   23684359.9224
                                                                        41.0004
        25.0004
 09 10  7  0 34  0.0000000  0  9G02G04G05G13G29G10G23G30G25
 -16022722.87148 -12413098.43447
                  20587659.0944                                   20587653.2974
                                                                        52.0004
        42.7504
  -2185378.91048  -1668688.59446
                  21960872.7274                                   21960869.1994
                                                                        48.7504
        38.0004
  -4466511.08247  -3465600.77345
                  23349531.6484                                   23349528.0944
                                                                        47.5004
        33.7504
 -19568482.24248 -15183250.91846
                  21367780.4774                                   21367775.8714
                                                                        50.0004
        37.2504
 -10178552.80147  -7891273.29345
                  22998690.7344                                   22998687.1764
                                                                        45.5004
        33.2504
 -10040980.67247  -7808983.80545
                  22563742.5784                                   22563739.5354
                                                                        47.0004
        34.2504
  -5782301.65247  -4464424.37945
                  22742200.7344                                   22742194.3834
                                                                        46.7504
        31.0004
   -891433.05146   -659989.49644
                  24193658.0394                                   24193656.0784
                                                                        41.5004
        24.0004
   1915191.45746   1530155.97344
                  23951965.6724                                   23951962.5634
                                                                        38.5004
        24.0004
 09 10  7  0 34 30.0000000  0  9G02G04G05G13G29G10G23G30G25
 -16103841.54348 -12476307.78947
                  20572222.7894                                   20572217.0634
                                                                        51.5004
        42.5004
  -2190631.53548  -1672781.48846
                  21959873.1484                                   21959869.6024
                                                                        50.2504
        38.0004
  -4658826.48447  -3615456.90645
                  23312934.8674                                   23312931.2464
                                                                        47.2504
        33.5004
 -19665428.42248 -15258793.34846
                  21349331.9774                                   21349327.3674
                                                                        50.0004
        37.2504
 -10335698.57447  -8013724.53945
                  22968786.8054                                   22968782.9264
                                                                        45.5004
        33.2504
 -10227563.53947  -7954373.06645
                  22528236.8594                                   22528233.7774
                                                                        46.5004
        34.0004
  -5800076.24247  -4478274.64145
                  22738817.8834                                   22738811.9774
                                                                        46.7504
        30.5004
   -885766.16446   -655573.82043
                  24194737.0474                                   24194734.2504
                                                                        41.0004
        22.7504
   1746397.90246   1398628.39143
                  23919845.8754                                   23919842.5554
                                                                        39.7504
        22.7504
 09 10  7  0 35  0.0000000  0  9G02G04G05G13G29G10G23G30G25
 -16184358.82848 -12539048.55147
                  20556900.8284                                   20556894.7384
                                                                        51.7504
        42.7504
  -2195485.08648  -1676563.47746
                  21958949.5234                                   21958945.7114
                                                                        48.5004
        37.7504
  -4850895.88348  -3765121.34845
                  23276385.8984                                   23276381.3364
                                                                        48.2504
        34.2504
 -19761688.79748 -15333801.42246
                  21331014.2894                                   21331010.0664
                                                                        50.2504
        37.5004
 -10492368.95347  -8135805.34045
                  22938973.2504                                   22938969.3674
                                                                        46.0004
        33.2504
 -10413809.22347  -8099499.56245
                  22492795.7344                                   22492792.5204
                                                                        47.2504
        34.2504
  -5817350.77347  -4491735.29345
                  22735530.8674                                   22735524.7504
                                                                        47.0004
        31.2504
   -879724.75046   -650866.16844
                  24195886.4614                                   24195883.5664
                                                                        41.0004
        24.2504
   1577974.06646   1267388.91043
                  23887795.6254                                   23887792.4574
                                                                        41.2504
        22.7504
 09 10  7  0 35 30.0000000  0  9G02G04G05G13G29G10G23G30G25
 -16264273.71948 -12601319.91447
                  20541693.6334                                   20541687.9534
                                                                        52.0004
        43.2504
  -2199940.66448  -1680035.35246
                  21958101.4844                                   21958098.3094
                                                                        50.0004
        38.0004
  -5042716.19947  -3914591.67645
                  23239883.4614                                   23239879.2034
                                                                        47.7504
        33.5004
 -19857261.83248 -15408273.91046
                  21312827.2584                                   21312822.8324
                                                                        49.7504
        36.7504
 -10648560.63747  -8257513.19545
                  22909250.9144                                   22909247.0204
                                                                        45.2504
        32.2504
 -10599714.46947  -8244360.76645
                  22457419.1174                                   22457415.8054
                                                                        46.0004
        34.5004
  -5834126.52347  -4504807.27045
                  22732338.7664                                   22732332.1764
                                                                        46.5004
        30.7504
   -873311.55147   -645868.82843
                  24197107.1414                                   24197103.6334
                                                                        42.2504
        22.7504
   1409924.09047   1136441.06344
                  23855817.5784                                   23855813.1214
                                                                        42.5004
        25.7504
 09 10  7  0 36  0.0000000  0  9G02G04G05G13G29G10G23G30G25
 -16343586.03548 -12663121.72747
                  20526601.2114                                   20526594.9184
                                                                        51.7504
        42.7504
  -2203999.84448  -1683198.38746
                  21957329.1254                                   21957325.9414
                                                                        49.5004
        37.5004
  -5234285.20347  -4063866.21545
                  23203428.6484                                   23203424.8674
                                                                        46.5004
        34.0004
 -19952147.20748 -15482210.54346
                  21294771.2734                                   21294766.8094
                                                                        50.0004
        37.0004
 -10804270.93047  -8378845.88745
                  22879620.2424                                   22879616.6254
                                                                        44.7504
        32.5004
 -10785276.55547  -8388954.57445
                  22422107.8364                                   22422104.1994
                                                                        45.7504
        34.5004
  -5850405.30147  -4517492.03145
                  22729240.7734                                   22729234.4734
                                                                        45.0004
        30.2504
   -866529.50847   -640584.08243
                  24198397.3754                                   24198393.9774
                                                                        42.5004
        22.5004
   1242249.95346   1005785.89544
                  23823909.0864                                   23823906.5204
                                                                        41.7504
        24.5004
 09 10  7  0 36 30.0000000  0  9G02G04G05G13G29G10G23G30G25
 -16422295.56248 -12724453.82447
                  20511623.1564                                   20511617.1174
                                                                        52.0004
        43.0004
  -2207664.37148  -1686053.87946
                  21956631.6644                                   21956628.4454
                                                                        49.5004
        38.0004
  -5425600.72747  -4212943.20345
                  23167022.4534                                   23167018.8874
                                                                        47.5004
        33.5004
 -20046344.37948 -15555610.90246
                  21276846.0234                                   21276841.4064
                                                                        50.0004
        37.0004
 -10959497.58247  -8499801.71545
                  22850081.7034                                   22850077.8914
                                                                        46.2504
        33.2504
 -10970493.49647  -8533279.47745
                  22386862.3444                                   22386859.0044
                                                                        46.2504
        34.5004
  -5866189.26647  -4529791.21944
                  22726237.1484                                   22726231.2384
                                                                        45.5004
        29.7504
   -859381.71947   -635014.40243
                  24199757.1484                                   24199754.2464
                                                                        43.2504
        22.7504
   1074955.01647    875426.32844
                  23792074.0314                                   23792070.8324
                                                                        42.2504
        24.7504
 09 10  7  0 37  0.0000000  0  9G02G04G05G13G29G10G23G30G25
 -16500404.70348 -12785318.09447
                  20496759.3754                                   20496753.5984
                                                                        52.0004
        42.5004
  -2210938.48048  -1688605.10946
                  21956008.6484                                   21956005.5354
                                                                        50.5004
        37.2504
  -5616663.09447  -4361822.96145
                  23130664.7274                                   23130661.1804
                                                                        47.2504
        34.0004
 -20139855.85248 -15628476.95346
                  21259051.2814                                   21259047.1724
                                                                        50.0004
        37.0004
 -11114240.74647  -8620380.82445
                  22820634.6644                                   22820631.2894
                                                                        45.7504
        33.5004
 -11155365.24247  -8677335.41845
                  22351682.5864                                   22351678.7384
                                                                        47.0004
        34.5004
  -5881483.30947  -4541708.65645
                  22723326.9064                                   22723320.5554
                                                                        46.0004
        30.7504
   -851873.69547   -629163.96943
                  24201186.6564                                   24201183.0514
                                                                        42.5004
        23.7504
    908039.28947    745362.13344
                  23760311.7274                                   23760308.1724
                                                                        42.0004
        24.7504
 09 10  7  0 37 30.0000000  0  9G02G04G05G13G29G10G23G30G25
 -16577911.03948 -12845712.64547
                  20482010.4844                                   20482004.6054
                                                                        51.5004
        43.2504
  -2213821.82448  -1690851.79746
                  21955459.9384                                   21955456.5594
                                                                        50.7504
        37.0004
  -5807467.98448  -4510502.08245
                  23094355.9304                                   23094351.8634
                                                                        48.0004
        34.2504
 -20232679.24248 -15700806.85946
                  21241387.5554                                   21241383.0744
                                                                        49.5004
        37.0004
 -11268496.02047  -8740579.75845
                  22791280.9614                                   22791277.5204
                                                                        44.7504
        33.5004
 -11339887.85547  -8821119.25445
                  22316569.0004                                   22316565.0274
                                                                        46.7504
        34.2504
  -5896287.36347  -4553244.28945
                  22720510.0634                                   22720503.4574
                                                                        46.0004
        30.5004
   -844006.23447   -623033.43743
                  24202683.7034                                   24202679.9924
                                                                        43.0004
        22.5004
    741507.62946    615597.18844
                  23728621.2424                                   23728617.9264
                                                                        41.2504
        24.7504
 09 10  7  0 38  0.0000000  0  9G02G04G05G13G29G10G23G30G25
 -16654814.40248 -12905637.32447
                  20467376.3284                                   20467370.6604
                                                                        52.5004
        43.2504
  -2216316.42248  -1692795.62146
                  21954985.0784                                   21954982.2304
                                                                        49.5004
        37.0004
  -5998013.58647  -4658979.16445
                  23058096.3134                                   23058092.2344
                                                                        47.2504
        34.2504
 -20324814.16048 -15772600.34446
                  21223855.0004                                   21223850.5664
                                                                        50.0004
        36.2504
 -11422260.85547  -8860396.50045
                  22762021.1024                                   22762017.7664
                                                                        45.2504
        34.5004
 -11524058.57047  -8964628.88745
                  22281522.3754                                   22281519.1254
                                                                        47.0004
        35.0004
  -5910603.48047  -4564399.69945
                  22717785.3594                                   22717779.1054
                                                                        46.0004
        30.5004
   -835782.30147   -616625.20743
                  24204248.4384                                   24204245.0474
                                                                        43.0004
        22.5004
    575362.81347    486133.64144
                  23697005.2584                                   23697001.4804
                                                                        42.5004
        24.0004
 09 10  7  0 38 30.0000000  0  8G02G04G05G13G29G10G23G25
 -16731114.46548 -12965091.92647
                  20452856.8594                                   20452850.7734
                                                                        52.0004
        43.2504
  -2218423.74248  -1694437.68446
                  21954584.2584                                   21954581.0474
                                                                        49.2504
        37.2504
  -6188297.13748  -4807252.04345
                  23021886.5164                                   23021882.5594
                                                                        48.0004
        34.5004
 -20416260.03548 -15843856.87146
                  21206453.6334                                   21206448.6684
                                                                        49.5004
        37.0004
 -11575532.71547  -8979829.13345
                  22732854.0554                                   22732851.0634
                                                                        44.5004
        34.7504
 -11707874.97747  -9107862.41045
                  22246543.2894                                   22246539.8094
                                                                        46.5004
        35.2504
  -5924433.54347  -4575176.37144
                  22715153.6174                                   22715147.3364
                                                                        46.0004
        29.2504
    409608.35247    356974.35944
                  23665463.4844                                   23665459.8874
                                                                        43.0004
        25.5004
 09 10  7  0 39  0.0000000  0  8G02G04G05G13G29G10G23G25
 -16806811.59848 -13024076.72347
                  20438452.3284                                   20438446.0204
                                                                        52.0004
        43.0004
  -2220146.42648  -1695780.04746
                  21954256.6094                                   21954253.2504
                                                                        49.7504
        37.2504
  -6378317.13747  -4955319.48845
                  22985726.7424                                   22985722.6374
                                                                        47.2504
        34.5004
 -20507017.07848 -15914576.57446
                  21189182.7894                                   21189178.8014
                                                                        49.7504
        36.2504
 -11728310.03547  -9098876.45745
                  22703781.6804                                   22703778.4924
                                                                        45.2504
        34.0004
 -11891335.35547  -9250818.51645
                  22211631.9384                                   22211627.9694
                                                                        46.5004
        34.5004
  -5937780.47347  -4585576.54745
                  22712613.8914                                   22712607.7894
                                                                        45.2504
        30.5004
    244245.80147    228120.32044
                  23633996.4844                                   23633992.1054
                                                                        42.7504
        24.7504
 09 10  7  0 39 30.0000000  0  8G02G04G05G13G29G10G23G25
 -16881902.57848 -13082589.14547
                  20424162.7584                                   20424157.0234
                                                                        52.7504
        43.0004
  -2221482.62148  -1696821.26246
                  21954002.1334                                   21953998.6844
                                                                        48.5004
        37.2504
  -6568068.44547  -5103177.65245
                  22949617.9694                                   22949614.8524
                                                                        46.5004
        34.7504
 -20597082.59048 -15984757.49246
                  21172044.0784                                   21172039.6294
                                                                        49.2504
        37.5004
 -11880586.97747  -9217533.80945
                  22674803.8444                                   22674800.6294
                                                                        45.0004
        34.2504
 -12074434.19547  -9393492.92645
                  22176789.6174                                   22176785.6914
                                                                        46.7504
        35.2504
  -5950643.21547  -4595599.48044
                  22710166.1174                                   22710160.1254
                                                                        45.5004
        29.7504
     79281.10947     99576.14144
                  23602604.2344                                   23602600.5004
                                                                        43.2504
        26.0004
 09 10  7  0 40  0.0000000  0  8G02G04G05G13G29G10G23G25
 -16956384.77748 -13140627.21547
                  20409988.9774                                   20409983.3324
                                                                        52.5004
        42.5004
  -2222431.96548  -1697561.05946
                  21953821.3754                                   21953818.1054
                                                                        49.0004
        37.0004
  -6757545.89847  -5250822.43745
                  22913561.7894                                   22913558.3094
                                                                        47.0004
        34.7504
 -20686453.23848 -16054396.94146
                  21155037.3834                                   21155033.0784
                                                                        48.5004
        36.7504
 -12032358.76647  -9335797.52745
                  22645922.8754                                   22645919.3094
                                                                        45.7504
        34.2504
 -12257166.34047  -9535881.60945
                  22142016.7814                                   22142012.7074
                                                                        47.5004
        35.5004
  -5963021.20347  -4605244.66845
                  22707810.8204                                   22707804.5124
                                                                        44.2504
        30.0004
    -85279.49247    -28652.88344
                  23571289.2584                                   23571285.8874
                                                                        44.5004
        26.0004
 09 10  7  0 40 30.0000000  0  8G02G04G05G13G29G10G23G25
 -17030258.28148 -13198190.96947
                  20395931.3754                                   20395925.7344
                                                                        51.7504
        42.7504
  -2222996.01648  -1698000.59046
                  21953714.1174                                   21953711.0704
                                                                        48.5004
        37.5004
  -6946747.48447  -5398252.28545
                  22877557.6954                                   22877554.1524
                                                                        46.5004
        34.7504
 -20775128.98448 -16123494.86346
                  21138162.8204                                   21138158.0234
                                                                        48.5004
        37.0004
 -12183623.13747  -9453665.83645
                  22617138.0474                                   22617134.7854
                                                                        46.2504
        33.2504
 -12439529.79347  -9677982.94145
                  22107313.8364                                   22107310.1804
                                                                        46.5004
        35.5004
  -5974916.96947  -4614514.09844
                  22705546.5944                                   22705540.2544
                                                                        43.5004
        29.0004
   -249433.80947   -156565.29744
                  23540052.1094                                   23540048.5474
                                                                        43.7504
        25.5004
 09 10  7  0 41  0.0000000  0  8G02G04G05G13G29G10G23G25
 -17103525.84048 -13255282.60547
                  20381989.3524                                   20381983.2074
                                                                        51.7504
        42.7504
  -2223179.53948  -1698143.58246
                  21953679.2114                                   21953676.0634
                                                                        49.2504
        37.0004
  -7135674.18447  -5545467.95745
                  22841606.7114                                   22841602.8204
                                                                        47.7504
        35.7504
 -20863112.41848 -16192053.32046
                  21121420.0314                                   21121415.4494
                                                                        49.0004
        36.7504
 -12334380.45347  -9571139.07045
                  22588450.1644                                   22588446.8714
                                                                        45.7504
        33.0004
 -12621525.02047  -9819797.33246
                  22072681.3204                                   22072677.8444
                                                                        47.2504
        36.0004
  -5986335.42247  -4623411.59045
                  22703373.9224                                   22703367.9224
                                                                        44.2504
        30.0004
   -413181.76247   -284160.98844
                  23508891.3444                                   23508888.0824
                                                                        43.0004
        24.5004
 09 10  7  0 41 30.0000000  0  8G02G04G05G13G29G10G23G25
 -17176192.78148 -13311906.18447
                  20368161.3284                                   20368155.2384
                                                                        52.2504
        42.2504
  -2222990.34848  -1697996.10246
                  21953715.6254                                   21953711.8244
                                                                        48.7504
        36.7504
  -7324329.39547  -5692471.99246
                  22805707.3364                                   22805703.2664
                                                                        47.7504
        36.2504
 -20950409.99648 -16260077.39846
                  21104807.8674                                   21104803.3984
                                                                        49.0004
        36.5004
 -12484634.80947  -9688220.40645
                  22559857.3444                                   22559854.2154
                                                                        46.0004
        33.5004
 -12803155.73847  -9961327.72345
                  22038118.0394                                   22038114.3674
                                                                        47.5004
        35.0004
  -5997284.55147  -4631943.35944
                  22701290.5944                                   22701284.2934
                                                                        45.0004
        28.5004
   -576527.17647   -411443.20744
                  23477807.7734                                   23477804.3714
                                                                        42.5004
        26.5004
 09 10  7  0 42  0.0000000  0  8G02G04G05G13G29G10G23G25
 -17248262.21948 -13368064.18747
                  20354446.6644                                   20354440.3284
                                                                        52.0004
        42.5004
  -2222432.80948  -1697561.59046
                  21953821.2504                                   21953817.7504
                                                                        49.0004
        36.5004
  -7512713.96547  -5839265.21945
                  22769858.2734                                   22769854.6024
                                                                        46.0004
        35.5004
 -21037023.86348 -16327568.71546
                  21088325.8594                                   21088321.4534
                                                                        49.5004
        36.7504
 -12634386.19947  -9804909.78545
                  22531361.0394                                   22531357.6414
                                                                        46.0004
        33.7504
 -12984422.23847 -10102574.38345
                  22003624.3444                                   22003620.4064
                                                                        47.7504
        35.2504
  -6007769.39547  -4640113.35244
                  22699295.7894                                   22699289.4224
                                                                        45.0004
        29.2504
   -739469.32047   -538411.06244
                  23446800.7584                                   23446797.9494
                                                                        42.0004
        25.2504
 09 10  7  0 42 30.0000000  0  8G02G04G05G13G29G10G23G25
 -17319739.47748 -13423760.78147
                  20340845.4384                                   20340839.3244
                                                                        51.5004
        42.7504
  -2221514.37548  -1696845.91846
                  21953996.3754                                   21953992.8874
                                                                        48.7504
        36.2504
  -7700830.59847  -5985849.57045
                  22734060.7424                                   22734057.2854
                                                                        46.7504
        35.5004
 -21122959.58248 -16394531.68746
                  21071973.2114                                   21071968.7304
                                                                        50.2504
        37.5004
 -12783637.87147  -9921209.78545
                  22502959.6724                                   22502955.7584
                                                                        46.5004
        34.0004
 -13165327.57447 -10243539.57045
                  21969198.9144                                   21969195.7664
                                                                        47.5004
        35.2504
  -6017797.84047  -4647927.74245
                  22697387.2664                                   22697380.4804
                                                                        45.0004
        30.0004
   -902011.14547   -665067.09044
                  23415870.5164                                   23415867.1524
                                                                        42.5004
        27.0004
 09 10  7  0 43  0.0000000  0  8G02G04G05G13G29G10G23G25
 -15815199.94948 -12251392.33647
                  20627149.7274                                   20627143.7154
                                                                        52.5004
        43.0004
   -644814.48848   -468248.63746
                  22254032.1484                                   22254028.7274
                                                                        48.7504
        36.5004
  -6313248.92647  -4904617.10545
                  22998108.8134                                   22998105.1994
                                                                        46.0004
        35.5004
 -19632792.35948 -15233362.58646
                  21355542.2424                                   21355538.0554
                                                                        50.0004
        36.7504
 -11356960.27047  -8809512.96945
                  22774447.3284                                   22774443.6954
                                                                        46.2504
        34.5004
 -11770441.01647  -9156614.98045
                  22234636.8054                                   22234633.1134
                                                                        47.0004
        35.5004
  -4451949.28947  -3427785.99644
                  22995358.1334                                   22995351.5664
                                                                        45.5004
        28.2504
    511278.12947    436197.39144
                  23684810.8524                                   23684806.9734
                                                                        42.7504
        25.5004
 09 10  7  0 43 30.0000000  0  8G02G04G05G13G29G10G23G25
 -15885487.93748 -12306162.17647
                  20613773.9924                                   20613768.4414
                                                                        51.5004
        42.5004
   -643174.53948   -466970.74646
                  22254344.1254                                   22254340.6804
                                                                        48.5004
        36.2504
  -6500818.89847  -5050775.55145
                  22962415.1804                                   22962411.9384
                                                                        45.0004
        35.5004
 -19717366.61348 -15299264.63346
                  21339448.7114                                   21339444.0474
                                                                        50.5004
        37.0004
 -11505200.71947  -8925024.99245
                  22746237.7504                                   22746234.8794
                                                                        46.0004
        34.7504
 -11950612.23447  -9297008.11746
                  22200351.7894                                   22200347.9964
                                                                        47.2504
        36.0004
  -4461066.21147  -3434890.09844
                  22993623.3444                                   22993616.7734
                                                                        45.0004
        29.7504
    349550.26646    310175.66444
                  23654034.3444                                   23654030.4494
                                                                        41.5004
        25.7504
 09 10  7  0 44  0.0000000  0  8G02G04G05G13G29G10G23G25
 -15955181.68448 -12360468.94147
                  20600511.8914                                   20600506.2274
                                                                        51.7504
        42.5004
   -641176.87148   -465414.10946
                  22254724.7034                                   22254720.9884
                                                                        48.5004
        36.2504
  -6688112.44547  -5196718.53145
                  22926774.7114                                   22926771.3444
                                                                        46.0004
        35.2504
 -19801260.78948 -15364636.75446
                  21323483.9304                                   21323479.3244
                                                                        50.5004
        37.0004
 -11652932.52747  -9040140.66045
                  22718125.5164                                   22718121.8794
                                                                        47.0004
        34.7504
 -12130413.32047  -9437112.82846
                  22166136.7504                                   22166133.4144
                                                                        47.5004
        36.0004
  -4469731.26647  -3441642.11744
                  22991974.2974                                   22991968.4454
                                                                        45.0004
        29.5004
    188233.22346    184474.15244
                  23623337.3984                                   23623332.7934
                                                                        41.7504
        24.5004
 09 10  7  0 44 30.0000000  0  8G02G04G05G13G29G10G23G25
 -16024279.98048 -12414311.77047
                  20587362.8524                                   20587357.0594
                                                                        51.0004
        43.0004
   -638822.19148   -463579.29346
                  22255172.4534                                   22255168.8244
                                                                        49.5004
        36.5004
  -6875126.27747  -5342443.56645
                  22891186.9304                                   22891183.5514
                                                                        46.2504
        35.0004
 -19884472.72348 -15429477.24646
                  21307649.6094                                   21307645.1954
                                                                        51.2504
        37.2504
 -11800152.12547  -9154857.20345
                  22690110.4774                                   22690107.4884
                                                                        47.0004
        35.2504
 -12309840.94147  -9576926.50846
                  22131992.3524                                   22131989.1254
                                                                        47.7504
        36.2504
  -4477945.08247  -3448042.48844
                  22990411.3834                                   22990404.8984
                                                                        45.2504
        29.5004
     27330.81347     59095.77344
                  23592717.8524                                   23592714.0044
                                                                        42.0004
        25.5004
 09 10  7  0 45  0.0000000  0  8G02G04G05G13G29G10G23G25
 -16092784.02048 -12467691.56247
                  20574327.1724                                   20574321.1884
                                                                        51.5004
        42.2504
   -636113.30548   -461468.53145
                  22255687.6094                                   22255684.2114
                                                                        48.2504
        35.7504
  -7061858.92247  -5487949.48045
                  22855652.7814                                   22855649.5394
                                                                        46.5004
        35.7504
 -19967005.08648 -15493788.16846
                  21291943.8364                                   21291939.5004
                                                                        51.5004
        37.0004
 -11946858.37147  -9269173.71945
                  22662193.3054                                   22662189.8094
                                                                        47.0004
        34.5004
 -12488893.28947  -9716447.79346
                  22097919.9144                                   22097916.8754
                                                                        46.7504
        36.5004
  -4485710.82447  -3454093.73044
                  22988933.2194                                   22988926.9774
                                                                        45.7504
        29.0004
   -133155.14847    -65958.08644
                  23562178.2664                                   23562175.2234
                                                                        42.2504
        26.5004
 09 10  7  0 45 30.0000000  0  8G02G04G05G13G29G10G23G25
 -16160693.75848 -12520608.24647
                  20561404.0784                                   20561398.4654
                                                                        52.2504
        42.7504
   -633051.98448   -459083.13746
                  22256270.7114                                   22256267.0594
                                                                        49.2504
        36.7504
  -7248308.52047  -5633234.75445
                  22820173.1564                                   22820168.9614
                                                                        47.5004
        35.2504
 -20048856.60548 -15557568.57046
                  21276368.0944                                   21276363.6524
                                                                        51.0004
        37.0004
 -12093049.11747  -9383088.58245
                  22634374.0784                                   22634370.7774
                                                                        47.0004
        34.0004
 -12667568.19147  -9855674.98046
                  22063919.2344                                   22063915.8914
                                                                        47.5004
        36.2504
  -4493031.36347  -3459798.03144
                  22987540.5704                                   22987534.0164
                                                                        45.7504
        28.2504
   -293221.93047   -190685.18744
                  23531718.8444                                   23531715.2704
                                                                        42.7504
        25.2504
 09 10  7  0 46  0.0000000  0  8G02G04G05G13G29G10G23G25
 -16228009.39148 -12573062.03147
                  20548594.3054                                   20548588.6174
                                                                        52.2504
        43.0004
   -629640.08648   -456424.52746
                  22256919.8674                                   22256916.3324
                                                                        49.2504
        36.5004
  -7434472.93047  -5778297.90645
                  22784746.4454                                   22784743.6214
                                                                        47.7504
        35.5004
 -20130027.67648 -15620818.73846
                  21260921.6644                                   21260917.4654
                                                                        51.0004
        37.2504
 -12238722.16047  -9496600.05145
                  22606652.7504                                   22606649.6764
                                                                        46.5004
        34.0004
 -12845863.42247  -9994606.32045
                  22029990.8054                                   22029987.3014
                                                                        47.0004
        35.7504
  -4499908.71947  -3465157.03144
                  22986231.6174                                   22986225.6644
                                                                        46.2504
        28.5004
   -452867.41446   -315084.17244
                  23501338.9924                                   23501335.8754
                                                                        41.2504
        26.5004
 09 10  7  0 46 30.0000000  0  8G02G04G05G13G29G10G23G25
 -16294731.45348 -12625053.26647
                  20535897.9534                                   20535891.8714
                                                                        52.2504
        42.7504
   -625879.85948   -453494.47746
                  22257635.5944                                   22257631.8914
                                                                        49.5004
        36.2504
  -7620350.39547  -5923137.46945
                  22749375.5634                                   22749371.7504
                                                                        47.5004
        35.5004
 -20210520.52748 -15683540.43446
                  21245604.6094                                   21245599.9304
                                                                        51.5004
        36.7504
 -12383875.60947  -9609706.57445
                  22579031.3444                                   22579027.8594
                                                                        46.2504
        34.2504
 -13023777.50047 -10133240.66046
                  21996135.1094                                   21996131.4694
                                                                        47.5004
        36.0004
  -4506345.37947  -3470172.60544
                  22985006.9454                                   22985000.7304
                                                                        46.0004
        28.7504
   -612089.57847   -439153.56244
                  23471040.5234                                   23471036.9064
                                                                        42.5004
        27.2504
 09 10  7  0 47  0.0000000  0  8G02G04G05G13G29G10G23G25
 -16360859.34448 -12676581.46547
                  20523314.1804                                   20523308.2624
                                                                        53.0004
        42.5004
   -621772.70348   -450294.12146
                  22258417.0634                                   22258413.4884
                                                                        48.5004
        36.0004
  -7805938.28148  -6067751.40646
                  22714059.3674                                   22714055.5234
                                                                        48.2504
        36.0004
 -20290332.39848 -15745731.50046
                  21230416.5864                                   21230412.0904
                                                                        51.5004
        36.7504
 -12528506.81247  -9722406.16045
                  22551508.9774                                   22551505.6644
                                                                        46.5004
        34.2504
 -13201307.15247 -10271575.43746
                  21962352.2194                                   21962348.4734
                                                                        47.2504
        36.7504
  -4512343.34447  -3474846.30944
                  22983865.8674                                   22983859.1294
                                                                        46.2504
        28.2504
   -770884.03547   -562889.41044
                  23440822.8204                                   23440819.0474
                                                                        42.0004
        27.7504
 09 10  7  0 47 30.0000000  0  8G02G04G05G13G29G10G23G25
 -16426393.96948 -12727647.39147
                  20510843.2734                                   20510837.2194
                                                                        52.5004
        43.0004
   -617321.11348   -446825.40645
                  22259263.9224                                   22259260.6334
                                                                        49.5004
        35.5004
  -7991234.64548  -6212138.18046
                  22678798.6334                                   22678794.6644
                                                                        48.2504
        36.7504
 -20369465.37148 -15807393.52746
                  21215358.2114                                   21215353.5314
                                                                        51.2504
        36.5004
 -12672614.09847  -9834697.49645
                  22524086.1094                                   22524082.7734
                                                                        47.5004
        34.5004
 -13378451.08248 -10409609.64846
                  21928642.8524                                   21928639.4534
                                                                        48.5004
        36.0004
  -4517905.54747  -3479180.49644
                  22982807.0314                                   22982800.8134
                                                                        45.7504
        28.5004
   -929249.31647   -686290.78544
                  23410687.0234                                   23410683.1724
                                                                        42.7504
        26.5004
 09 10  7  0 48  0.0000000  0  8G02G04G05G13G29G10G23G25
 -16491333.37548 -12778249.48447
                  20498485.6564                                   20498479.7734
                                                                        52.5004
        42.5004
   -612524.50848   -443087.79745
                  22260176.8524                                   22260173.5514
                                                                        48.7504
        35.7504
  -8176235.43748  -6356294.59045
                  22643593.6484                                   22643590.3914
                                                                        48.0004
        35.2504
 -20447917.28148 -15868524.84846
                  21200429.2344                                   21200424.9104
                                                                        51.5004
        36.7504
 -12816193.41447  -9946577.49645
                  22496764.2974                                   22496760.8164
                                                                        47.0004
        35.0004
 -13555204.54748 -10547339.61746
                  21895007.7584                                   21895004.3594
                                                                        48.5004
        36.5004
  -4523032.16847  -3483175.28544
                  22981831.5864                                   22981824.9494
                                                                        46.0004
        28.5004
  -1087180.98047   -809354.41844
                  23380633.1724                                   23380629.1334
                                                                        43.0004
        26.2504
 09 10  7  0 48 30.0000000  0  8G02G04G05G13G29G10G23G25
 -16555678.33648 -12828388.43447
                  20486241.2734                                   20486235.5594
                                                                        52.5004
        42.7504
   -607385.14548   -439083.08645
                  22261154.3364                                   22261151.7304
                                                                        48.7504
        35.0004
  -8360938.69548  -6500219.21146
                  22608446.4774                                   22608442.2464
                                                                        49.2504
        36.2504
 -20525689.23848 -15929126.37146
                  21185629.7814                                   21185625.1564
                                                                        51.5004
        37.0004
 -12959242.75047 -10058044.50845
                  22469542.5634                                   22469539.1604
                                                                        46.2504
        34.0004
 -13731565.60948 -10684763.79746
                  21861447.5004                                   21861443.8364
                                                                        48.2504
        37.0004
  -4527725.23447  -3486832.19544
                  22980938.4774                                   22980931.7584
                                                                        46.0004
        28.7504
  -1244676.40646   -932078.10544
                  23350662.7584                                   23350659.0204
                                                                        41.5004
        25.5004
 09 10  7  0 49  0.0000000  0  8G02G04G05G13G29G10G23G25
 -16619432.04748 -12878066.62947
                  20474109.3054                                   20474103.5124
                                                                        52.2504
        42.7504
   -601908.46948   -434815.58645
                  22262196.9614                                   22262193.8054
                                                                        48.0004
        35.2504
  -8545345.62948  -6643912.97346
                  22573355.1724                                   22573350.7584
                                                                        49.0004
        37.0004
 -20602783.82448 -15989200.09046
                  21170959.1174                                   21170954.6214
                                                                        51.2504
        36.5004
 -13101763.48447 -10169099.63345
                  22442421.8674                                   22442418.0204
                                                                        46.0004
        35.5004
 -13907535.68048 -10821883.32446
                  21827961.4064                                   21827957.9774
                                                                        48.0004
        36.5004
  -4531990.86347  -3490156.05944
                  22980127.0004                                   22980120.5594
                                                                        46.0004
        29.2504
  -1401736.35247  -1054462.47744
                  23320775.0394                                   23320771.4844
                                                                        42.0004
        26.0004
 09 10  7  0 49 30.0000000  0  8G02G04G05G13G29G10G23G25
 -16682595.33248 -12927284.80147
                  20462089.7424                                   20462083.9964
                                                                        52.2504
        43.0004
   -596096.71148   -430286.94945
                  22263302.9304                                   22263299.7034
                                                                        48.5004
        34.5004
  -8729454.60947  -6787374.48846
                  22538320.0084                                   22538316.5314
                                                                        47.7504
        36.7504
 -20679202.46148 -16048747.05146
                  21156417.2194                                   21156412.7894
                                                                        51.0004
        37.0004
 -13243753.78147 -10279741.43045
                  22415402.0704                                   22415398.4574
                                                                        47.0004
        34.7504
 -14083112.79748 -10958696.63746
                  21794550.0084                                   21794546.3244
                                                                        49.0004
        37.2504
  -4535832.37947  -3493149.43044
                  22979395.9224                                   22979389.3284
                                                                        45.5004
        28.0004
  -1558358.51247  -1176505.61344
                  23290971.2894                                   23290967.1644
                                                                        42.5004
        26.0004
 09 10  7  0 50  0.0000000  0  8G02G04G05G13G29G10G23G25
 -16745163.58648 -12976039.25847
                  20450183.5234                                   20450177.7664
                                                                        50.5004
        42.7504
   -589946.56248   -425494.64845
                  22264473.4694                                   22264470.0434
                                                                        48.2504
        35.5004
  -8913258.54747  -6930598.33246
                  22503343.0394                                   22503339.1644
                                                                        46.5004
        36.5004
 -20754940.37148 -16107763.59046
                  21142004.7974                                   21142000.5124
                                                                        50.5004
        36.5004
 -13385206.50047 -10389964.35945
                  22388484.2814                                   22388481.1094
                                                                        47.5004
        35.2504
 -14258289.70348 -11095198.09846
                  21761215.1024                                   21761211.5274
                                                                        48.5004
        37.2504
  -4539246.53547  -3495809.82044
                  22978746.0634                                   22978739.5084
                                                                        45.0004
        28.0004
  -1714535.58647  -1298201.93744
                  23261251.5784                                   23261247.6994
                                                                        43.0004
        26.0004
 09 10  7  0 50 30.0000000  0  8G02G04G05G13G29G10G23G25
 -16807142.20348 -13024334.26647
                  20438389.0234                                   20438383.2854
                                                                        51.2504
        43.0004
   -583465.29348   -420444.34045
                  22265706.7034                                   22265703.3164
                                                                        48.5004
        35.5004
  -9096760.24247  -7073586.63746
                  22468423.5314                                   22468419.9454
                                                                        47.5004
        36.5004
 -20830003.61348 -16166254.38346
                  21127720.5704                                   21127716.0664
                                                                        51.0004
        37.0004
 -13526124.96147 -10499770.90245
                  22361668.6174                                   22361665.0904
                                                                        47.0004
        35.5004
 -14433069.59448 -11231390.21146
                  21727955.4924                                   21727952.0824
                                                                        49.0004
        37.0004
  -4542240.71547  -3498142.95344
                  22978175.9454                                   22978170.1764
                                                                        43.0004
        27.0004
  -1870270.14847  -1419553.50044
                  23231615.8134                                   23231612.2814
                                                                        43.0004
        27.2504
 09 10  7  0 51  0.0000000  0  8G02G04G05G13G29G10G23G25
 -16868531.23048 -13072169.87947
                  20426707.2344                                   20426701.7034
                                                                        51.5004
        42.7504
   -576654.63748   -415137.44945
                  22267002.8284                                   22266999.2704
                                                                        48.2504
        34.7504
  -9279957.29747  -7216337.55946
                  22433562.5314                                   22433558.7974
                                                                        46.5004
        36.2504
 -20904392.30948 -16224219.60546
                  21113565.0234                                   21113560.3874
                                                                        50.5004
        37.0004
 -13666506.87547 -10609159.35945
                  22334954.6334                                   22334951.2234
                                                                        47.0004
        35.5004
 -14607449.69548 -11367270.77746
                  21694772.1174                                   21694768.7814
                                                                        49.2504
        37.0004
  -4544817.18047  -3500150.57844
                  22977685.8134                                   22977679.2774
                                                                        44.2504
        26.7504
  -2025559.37947  -1540558.08244
                  23202065.6334                                   23202061.9184
                                                                        44.2504
        27.2504
 09 10  7  0 51 30.0000000  0  8G02G04G05G13G29G10G23G25
 -16929332.32848 -13119547.35547
                  20415137.4614                                   20415131.2234
                                                                        51.5004
        42.7504
   -569517.50448   -409576.10545
                  22268360.6724                                   22268357.5904
                                                                        48.7504
        35.2504
  -9462848.87147  -7358850.46146
                  22398759.7034                                   22398755.7774
                                                                        46.2504
        37.5004
 -20978107.29748 -16281659.82046
                  21099537.6954                                   21099533.0204
                                                                        51.0004
        37.2504
 -13806351.24247 -10718128.96945
                  22308342.5554                                   22308339.6954
                                                                        46.5004
        35.0004
 -14781429.19548 -11502839.18046
                  21661664.8754                                   21661661.1564
                                                                        49.7504
        37.0004
  -4546979.63747  -3501835.59444
                  22977274.6804                                   22977267.9804
                                                                        44.2504
        28.5004
  -2180402.03547  -1661214.65644
                  23172599.7274                                   23172596.1564
                                                                        44.0004
        27.0004
 09 10  7  0 52  0.0000000  0  8G02G04G05G13G29G10G23G25
 -15414123.29348 -11938865.00447
                  20703471.7734                                   20703465.9774
                                                                        52.2504
        42.5004
   1013364.70348    823838.66045
                  22569573.3834                                   22569570.1954
                                                                        49.0004
        35.5004
  -8070006.26648  -6273518.54746
                  22663808.9064                                   22663804.8554
                                                                        48.0004
        37.0004
 -19475726.94948 -15110973.77046
                  21385430.7664                                   21385426.1024
                                                                        51.0004
        36.5004
 -12370231.32847  -9599074.50445
                  22581627.5084                                   22581624.5634
                                                                        47.0004
        35.5004
 -13379579.59448 -10410488.80146
                  21928428.1254                                   21928424.4964
                                                                        49.5004
        37.2504
  -2973309.78147  -2275599.34444
                  23276733.9694                                   23276727.4694
                                                                        45.0004
        28.5004
   -759369.95347   -553916.89844
                  23443013.0704                                   23443009.7234
                                                                        43.0004
        28.7504
 09 10  7  0 52 30.0000000  0  8G02G04G05G13G29G10G23G25
 -15473744.65648 -11985323.24247
                  20692126.5234                                   20692120.2504
                                                                        51.7504
        42.0004
   1021154.28948    829908.65245
                  22571055.8204                                   22571052.1564
                                                                        48.5004
        35.2504
  -8252275.85547  -6415546.79346
                  22629124.2584                                   22629119.8634
                                                                        47.5004
        37.0004
 -19548092.56248 -15167362.48846
                  21371659.5944                                   21371655.2894
                                                                        51.2504
        36.7504
 -12508990.27747  -9707198.40645
                  22555222.5554                                   22555219.3834
                                                                        47.2504
        35.2504
 -13552746.71548 -10545424.23046
                  21895475.4774                                   21895472.0234
                                                                        49.5004
        37.7504
  -2974646.22747  -2276640.71144
                  23276479.5554                                   23276473.1644
                                                                        45.0004
        27.7504
   -913307.05147   -673867.81244
                  23413719.9534                                   23413716.4964
                                                                        43.2504
        27.0004
 09 10  7  0 53  0.0000000  0  8G02G04G05G13G29G10G23G25
 -15532776.49648 -12031322.07047
                  20680892.8674                                   20680887.0514
                                                                        51.7504
        42.2504
   1029267.42648    836230.77745
                  22572598.9614                                   22572595.8914
                                                                        49.0004
        34.7504
  -8434230.96547  -6557329.96946
                  22594498.8754                                   22594494.9774
                                                                        47.5004
        37.5004
 -19619783.94148 -15223225.93046
                  21358017.3204                                   21358013.1214
                                                                        51.0004
        37.0004
 -12647203.01648  -9814896.64546
                  22528921.7344                                   22528918.5784
                                                                        48.0004
        36.0004
 -13725503.94948 -10680040.32046
                  21862600.5084                                   21862597.5124
                                                                        50.5004
        37.2504
  -2975573.16447  -2277362.99644
                  23276303.1724                                   23276297.0594
                                                                        43.5004
        28.0004
  -1066787.46947   -793462.89144
                  23384513.1254                                   23384509.9184
                                                                        42.0004
        27.2504
 09 10  7  0 53 30.0000000  0  8G02G04G05G13G29G10G23G25
 -15591218.20348 -12076861.03947
                  20669771.8914                                   20669765.5354
                                                                        51.5004
        43.0004
   1037702.29748    842803.33645
                  22574204.3674                                   22574200.9224
                                                                        48.5004
        34.7504
  -8615868.53947  -6698865.75846
                  22559934.7034                                   22559930.3404
                                                                        47.7504
        36.0004
 -19690800.42248 -15278563.41846
                  21344503.6484                                   21344499.2034
                                                                        50.0004
        37.0004
 -12784866.95748  -9922167.22345
                  22502725.2504                                   22502721.6524
                                                                        48.5004
        35.5004
 -13897847.82448 -10814334.23846
                  21829804.6884                                   21829801.1254
                                                                        50.0004
        37.5004
  -2976091.64546  -2277767.00044
                  23276203.9614                                   23276198.2544
                                                                        41.7504
        27.0004
  -1219807.75447   -912699.46144
                  23355394.8284                                   23355390.6484
                                                                        43.7504
        27.0004
 09 10  7  0 54  0.0000000  0  8G02G04G05G13G29G10G23G25
 -15649077.29748 -12121946.05147
                  20658761.7664                                   20658755.6174
                                                                        51.7504
        42.2504
   1046450.87548    849620.41845
                  22575869.4144                                   22575865.9884
                                                                        49.0004
        35.0004
  -8797193.36348  -6840157.80546
                  22525429.5864                                   22525425.6804
                                                                        48.0004
        36.7504
 -19761149.85948 -15333381.21546
                  21331116.6094                                   21331111.8284
                                                                        50.5004
        37.0004
 -12921986.83248 -10029013.87146
                  22476632.3134                                   22476628.4454
                                                                        49.0004
        36.2504
 -14069783.74248 -10948310.30146
                  21797086.6254                                   21797082.9344
                                                                        51.0004
        38.0004
  -2976211.78947  -2277860.62144
                  23276181.2344                                   23276175.5594
                                                                        43.0004
        26.5004
  -1372372.32047  -1031580.89144
                  23326362.9454                                   23326358.8244
                                                                        43.7504
        27.5004
 09 10  7  0 54 30.0000000  0  8G02G04G05G13G29G10G23G25
 -15706352.89548 -12166576.39147
                  20647862.5234                                   20647856.7464
                                                                        52.5004
        42.5004
   1055512.48048    856681.39545
                  22577593.6644                                   22577590.4654
                                                                        50.0004
        34.7504
  -8978201.87948  -6981203.39146
                  22490984.7974                                   22490981.0944
                                                                        49.0004
        37.5004
 -19830831.51648 -15387678.64146
                  21317856.6484                                   21317852.0004
                                                                        51.0004
        37.0004
 -13058559.51648 -10135434.11746
                  22450643.3444                                   22450639.6724
                                                                        48.5004
        36.0004
 -14241307.84848 -11081965.45346
                  21764446.6334                                   21764443.1564
                                                                        50.2504
        37.2504
  -2975934.46547  -2277644.51244
                  23276234.4774                                   23276227.8634
                                                                        43.5004
        27.5004
  -1524477.53547  -1150104.44544
                  23297417.8284                                   23297414.1254
                                                                        43.7504
        27.7504
 09 10  7  0 55  0.0000000  0  8G02G04G05G13G29G10G23G25
 -15763043.24648 -12210750.69147
                  20637074.6804                                   20637068.2774
                                                                        52.0004
        42.7504
   1064886.78148    863985.87145
                  22579377.8754                                   22579374.3594
                                                                        49.7504
        34.5004
  -9158890.17648  -7121999.42246
                  22456601.3284                                   22456597.2154
                                                                        48.2504
        37.0004
 -19899843.51248 -15441454.23046
                  21304724.2344                                   21304719.6414
                                                                        51.2504
        36.2504
 -13194580.97748 -10241424.82045
                  22424759.0784                                   22424755.3914
                                                                        49.0004
        35.5004
 -14412415.98048 -11215296.49246
                  21731886.0004                                   21731881.7774
                                                                        50.5004
        37.0004
  -2975259.80147  -2277118.77344
                  23276363.0234                                   23276356.3754
                                                                        42.5004
        26.5004
  -1676118.66447  -1268266.31244
                  23268561.7424                                   23268558.1254
                                                                        43.5004
        28.2504
 09 10  7  0 55 30.0000000  0  8G02G04G05G13G29G10G23G25
 -15819149.73448 -12254470.05547
                  20626397.9304                                   20626392.2424
                                                                        52.0004
        42.0004
   1074571.91048    871532.67645
                  22581220.6334                                   22581217.3674
                                                                        49.0004
        34.5004
  -9339256.96148  -7262545.01646
                  22422278.3054                                   22422274.4614
                                                                        48.5004
        37.0004
 -19968187.71948 -15494709.44546
                  21291718.7504                                   21291714.1684
                                                                        50.7504
        36.7504
 -13330050.16448 -10346985.20745
                  22398980.4454                                   22398976.6054
                                                                        48.7504
        35.5004
 -14583106.79348 -11348302.29746
                  21699404.7504                                   21699400.6684
                                                                        50.5004
        38.0004
  -2974190.75047  -2276285.73844
                  23276566.6024                                   23276560.1054
                                                                        42.5004
        28.0004
  -1827294.19547  -1386065.41844
                  23239794.3914                                   23239790.1484
                                                                        45.0004
        28.0004
 09 10  7  0 56  0.0000000  0  9G02G04G05G13G29G10G23G16G25
 -15874672.55548 -12297734.59847
                  20615832.6254                                   20615826.5784
                                                                        52.5004
        42.0004
   1084565.46148    879319.76645
                  22583122.3834                                   22583119.2504
                                                                        49.0004
        34.0004
  -9519299.61748  -7402837.97346
                  22388017.5084                                   22388013.2464
                                                                        49.0004
        37.5004
 -20035864.66848 -15547444.72746
                  21278840.2114                                   21278835.5354
                                                                        51.2504
        36.5004
 -13464964.98848 -10452113.61346
                  22373306.7504                                   22373302.6254
                                                                        49.0004
        36.2504
 -14753378.22348 -11480981.31246
                  21667002.7814                                   21666999.2304
                                                                        50.7504
        37.5004
  -2972729.60247  -2275147.17644
                  23276844.3134                                   23276838.2934
                                                                        42.7504
        28.5004
   9249307.00056   7240609.04753
                  24367763.1254                                   24367758.6094
                                                                        39.7504
        20.2504
  -1978001.76247  -1503499.89844
                  23211115.1484                                   23211111.7624
                                                                        44.7504
        27.7504
 09 10  7  0 56 30.0000000  0  9G02G04G05G13G29G10G23G16G25
 -15929618.25848 -12340549.43047
                  20605376.7424                                   20605370.6524
                                                                        52.5004
        42.2504
   1094860.10948    887341.51645
                  22585081.5004                                   22585078.3754
                                                                        49.0004
        34.2504
  -9699021.98048  -7542881.35946
                  22353817.2584                                   22353813.6254
                                                                        48.7504
        37.5004
 -20102880.71148 -15599665.02346
                  21266087.3984                                   21266082.8524
                                                                        50.5004
        36.5004
 -13599329.36748 -10556813.09445
                  22347737.9384                                   22347734.2854
                                                                        49.7504
        35.5004
 -14923233.69148 -11613336.21146
                  21634680.3594                                   21634676.8754
                                                                        51.0004
        38.5004
  -2970884.87947  -2273709.68444
                  23277195.0314                                   23277188.6564
                                                                        42.7504
        27.5004
   9093480.40647   7119185.76643
                  24338110.6724                                   24338105.1094
                                                                        42.0004
        22.0004
  -2128244.46947  -1620572.12544
                  23182525.0164                                   23182521.5864
                                                                        45.5004
        27.7504
 09 10  7  0 57  0.0000000  0  9G02G04G05G13G29G10G23G16G25
 -15983990.61748 -12382917.47347
                  20595029.6884                                   20595023.9884
                                                                        52.0004
        42.5004
   1105450.37148    895593.59045
                  22587097.1174                                   22587093.7774
                                                                        49.0004
        34.0004
  -9878425.07448  -7682675.84846
                  22319678.0634                                   22319674.2384
                                                                        49.5004
        37.5004
 -20169240.03548 -15651373.58246
                  21253459.7664                                   21253455.5984
                                                                        50.2504
        36.2504
 -13733144.75848 -10661084.81246
                  22322273.7424                                   22322270.0634
                                                                        48.7504
        36.0004
 -15092674.50448 -11745367.99246
                  21602436.9694                                   21602433.3094
                                                                        50.0004
        37.5004
  -2968662.17647  -2271977.71544
                  23277617.9534                                   23277612.1954
                                                                        42.0004
        26.0004
   8938116.79347   6998123.20743
                  24308545.8134                                   24308540.5784
                                                                        42.2504
        22.0004
  -2278023.14847  -1737282.71944
                  23154023.2734                                   23154019.4694
                                                                        44.5004
        28.0004
 09 10  7  0 57 30.0000000  0  9G02G04G05G13G29G10G23G16G25
 -16037790.51248 -12424839.48847
                  20584792.0704                                   20584785.9534
                                                                        52.2504
        42.7504
   1116334.22748    904074.47345
                  22589168.1414                                   22589164.5634
                                                                        49.0004
        34.2504
 -10057507.84048  -7822220.94946
                  22285599.7734                                   22285595.5044
                                                                        49.7504
        37.5004
 -20234943.29748 -15702570.90246
                  21240956.4924                                   21240952.0234
                                                                        51.0004
        36.5004
 -13866409.61748 -10764927.54745
                  22296914.3204                                   22296910.7504
                                                                        48.7504
        35.7504
 -15261698.37548 -11877074.88746
                  21570272.7504                                   21570268.9104
                                                                        50.0004
        37.5004
  -2966064.31647  -2269953.43044
                  23278112.5234                                   23278106.3324
                                                                        42.5004
        27.0004
   8783218.49247   6877423.21143
                  24279069.6724                                   24279063.8954
                                                                        42.5004
        22.0004
  -2427336.00847  -1853630.35544
                  23125609.8204                                   23125605.4964
                                                                        44.0004
        26.7504
 09 10  7  0 58  0.0000000  0  9G02G04G05G13G29G10G23G16G25
 -16091013.67648 -12466312.10247
                  20574663.7734                                   20574658.0944
                                                                        52.2504
        42.5004
   1127514.22348    912786.03545
                  22591295.1484                                   22591292.4104
                                                                        48.2504
        34.0004
 -10236262.74248  -7961510.46946
                  22251583.7274                                   22251579.6254
                                                                        49.5004
        37.7504
 -20299986.96948 -15753254.27746
                  21228579.0784                                   21228574.7114
                                                                        50.5004
        37.0004
 -13999117.30948 -10868336.11745
                  22271660.6804                                   22271657.6564
                                                                        48.7504
        35.5004
 -15430298.82048 -12008451.84846
                  21538188.9844                                   21538185.0744
                                                                        50.5004
        38.5004
  -2963088.77047  -2267634.81644
                  23278678.7034                                   23278672.2464
                                                                        43.0004
        27.7504
   8628792.50046   6757091.27043
                  24249682.9224                                   24249678.1804
                                                                        40.7504
        20.7504
  -2576175.94147  -1969609.44944
                  23097285.8834                                   23097282.6454
                                                                        43.5004
        28.5004
 09 10  7  0 58 30.0000000  0  9G02G04G05G13G29G10G23G16G25
 -16143659.42648 -12507334.77747
                  20564645.8054                                   20564640.3524
                                                                        52.2504
        42.0004
   1138990.09447    921728.24645
                  22593479.4844                                   22593476.0124
                                                                        47.0004
        33.5004
 -10414686.68048  -8100542.05946
                  22217630.7894                                   22217627.1094
                                                                        49.2504
        37.7504
 -20364370.44148 -15803423.21946
                  21216327.4224                                   21216323.2114
                                                                        50.7504
        37.2504
 -14131264.83648 -10971308.20346
                  22246513.9454                                   22246510.4804
                                                                        48.2504
        36.0004
 -15598472.25448 -12139496.03546
                  21506186.6094                                   21506183.2584
                                                                        49.5004
        37.7504
  -2959736.90247  -2265022.93044
                  23279316.5864                                   23279310.1214
                                                                        43.5004
        26.5004
   8474843.03946   6637130.64843
                  24220387.3054                                   24220383.1374
                                                                        40.7504
        21.5004
  -2724539.28947  -2085217.24644
                  23069053.7894                                   23069049.9884
                                                                        44.5004
        29.0004
 09 10  7  0 59  0.0000000  0  9G02G04G05G13G29G10G23G16G25
 -16195720.39848 -12547901.80547
                  20554738.9774                                   20554733.4344
                                                                        51.5004
        42.5004
   1150768.26247    930906.14145
                  22595720.8054                                   22595717.2624
                                                                        47.0004
        34.0004
 -10592768.96948  -8239307.43046
                  22183742.5474                                   22183739.2114
                                                                        49.5004
        38.0004
 -20428086.38748 -15853072.00446
                  21204202.7344                                   21204197.9654
                                                                        50.2504
        36.7504
 -14262842.07848 -11073835.88346
                  22221475.3134                                   22221471.7584
                                                                        48.7504
        36.0004
 -15766208.50848 -12270199.55546
                  21474267.6884                                   21474263.8444
                                                                        49.7504
        37.5004
  -2956002.67647  -2262113.12544
                  23280026.9614                                   23280020.4924
                                                                        42.7504
        27.0004
   8321380.63746   6517549.59043
                  24191184.4304                                   24191180.0664
                                                                        40.2504
        21.0004
  -2872415.48847  -2200445.42644
                  23040913.8364                                   23040910.0704
                                                                        45.0004
        29.0004
 09 10  7  0 59 30.0000000  0  9G02G04G05G13G29G10G23G16G25
 -16247199.27348 -12588015.22347
                  20544943.1564                                   20544937.0904
                                                                        51.7504
        42.0004
   1162844.00047    940315.78945
                  22598018.8444                                   22598015.7624
                                                                        46.5004
        33.0004
 -10770510.07848  -8377806.98846
                  22149919.9924                                   22149915.6764
                                                                        50.0004
        38.7504
 -20491137.91048 -15902203.01646
                  21192204.4774                                   21192200.1844
                                                                        50.7504
        36.2504
 -14393849.69948 -11175919.72346
                  22196545.3054                                   22196542.1374
                                                                        49.2504
        36.0004
 -15933508.30548 -12400563.05546
                  21442431.4304                                   21442428.2814
                                                                        49.7504
        38.5004
  -2951891.20347  -2258909.39144
                  23280809.4304                                   23280803.1914
                                                                        45.0004
        26.0004
   8168405.79346   6398348.43843
                  24162073.9534                                   24162069.3794
                                                                        40.2504
        20.0004
  -3019804.41047  -2315293.87544
                  23012866.3054                                   23012863.0474
                                                                        45.2504
        28.5004
 09 10  7  1  0  0.0000000  0  9G02G04G05G13G29G10G23G16G25
 -16298096.44948 -12627675.37947
                  20535257.7974                                   20535251.4694
                                                                        52.5004
        42.0004
   1175215.80548    949956.24645
                  22600372.5704                                   22600369.2074
                                                                        48.0004
        34.0004
 -10947907.82048  -8516038.94546
                  22116162.1804                                   22116158.2894
                                                                        50.0004
        38.0004
 -20553525.47748 -15950816.68746
                  21180332.7424                                   21180327.9694
                                                                        51.2504
        36.7504
 -14524285.77048 -11277558.20346
                  22171724.4774                                   22171720.6454
                                                                        49.0004
        36.7504
 -16100369.26248 -12530584.61746
                  21410679.0084                                   21410675.1374
                                                                        50.0004
        38.5004
  -2947404.61747  -2255413.34444
                  23281663.5314                                   23281656.9344
                                                                        44.2504
        26.2504
   8015920.84046   6279529.01243
                  24133057.1414                                   24133052.1844
                                                                        39.2504
        19.0004
  -3166703.76247  -2429760.91044
                  22984912.5234                                   22984908.7854
                                                                        45.0004
        29.0004
 09 10  7  1  0 30.0000000  0  9G02G04G05G13G29G10G23G16G25
 -16348411.93748 -12666882.21947
                  20525682.7584                                   20525676.9144
                                                                        52.0004
        42.2504
   1187882.33247    959826.34445
                  22602782.8594                                   22602779.5984
                                                                        46.5004
        33.0004
 -11124959.02348  -8654000.87946
                  22082470.3914                                   22082466.4804
                                                                        49.7504
        37.7504
 -20615249.59048 -15998913.41046
                  21168586.6724                                   21168582.1454
                                                                        50.5004
        36.0004
 -14654147.76248 -11378749.34846
                  22147012.8284                                   22147009.1994
                                                                        49.5004
        36.5004
 -16266787.95348 -12660261.47746
                  21379010.6174                                   21379006.5704
                                                                        49.5004
        38.2504
  -2942544.70347  -2251626.40244
                  23282588.0314                                   23282581.8754
                                                                        43.7504
        26.5004
   7863928.98446   6161093.80143
                  24104133.9384                                   24104128.8014
                                                                        39.7504
        18.2504
  -3313110.52747  -2543844.12144
                  22957052.5864                                   22957048.6884
                                                                        46.0004
        29.5004
 09 10  7  1  1  0.0000000  0  9G02G04G05G13G29G10G23G16G25
 -14822727.39848 -11478037.15647
                  20816010.8834                                   20816004.9384
                                                                        51.2504
        42.2504
   2776258.36747   2197521.82445
                  22905040.6564                                   22905037.8874
                                                                        46.7504
        33.0004
  -9726238.88748  -7564089.08646
                  22348637.9614                                   22348633.7234
                                                                        49.7504
        39.0004
 -19100891.38348 -14818893.99646
                  21456759.6094                                   21456755.1644
                                                                        50.2504
        36.2504
 -13208012.03948 -10251890.33246
                  22422203.2664                                   22422199.4884
                                                                        49.0004
        36.7504
 -14857339.33248 -11561989.83246
                  21647219.7034                                   21647215.9964
                                                                        49.7504
        38.0004
  -1361896.19947  -1019952.25444
                  23583375.9774                                   23583369.4534
                                                                        44.0004
        27.0004
   9287855.48046   7270646.89843
                  24375098.5164                                   24375093.3054
                                                                        41.5004
        18.2504
  -1883600.00047  -1429939.83244
                  23229079.5704                                   23229075.0314
                                                                        44.5004
        29.0004
 09 10  7  1  1 30.0000000  0 10G02G04G05G13G29G10G23G16G07G25
 -14871883.21148 -11516340.43447
                  20806656.8204                                   20806650.7074
                                                                        52.0004
        42.0004
   2789507.48847   2207846.00045
                  22907562.2034                                   22907559.1214
                                                                        47.0004
        33.0004
  -9902592.99648  -7701507.87546
                  22315078.7734                                   22315074.7034
                                                                        49.5004
        38.5004
 -19161292.47748 -14865959.77346
                  21445265.8984                                   21445261.2734
                                                                        50.5004
        36.2504
 -13336722.23448 -10352183.99646
                  22397710.5704                                   22397707.0554
                                                                        49.0004
        36.5004
 -15022868.84848 -11690973.83646
                  21615720.5314                                   21615716.3714
                                                                        49.2504
        38.0004
  -1356297.96147  -1015590.00044
                  23584440.9384                                   23584434.6724
                                                                        43.2504
        25.7504
   9136856.19947   7152985.11343
                  24346364.0394                                   24346359.6024
                                                                        42.0004
        21.2504
  10785422.33256   8418771.51253
                  24552951.9614                                   24552947.4494
                                                                        41.0004
        22.5004
  -2029016.13347  -1543251.05544
                  23201407.6884                                   23201403.1884
                                                                        44.7504
        28.2504
 09 10  7  1  2  0.0000000  0 10G02G04G05G13G29G10G23G16G07G25
 -14920465.08248 -11554196.48846
                  20797412.5234                                   20797406.3484
                                                                        52.0004
        41.5004
   2803039.97347   2218390.89145
                  22910137.2194                                   22910134.1334
                                                                        46.0004
        33.5004
 -10078600.05148  -7838656.23446
                  22281585.8364                                   22281581.9104
                                                                        49.5004
        37.5004
 -19221038.53148 -14912515.17246
                  21433896.2344                                   21433891.8164
                                                                        50.2504
        36.5004
 -13464858.71148 -10452030.59046
                  22373326.9454                                   22373323.3404
                                                                        49.0004
        36.5004
 -15187955.51248 -11819612.76246
                  21584305.4304                                   21584301.4304
                                                                        49.5004
        37.5004
  -1350339.35247  -1010946.91043
                  23585574.6954                                   23585568.2704
                                                                        43.0004
        23.7504
   8986352.22746   7035709.26643
                  24317724.2814                                   24317719.2624
                                                                        41.7504
        20.2504
  10599237.46246   8273692.37343
                  24517521.5004                                   24517517.8984
                                                                        38.5004
        21.5004
  -2173938.28147  -1656177.35944
                  23173829.2664                                   23173825.6174
                                                                        44.5004
        27.5004
 09 10  7  1  2 30.0000000  0 10G02G04G05G13G29G10G23G16G07G25
 -14968477.67248 -11591608.87146
                  20788275.6884                                   20788269.7304
                                                                        52.0004
        41.7504
   2816849.31347   2229151.21145
                  22912765.5634                                   22912762.1524
                                                                        46.5004
        32.2504
 -10254262.14848  -7975535.78546
                  22248158.5784                                   22248154.4264
                                                                        48.0004
        38.2504
 -19280134.16848 -14958563.75046
                  21422650.6564                                   21422646.1724
                                                                        49.7504
        37.0004
 -13592424.15648 -10551432.21146
                  22349051.8054                                   22349048.3524
                                                                        48.2504
        36.7504
 -15352601.66848 -11947908.45746
                  21552974.4224                                   21552970.5314
                                                                        50.0004
        39.0004
  -1344026.66847  -1006027.93744
                  23586776.2344                                   23586769.1994
                                                                        43.7504
        25.2504
   8836341.62947   6918817.91443
                  24289178.4064                                   24289173.1994
                                                                        42.2504
        22.0004
  10413312.92246   8128816.12143
                  24482142.0864                                   24482138.2774
                                                                        41.0004
        22.7504
  -2318368.47347  -1768720.37544
                  23146345.1254                                   23146341.6484
                                                                        44.5004
        27.5004
 09 10  7  1  3  0.0000000  0 10G02G04G05G13G29G10G23G16G07G25
 -15015918.73848 -11628575.98046
                  20779247.7504                                   20779241.9804
                                                                        51.0004
        41.7504
   2830937.35247   2240128.78145
                  22915446.3444                                   22915442.9344
                                                                        47.0004
        32.5004
 -10429573.65648  -8112142.17246
                  22214797.9064                                   22214794.0514
                                                                        49.5004
        38.5004
 -19338577.47748 -15004103.98446
                  21411529.5554                                   21411524.8954
                                                                        50.2504
        37.0004
 -13719413.26648 -10650384.73446
                  22324886.7504                                   22324882.7274
                                                                        49.5004
        37.0004
 -15516802.01248 -12075856.78146
                  21521727.9384                                   21521724.4654
                                                                        50.0004
        39.0004
  -1337359.02347  -1000832.35244
                  23588044.5084                                   23588038.4534
                                                                        44.5004
        26.0004
   8686830.19146   6802315.48843
                  24260727.6094                                   24260722.5664
                                                                        41.2504
        22.5004
  10227654.67647   7984147.37544
                  24446812.8364                                   24446808.5784
                                                                        43.0004
        26.5004
  -2462301.22347  -1880875.72744
                  23118955.7664                                   23118951.5514
                                                                        44.5004
        26.7504
 09 10  7  1  3 30.0000000  0 10G02G04G05G13G29G10G23G16G07G25
 -15062788.47748 -11665097.96547
                  20770328.9534                                   20770323.1884
                                                                        51.5004
        42.0004
   2845303.82447   2251323.73445
                  22918179.6254                                   22918176.3554
                                                                        46.2504
        32.2504
 -10604532.42248  -8248473.68046
                  22181504.3444                                   22181500.4144
                                                                        48.7504
        38.7504
 -19396368.57848 -15049135.97745
                  21400532.0004                                   21400527.8794
                                                                        49.7504
        35.7504
 -13845823.96148 -10748886.55146
                  22300831.6254                                   22300827.7544
                                                                        48.7504
        36.5004
 -15680553.83248 -12203455.57446
                  21490567.1334                                   21490563.4614
                                                                        50.0004
        39.0004
  -1330338.44547   -995361.77344
                  23589381.0084                                   23589374.4454
                                                                        44.0004
        26.5004
   8537821.14147   6686204.50043
                  24232371.7584                                   24232366.4384
                                                                        42.2504
        22.5004
  10042266.39547   7839688.92644
                  24411534.7664                                   24411530.2504
                                                                        42.7504
        28.0004
  -2605733.65647  -1992641.26244
                  23091661.3674                                   23091657.5664
                                                                        43.5004
        28.5004
 09 10  7  1  4  0.0000000  0 10G02G04G05G13G29G10G23G16G07G25
 -15109079.32048 -11701168.87947
                  20761520.0784                                   20761514.3324
                                                                        51.0004
        42.0004
   2859953.57447   2262739.34045
                  22920967.5004                                   22920963.9494
                                                                        45.5004
        32.5004
 -10779128.18448  -8384522.26246
                  22148279.7424                                   22148276.0044
                                                                        49.0004
        38.5004
 -19453501.43748 -15093655.05946
                  21389660.3984                                   21389655.6294
                                                                        50.2504
        36.2504
 -13971646.80148 -10846930.28546
                  22276888.1484                                   22276884.7894
                                                                        48.7504
        36.5004
 -15843847.23048 -12330697.21946
                  21459493.5634                                   21459489.7464
                                                                        49.2504
        39.2504
  -1322959.28947   -989611.79344
                  23590785.4304                                   23590779.1724
                                                                        43.7504
        27.0004
   8389324.38346   6570492.76243
                  24204113.8134                                   24204108.8134
                                                                        39.7504
        21.5004
   9857159.18447   7695449.53144
                  24376309.8054                                   24376305.7734
                                                                        43.5004
        27.0004
  -2748655.72347  -2104009.16444
                  23064464.3984                                   23064460.5824
                                                                        44.2504
        27.7504
 09 10  7  1  4 30.0000000  0 10G02G04G05G13G29G10G23G16G07G25
 -15154792.79748 -11736789.86346
                  20752821.2814                                   20752815.2114
                                                                        51.2504
        41.7504
   2874883.98047   2274373.41045
                  22923808.2114                                   22923805.2854
                                                                        46.2504
        33.5004
 -10953359.57448  -8520286.99246
                  22115124.8674                                   22115120.6174
                                                                        48.2504
        38.2504
 -19509976.73048 -15137661.80546
                  21378913.2974                                   21378908.9224
                                                                        49.2504
        36.7504
 -14096880.42648 -10944514.91046
                  22253056.9454                                   22253053.6254
                                                                        48.2504
        36.5004
 -16006680.46148 -12457580.30146
                  21428507.1094                                   21428503.2584
                                                                        48.5004
        38.7504
  -1315224.85247   -983584.94144
                  23592257.0704                                   23592250.3954
                                                                        42.7504
        25.2504
   8241342.19146   6455181.98443
                  24175953.6724                                   24175948.7624
                                                                        40.0004
        21.0004
   9672335.95747   7551431.41044
                  24341139.4924                                   24341135.1604
                                                                        43.5004
        27.0004
  -2891065.28947  -2214977.43444
                  23037364.8134                                   23037360.6604
                                                                        44.2504
        28.5004
 09 10  7  1  5  0.0000000  0 10G02G04G05G13G29G10G23G16G07G25
 -15199932.66848 -11771963.73846
                  20744231.4224                                   20744225.6214
                                                                        52.0004
        41.7504
   2890090.02047   2286222.22745
                  22926702.4454                                   22926699.0394
                                                                        47.7504
        32.2504
 -11127227.46148  -8655768.33646
                  22082038.4064                                   22082034.4264
                                                                        48.0004
        39.0004
 -19565799.05548 -15181159.71145
                  21368290.6484                                   21368286.1844
                                                                        49.0004
        35.5004
 -14221526.88748 -11041642.01646
                  22229337.2114                                   22229334.1644
                                                                        48.5004
        37.0004
 -16169054.67248 -12584105.62946
                  21397608.4694                                   21397604.8364
                                                                        49.5004
        39.0004
  -1307140.78947   -977285.68444
                  23593795.5474                                   23593789.0354
                                                                        43.0004
        25.7504
   8093873.71946   6340271.50043
                  24147890.9064                                   24147886.3954
                                                                        39.0004
        20.2504
   9487796.41047   7407634.34444
                  24306022.2274                                   24306017.7344
                                                                        43.0004
        26.0004
  -3032964.56647  -2325548.37544
                  23010362.2274                                   23010358.0274
                                                                        45.0004
        29.5004
 09 10  7  1  5 30.0000000  0 10G02G04G05G13G29G10G23G16G07G25
 -15244498.05148 -11806689.98046
                  20735750.6564                                   20735744.8204
                                                                        51.7504
        41.0004
   2905571.40647   2298285.26245
                  22929648.4774                                   22929645.3164
                                                                        46.7504
        32.2504
 -11300728.13748  -8790963.64846
                  22049022.2584                                   22049018.0554
                                                                        48.0004
        38.7504
 -19620967.24248 -15224147.93046
                  21357792.3984                                   21357788.1914
                                                                        49.7504
        36.2504
 -14345582.19948 -11138308.46946
                  22205730.4064                                   22205726.9024
                                                                        49.0004
        36.7504
 -16330965.95748 -12710270.23446
                  21366797.5944                                   21366793.9964
                                                                        50.0004
        38.5004
  -1298707.08647   -970713.99644
                  23595400.5084                                   23595394.1684
                                                                        43.5004
        27.0004
   7946923.36346   6225764.72743
                  24119927.2734                                   24119923.2034
                                                                        39.5004
        21.2504
   9303545.74647   7264062.38744
                  24270960.9534                                   24270956.5944
                                                                        42.2504
        24.5004
  -3174348.52747  -2435717.74644
                  22983458.0784                                   22983454.2854
                                                                        44.0004
        29.7504
 09 10  7  1  6  0.0000000  0 10G02G04G05G13G29G10G23G16G07G25
 -15288487.35548 -11840967.06247
                  20727379.7814                                   20727373.9144
                                                                        50.7504
        42.0004
   2921328.83647   2310563.45345
                  22932647.2034                                   22932643.7464
                                                                        47.0004
        32.0004
 -11473857.29748  -8925869.46946
                  22016076.9224                                   22016073.7034
                                                                        49.5004
        39.0004
 -19675481.19148 -15266626.30545
                  21347418.9304                                   21347414.2774
                                                                        49.5004
        35.7504
 -14469043.00048 -11234511.67246
                  22182236.6884                                   22182233.3054
                                                                        49.0004
        36.7504
 -16492410.67248 -12836071.23446
                  21336075.9454                                   21336071.9924
                                                                        49.2504
        38.5004
  -1289924.71146   -963870.60943
                  23597071.2584                                   23597064.9344
                                                                        41.0004
        22.5004
   7800495.11746   6111664.84443
                  24092062.8134                                   24092059.0274
                                                                        39.5004
        20.7504
   9119589.05146   7120719.48843
                  24235954.7274                                   24235950.6094
                                                                        41.7504
        22.7504
  -3315213.06247  -2545482.24244
                  22956652.3204                                   22956648.3444
                                                                        45.2504
        28.7504
 09 10  7  1  6 30.0000000  0 10G02G04G05G13G29G10G23G16G07G25
 -15331904.59048 -11874798.53546
                  20719117.5164                                   20719111.7384
                                                                        51.7504
        41.5004
   2937359.33247   2323055.25445
                  22935697.7504                                   22935694.1214
                                                                        47.0004
        32.2504
 -11646615.39848  -9060486.19546
                  21983202.4384                                   21983198.4144
                                                                        49.2504
        38.7504
 -19729343.96948 -15308597.26646
                  21337168.9064                                   21337164.1174
                                                                        49.5004
        36.2504
 -14591910.39848 -11330252.48446
                  22158855.7114                                   22158852.1484
                                                                        48.5004
        37.0004
 -16653389.05548 -12961508.91046
                  21305442.7504                                   21305438.7664
                                                                        49.0004
        38.5004
  -1280798.36347   -956759.16843
                  23598808.0784                                   23598800.9104
                                                                        42.5004
        22.5004
   7654588.96946   5997971.74243
                  24064298.0944                                   24064293.5944
                                                                        40.2504
        21.5004
   8935927.04746   6977606.20743
                  24201004.2114                                   24201000.6914
                                                                        41.7504
        22.7504
  -3455558.79747  -2654842.44144
                  22929944.8204                                   22929941.0234
                                                                        44.5004
        29.5004
 09 10  7  1  7  0.0000000  0 10G02G04G05G13G29G10G23G16G07G25
 -15374751.77348 -11908185.83246
                  20710963.6174                                   20710958.0044
                                                                        50.2504
        41.5004
   2953657.69147   2335755.34845
                  22938799.3134                                   22938795.5004
                                                                        46.2504
        32.7504
 -11819001.59848  -9194813.17646
                  21950398.6414                                   21950394.5004
                                                                        50.5004
        39.5004
 -19782557.83648 -15350062.68446
                  21327042.9224                                   21327038.2584
                                                                        50.0004
        36.2504
 -14714183.67648 -11425530.34446
                  22135587.7194                                   22135584.5234
                                                                        48.2504
        36.7504
 -16813899.93448 -13086582.25446
                  21274898.5474                                   21274894.4964
                                                                        49.2504
        39.0004
  -1271331.74247   -949382.54343
                  23600609.8984                                   23600602.0204
                                                                        42.0004
        22.7504
   7509206.48846   5884686.70343
                  24036632.1484                                   24036627.5634
                                                                        40.2504
        21.5004
   8752561.88747   6834724.26243
                  24166112.2734                                   24166107.4454
                                                                        42.5004
        22.5004
  -3595384.61747  -2763797.58244
                  22903336.8284                                   22903332.7974
                                                                        44.7504
        29.0004
 09 10  7  1  7 30.0000000  0 10G02G04G05G13G29G10G23G16G07G25
 -15417029.70748 -11941129.67247
                  20702919.1024                                   20702912.9654
                                                                        50.5004
        42.0004
   2970222.39147   2348662.88345
                  22941951.0944                                   22941947.5084
                                                                        45.0004
        31.0004
 -11991013.74248  -9328848.59046
                  21917665.4144                                   21917661.5984
                                                                        49.5004
        39.0004
 -19835124.30948 -15391023.57446
                  21317039.7424                                   21317035.3014
                                                                        49.5004
        36.0004
 -14835861.73048 -11520344.40246
                  22112433.4384                                   22112429.9774
                                                                        49.0004
        37.0004
 -16973941.94148 -13211290.32046
                  21244443.4064                                   21244439.8794
                                                                        49.5004
        39.2504
  -1261527.27047   -941742.67643
                  23602475.3054                                   23602468.2034
                                                                        42.0004
        23.7504
   7364349.57446   5771811.17643
                  24009068.1484                                   24009062.3164
                                                                        39.5004
        21.5004
   8569496.62947   6692075.96144
                  24131276.0084                                   24131271.2974
                                                                        44.5004
        25.7504
  -3734688.93047  -2872346.46544
                  22876828.1954                                   22876824.0004
                                                                        44.0004
        28.2504
 09 10  7  1  8  0.0000000  0 10G02G04G05G13G29G10G23G16G07G25
 -15458737.10248 -11973628.94146
                  20694982.0864                                   20694976.1954
                                                                        51.0004
        41.5004
   2987053.30547   2361777.63745
                  22945154.0554                                   22945150.2974
                                                                        45.0004
        31.7504
 -12162647.73848  -9462589.34446
                  21885004.5784                                   21885000.7154
                                                                        50.7504
        39.5004
 -19887042.32448 -15431479.15245
                  21307159.8984                                   21307155.5234
                                                                        49.5004
        35.5004
 -14956940.95748 -11614691.85946
                  22089392.7814                                   22089389.2114
                                                                        49.0004
        37.2504
 -17133510.76248 -13335629.60946
                  21214078.7034                                   21214075.1564
                                                                        49.7504
        39.0004
  -1251385.38747   -933839.90243
                  23604405.1254                                   23604398.6414
                                                                        42.2504
        23.0004
   7220022.64546   5659348.63343
                  23981603.0704                                   23981598.0314
                                                                        41.5004
        22.5004
   8386736.48447   6549665.37544
                  24096498.0084                                   24096493.1884
                                                                        43.2504
        26.0004
  -3873467.12547  -2980485.32044
                  22850419.8984                                   22850415.4144
                                                                        44.2504
        29.5004
 09 10  7  1  8 30.0000000  0 10G02G04G05G13G29G10G23G16G07G25
 -15499877.11348 -12005686.10247
                  20687153.5634                                   20687147.5984
                                                                        50.7504
        42.0004
   3004147.26647   2375097.68845
                  22948406.8984                                   22948403.1884
                                                                        45.5004
        32.0004
 -12333903.88748  -9596035.68746
                  21852415.6644                                   21852411.9384
                                                                        50.2504
        39.5004
 -19938316.09848 -15471432.75446
                  21297403.0164                                   21297398.4414
                                                                        49.7504
        36.2504
 -15077422.08248 -11708573.27346
                  22066466.1024                                   22066462.4184
                                                                        49.2504
        37.2504
 -17292606.59048 -13459600.34846
                  21183803.2034                                   21183799.7624
                                                                        49.7504
        39.0004
  -1240910.93447   -925678.00444
                  23606398.5784                                   23606392.2234
                                                                        42.2504
        27.0004
   7076225.57846   5547298.93043
                  23954239.3914                                   23954233.7034
                                                                        40.5004
        21.7504
   8204282.28947   6407493.21944
                  24061777.9774                                   24061773.6254
                                                                        42.5004
        26.0004
  -4011719.50047  -3088214.37544
                  22824111.3134                                   22824107.5124
                                                                        43.7504
        29.2504
 09 10  7  1  9  0.0000000  0 10G02G04G05G13G29G10G23G16G07G25
 -15540453.65648 -12037304.23446
                  20679432.2664                                   20679426.0824
                                                                        51.0004
        41.0004
   3021498.99247   2388618.59845
                  22951709.3364                                   22951705.5474
                                                                        45.5004
        33.0004
 -12504783.03948  -9729188.25846
                  21819898.2734                                   21819894.5984
                                                                        49.5004
        39.0004
 -19988948.41848 -15510886.48045
                  21287768.3984                                   21287763.6764
                                                                        50.5004
        35.7504
 -15197306.21148 -11801989.48846
                  22043652.9224                                   22043649.3954
                                                                        49.5004
        37.2504
 -17451230.41048 -13583203.35546
                  21153618.0554                                   21153614.5474
                                                                        49.5004
        39.5004
  -1230108.93447   -917260.87544
                  23608454.3594                                   23608448.2344
                                                                        43.7504
        27.2504
   6932958.15646   5435661.98443
                  23926975.8054                                   23926970.9614
                                                                        40.2504
        21.2504
   8022134.23046   6265559.65244
                  24027116.0944                                   24027111.9734
                                                                        40.7504
        26.5004
  -4149447.09047  -3195534.60944
                  22797901.8914                                   22797898.7544
                                                                        43.2504
        29.2504
 09 10  7  1  9 30.0000000  0 10G02G04G05G13G29G10G23G16G07G25
 -15580466.35948 -12068482.97746
                  20671817.8984                                   20671811.5474
                                                                        50.5004
        41.5004
   3039107.05947   2402338.87545
                  22955059.8594                                   22955056.3874
                                                                        46.0004
        32.5004
 -12675281.96548  -9862044.53546
                  21787453.2664                                   21787449.7074
                                                                        50.0004
        39.0004
 -20038940.59848 -15549841.39845
                  21278254.5864                                   21278250.3874
                                                                        49.5004
        35.2504
 -15316591.00848 -11894938.68446
                  22020953.5314                                   22020950.4344
                                                                        48.5004
        37.2504
 -17609379.24648 -13706436.23046
                  21123523.6094                                   21123519.8594
                                                                        49.0004
        39.2504
  -1218980.98047   -908589.75044
                  23610571.4064                                   23610565.2664
                                                                        42.2504
        25.5004
   6790223.64846   5324440.30543
                  23899814.3594                                   23899810.1374
                                                                        39.5004
        21.2504
   7840296.69146   6123868.02344
                  23992513.5634                                   23992509.8914
                                                                        41.2504
        24.5004
  -4286646.48447  -3302443.20344
                  22771794.3834                                   22771790.3984
                                                                        44.2504
        29.0004
 09 10  7  1 10  0.0000000  0 10G02G04G05G13G29G10G23G16G07G25
 -15619917.83248 -12099224.41446
                  20664310.6254                                   20664304.4884
                                                                        50.7504
        41.2504
   3056968.92247   2416257.10545
                  22958458.6724                                   22958455.9024
                                                                        46.0004
        31.5004
 -12845400.09448  -9994604.07046
                  21755081.2584                                   21755077.2854
                                                                        50.5004
        39.7504
 -20088295.10548 -15588299.44946
                  21268862.8674                                   21268858.6414
                                                                        49.5004
        36.0004
 -15435276.77748 -11987421.09446
                  21998368.5704                                   21998364.9774
                                                                        48.5004
        37.5004
 -17767052.62948 -13829298.58646
                  21093519.3834                                   21093515.5394
                                                                        49.2504
        39.0004
  -1207530.82446   -899667.60943
                  23612749.9224                                   23612744.0594
                                                                        41.0004
        22.2504
   6648022.69146   5213634.38343
                  23872754.2584                                   23872750.6764
                                                                        38.5004
        20.7504
   7658771.68447   5982419.99644
                  23957970.2894                                   23957966.4064
                                                                        42.0004
        26.0004
  -4423317.55947  -3408940.22345
                  22745787.0164                                   22745782.8594
                                                                        44.5004
        30.0004
 09 10  7  1 10 30.0000000  0 10G02G04G05G13G29G10G23G16G07G25
 -14083390.53548 -10901930.42646
                  20956701.9384                                   20956695.9144
                                                                        50.2504
        41.5004
   4650499.38347   3657969.22745
                  23261696.8914                                   23261694.1884
                                                                        45.0004
        31.0004
 -11439712.38748  -8899262.98446
                  22022574.7424                                   22022570.6484
                                                                        50.5004
        39.2504
 -18561594.14548 -14398662.40246
                  21559384.2584                                   21559380.2074
                                                                        49.2504
        36.0004
 -13977940.76248 -10851834.58646
                  22275690.3444                                   22275686.6414
                                                                        48.5004
        37.2504
 -16348825.64148 -12724186.56246
                  21363398.8054                                   21363394.6684
                                                                        50.0004
        39.5004
    379655.73446    337101.12943
                  23914781.8054                                   23914775.5164
                                                                        41.0004
        22.0004
   8081779.42246   6330847.44143
                  24145588.9614                                   24145585.1024
                                                                        39.7504
        21.2504
   9052985.50447   7068820.43044
                  24223280.7664                                   24223276.6804
                                                                        42.5004
        25.7504
  -2984036.14847  -2287422.27744
                  23019672.8984                                   23019669.2234
                                                                        44.0004
        29.0004
 09 10  7  1 11  0.0000000  0 10G02G04G05G13G29G10G23G16G07G25
 -14121725.95748 -10931802.20746
                  20949407.0704                                   20949400.9224
                                                                        50.7504
        41.2504
   4668858.36347   3672274.47745
                  23265191.3834                                   23265188.0944
                                                                        46.5004
        30.7504
 -11609066.54348  -9031227.21146
                  21990347.6954                                   21990343.5864
                                                                        49.5004
        39.2504
 -18609680.46548 -14436132.33646
                  21550233.7424                                   21550229.5124
                                                                        49.0004
        36.2504
 -14095427.53548 -10943382.73046
                  22253333.3754                                   22253329.9104
                                                                        49.5004
        37.2504
 -16505545.43448 -12846305.87546
                  21333576.4774                                   21333572.0554
                                                                        50.0004
        39.2504
    391739.00447    346516.72743
                  23917082.1804                                   23917074.1454
                                                                        43.5004
        23.2504
   7940648.55546   6220875.33643
                  24118733.2194                                   24118729.1724
                                                                        40.0004
        22.0004
   8872090.82447   6927863.55944
                  24188858.0084                                   24188853.3204
                                                                        42.5004
        26.7504
  -3119647.54347  -2393093.52044
                  22993866.8364                                   22993863.2274
                                                                        44.5004
        29.7504
 09 10  7  1 11 30.0000000  0 10G02G04G05G13G29G10G23G16G07G25
 -14159505.66448 -10961240.95346
                  20942217.6644                                   20942211.9734
                                                                        51.2504
        41.2504
   4687463.31647   3686771.84445
                  23268732.0394                                   23268728.7034
                                                                        47.0004
        31.5004
 -11778036.58648  -9162892.13746
                  21958193.7734                                   21958189.5434
                                                                        49.7504
        39.2504
 -18657135.42248 -14473110.18445
                  21541203.6954                                   21541199.0554
                                                                        49.0004
        35.5004
 -14212313.65248 -11034462.82846
                  22231090.5084                                   22231087.0004
                                                                        49.0004
        37.5004
 -16661786.60548 -12968052.25446
                  21303844.6094                                   21303840.5944
                                                                        51.0004
        39.7504
    404134.19547    356175.40243
                  23919440.3054                                   23919432.8834
                                                                        44.0004
        22.7504
   7800055.43046   6111322.27043
                  24091979.2194                                   24091974.7274
                                                                        40.2504
        22.2504
   8691515.41047   6787155.48044
                  24154495.2194                                   24154490.9104
                                                                        43.2504
        26.2504
  -3254726.99647  -2498350.27745
                  22968162.0634                                   22968158.4184
                                                                        44.0004
        30.2504
 09 10  7  1 12  0.0000000  0 10G02G04G05G13G29G10G23G16G07G25
 -14196732.16448 -10990248.64846
                  20935133.6804                                   20935127.5704
                                                                        51.5004
        41.5004
   4706310.75847   3701458.56345
                  23272318.0784                                   23272314.7464
                                                                        46.2504
        30.7504
 -11946621.76248  -9294257.18746
                  21926113.1644                                   21926108.4844
                                                                        50.0004
        39.7504
 -18703962.67248 -14509598.94145
                  21532292.5784                                   21532288.1484
                                                                        48.5004
        34.7504
 -14328599.15248 -11125074.92246
                  22208962.4924                                   22208958.9414
                                                                        49.5004
        37.2504
 -16817548.65648 -13089425.22746
                  21274204.0164                                   21274200.1644
                                                                        51.0004
        39.2504
    416837.77047    366074.31643
                  23921857.8364                                   23921850.5594
                                                                        42.7504
        22.5004
   7660000.62946   6002188.66443
                  24065328.1724                                   24065323.1334
                                                                        41.0004
        22.0004
   8511260.81347   6646697.30544
                  24120193.9224                                   24120189.7424
                                                                        43.2504
        26.7504
  -3389274.23447  -2603192.39544
                  22942558.9304                                   22942554.9384
                                                                        44.5004
        29.2504
 09 10  7  1 12 30.0000000  0 10G02G04G05G13G29G10G23G16G07G25
 -14233410.25048 -11018828.96946
                  20928154.1804                                   20928148.5084
                                                                        52.0004
        41.5004
   4725393.98047   3716328.74245
                  23275949.3984                                   23275946.0164
                                                                        47.0004
        30.7504
 -12114823.65648  -9425323.59446
                  21894105.0314                                   21894101.4064
                                                                        50.0004
        39.7504
 -18750166.32048 -14545601.78545
                  21523500.2664                                   21523495.8204
                                                                        49.5004
        35.2504
 -14444286.22348 -11215220.69546
                  22186947.6174                                   22186944.1374
                                                                        50.0004
        37.5004
 -16972833.03948 -13210425.99246
                  21244654.3204                                   21244650.4064
                                                                        51.2504
        39.7504
    429843.52346    376208.67244
                  23924332.2504                                   23924326.5904
                                                                        41.5004
        25.5004
   7520482.54346   5893473.26243
                  24038778.1094                                   24038773.0984
                                                                        40.5004
        22.0004
   8331326.43047   6506488.64144
                  24085953.6644                                   24085949.1254
                                                                        44.0004
        26.0004
  -3523290.41447  -2707620.50845
                  22917056.2664                                   22917052.6374
                                                                        43.7504
        30.5004
 09 10  7  1 13  0.0000000  0 10G02G04G05G13G29G10G23G16G07G25
 -14269537.24648 -11046979.87146
                  20921279.2734                                   20921273.3484
                                                                        51.2504
        41.5004
   4744714.59847   3731383.59445
                  23279626.2034                                   23279622.5594
                                                                        46.0004
        30.2504
 -12282636.80948  -9556087.09446
                  21862171.2734                                   21862167.4774
                                                                        49.7504
        40.0004
 -18795744.52048 -14581117.26645
                  21514827.2894                                   21514822.5314
                                                                        48.7504
        34.5004
 -14559370.12948 -11304896.46546
                  22165047.8914                                   22165044.6134
                                                                        50.0004
        37.0004
 -17127634.50448 -13331050.46146
                  21215196.6094                                   21215192.7814
                                                                        49.5004
        39.7504
    443152.62546    386579.35544
                  23926864.6954                                   23926858.8484
                                                                        40.5004
        24.0004
   7381507.04746   5785180.68043
                  24012332.1334                                   24012327.3094
                                                                        41.5004
        21.7504
   8151719.11347   6366534.83244
                  24051775.4694                                   24051771.9064
                                                                        43.5004
        27.0004
  -3656770.34047  -2811630.71144
                  22891655.7034                                   22891652.0274
                                                                        44.5004
        29.0004
 09 10  7  1 13 30.0000000  0 10G02G04G05G13G29G10G23G16G07G25
 -14305113.96148 -11074701.93746
                  20914509.3364                                   20914503.5514
                                                                        51.7504
        41.2504
   4764271.85947   3746623.07445
                  23283348.0164                                   23283345.0634
                                                                        47.2504
        31.2504
 -12450059.04348  -9686545.93746
                  21830311.7894                                   21830308.0274
                                                                        50.2504
        39.2504
 -18840698.48048 -14616146.30545
                  21506272.6174                                   21506268.2234
                                                                        48.2504
        35.5004
 -14673849.40648 -11394101.10246
                  22143263.1174                                   22143259.8794
                                                                        49.7504
        37.2504
 -17281951.46548 -13451297.44546
                  21185830.9924                                   21185827.2544
                                                                        50.5004
        39.2504
    456762.64146    397184.50443
                  23929454.5084                                   23929449.0824
                                                                        39.5004
        22.5004
   7243076.44946   5677312.69943
                  23985989.1564                                   23985984.7464
                                                                        40.5004
        21.5004
   7972442.05547   6226838.39844
                  24017660.2034                                   24017656.0514
                                                                        43.7504
        25.7504
  -3789712.26647  -2915221.79744
                  22866357.6094                                   22866353.5004
                                                                        45.0004
        29.7504
 09 10  7  1 14  0.0000000  0 10G02G04G05G13G29G10G23G16G07G25
 -14340142.78548 -11101997.09846
                  20907843.9774                                   20907837.8954
                                                                        51.2504
        41.5004
   4784061.93047   3762043.67245
                  23287113.5394                                   23287110.3204
                                                                        46.2504
        30.2504
 -12617089.11748  -9816699.21946
                  21798527.0164                                   21798523.2814
                                                                        49.0004
        40.2504
 -18885030.63347 -14650690.78545
                  21497836.2894                                   21497831.9184
                                                                        47.0004
        35.2504
 -14787723.85248 -11482834.43446
                  22121593.8524                                   22121589.5944
                                                                        50.0004
        37.5004
 -17435782.42648 -13571165.78146
                  21156557.7734                                   21156554.0904
                                                                        50.0004
        39.2504
    470670.21147    408021.56343
                  23932101.4774                                   23932095.1644
                                                                        42.0004
        22.0004
   7105191.80146   5569870.12143
                  23959751.3674                                   23959746.1024
                                                                        41.0004
        20.7504
   7793497.44547   6087401.05544
                  23983608.0004                                   23983604.2464
                                                                        43.0004
        25.7504
  -3922115.16047  -3018392.86744
                  22841162.1884                                   22841157.8244
                                                                        44.7504
        28.5004
 09 10  7  1 14 30.0000000  0 10G02G04G05G13G29G10G23G16G07G25
 -14374624.66048 -11128866.10546
                  20901281.8984                                   20901275.9344
                                                                        51.5004
        41.0004
   4804083.92247   3777645.34844
                  23290923.4844                                   23290920.1844
                                                                        46.0004
        29.7504
 -12783725.52748  -9946545.77346
                  21766817.0704                                   21766813.3524
                                                                        51.0004
        40.0004
 -18928742.83248 -14684752.22345
                  21489517.9614                                   21489513.8284
                                                                        48.5004
        35.2504
 -14900992.25048 -11571095.53146
                  22100039.7504                                   22100035.8054
                                                                        50.2504
        36.5004
 -17589125.55548 -13690653.98846
                  21127377.2114                                   21127373.7854
                                                                        50.0004
        40.0004
    484872.76647    419088.51244
                  23934804.5474                                   23934797.5234
                                                                        44.2504
        25.0004
   6967855.28546   5462854.62543
                  23933616.9614                                   23933611.8524
                                                                        40.7504
        22.0004
   7614888.38747   5948225.17644
                  23949619.3054                                   23949616.0634
                                                                        42.5004
        24.0004
  -4053977.08647  -3121142.37944
                  22816069.6484                                   22816065.6604
                                                                        44.5004
        29.5004
 09 10  7  1 15  0.0000000  0 10G02G04G05G13G29G10G23G16G07G25
 -14408564.95748 -11155313.09446
                  20894823.3204                                   20894817.5394
                                                                        52.5004
        41.5004
   4824330.97347   3793422.39144
                  23294776.5164                                   23294773.1174
                                                                        46.0004
        29.0004
 -12949970.44948 -10076087.30546
                  21735182.2504                                   21735178.3524
                                                                        51.0004
        40.7504
 -18971841.13348 -14718335.33245
                  21481316.9064                                   21481312.3284
                                                                        48.5004
        34.7504
 -15013657.64848 -11658886.75446
                  22078599.7664                                   22078596.4774
                                                                        50.0004
        37.5004
 -17741983.65648 -13809764.23446
                  21098289.5784                                   21098286.0124
                                                                        51.0004
        39.2504
    499363.46147    430380.00044
                  23937561.8204                                   23937555.0514
                                                                        43.0004
        24.2504
   6831064.52046   5356264.44143
                  23907585.9694                                   23907581.9414
                                                                        41.5004
        22.7504
   7436613.57447   5809309.70344
                  23915695.3524                                   23915691.0124
                                                                        43.7504
        27.2504
  -4185300.59847  -3223472.34445
                  22791079.7274                                   22791075.6024
                                                                        45.5004
        30.0004
 09 10  7  1 15 30.0000000  0 10G02G04G05G13G29G10G23G16G07G25
 -14441962.87148 -11181337.42246
                  20888468.0234                                   20888461.8794
                                                                        52.5004
        41.2504
   4844803.12947   3809374.73445
                  23298672.1174                                   23298668.8244
                                                                        45.5004
        30.5004
 -13115819.48048 -10205320.28946
                  21703622.3754                                   21703617.9024
                                                                        51.0004
        40.5004
 -19014323.97747 -14751438.86345
                  21473232.6174                                   21473228.4144
                                                                        47.7504
        35.5004
 -15125716.78548 -11746205.55546
                  22057276.0314                                   22057272.2194
                                                                        50.0004
        37.7504
 -17894352.65248 -13928493.28146
                  21069294.7114                                   21069291.2584
                                                                        50.7504
        39.5004
    514142.19547    441895.93043
                  23940373.9614                                   23940367.3324
                                                                        43.0004
        22.7504
   6694823.73047   5250102.78943
                  23881661.5784                                   23881656.2974
                                                                        42.0004
        23.2504
   7258678.54747   5670659.01244
                  23881835.7424                                   23881831.1134
                                                                        44.0004
        27.5004
  -4316081.72347  -3325379.68744
                  22766192.8364                                   22766189.2034
                                                                        45.2504
        29.0004
 09 10  7  1 16  0.0000000  0 10G02G04G05G13G29G10G23G16G07G25
 -14474819.70748 -11206940.14546
                  20882215.4774                                   20882209.2664
                                                                        52.0004
        41.5004
   4865498.32047   3825500.84045
                  23302610.4454                                   23302607.1294
                                                                        45.7504
        30.5004
 -13281270.96548 -10334243.55546
                  21672137.3524                                   21672133.6994
                                                                        51.2504
        39.7504
 -19056193.59048 -14784064.52345
                  21465265.4614                                   21465260.8834
                                                                        49.0004
        35.7504
 -15237168.94548 -11833051.39846
                  22036067.1334                                   22036063.4104
                                                                        49.2504
        37.0004
 -18046231.11348 -14046840.17646
                  21040393.3984                                   21040389.7934
                                                                        51.0004
        39.5004
    529206.09046    453634.05143
                  23943239.4454                                   23943233.8984
                                                                        41.0004
        20.5004
   6559134.71147   5144371.08244
                  23855839.9614                                   23855835.0744
                                                                        42.5004
        24.5004
   7081086.12947   5532275.36344
                  23848040.8754                                   23848036.7584
                                                                        45.2504
        28.0004
  -4446319.10947  -3426863.32844
                  22741409.1564                                   22741405.3834
                                                                        44.5004
        29.5004
 09 10  7  1 16 30.0000000  0 10G02G04G05G13G29G10G23G16G07G25
 -14507139.19148 -11232124.20346
                  20876065.0394                                   20876059.3244
                                                                        52.0004
        41.2504
   4886412.23447   3841797.39845
                  23306590.5554                                   23306586.9734
                                                                        46.2504
        30.0004
 -13446325.74648 -10462857.69146
                  21640728.9144                                   21640724.6174
                                                                        51.2504
        39.7504
 -19097453.99648 -14816215.52345
                  21457413.6644                                   21457409.4844
                                                                        48.7504
        35.0004
 -15348014.68448 -11919424.69146
                  22014973.9694                                   22014970.3794
                                                                        49.5004
        37.5004
 -18197619.03148 -14164804.77046
                  21011585.0634                                   21011581.6294
                                                                        50.7504
        40.2504
    544550.33646    465590.54743
                  23946160.0084                                   23946153.8524
                                                                        40.7504
        20.7504
   6423997.10547   5039069.06343
                  23830124.1174                                   23830119.8324
                                                                        42.5004
        22.5004
   6903836.11347   5394158.24644
                  23814312.2894                                   23814307.5664
                                                                        45.0004
        28.2504
  -4576013.46147  -3527923.92245
                  22716729.4454                                   22716725.8284
                                                                        45.2504
        30.0004
