     2.11           OBSERVATION DATA    G (GPS)             RINEX VERSION / TYPE
teqc  2019Feb25                         20221121 12:28:40UTCPGM / RUN BY / DATE
OSX ker:10.11.6|Core i5|gcc 4.3 -m64|OSX ker:10.10+|=+      COMMENT
BIT 2 OF LLI FLAGS DATA COLLECTED UNDER A/S CONDITION       COMMENT
04712961                                                    MARKER NAME
2961                                                        MARKER NUMBER
-Unknown-           -Unknown-                               OBSERVER / AGENCY
0220400471          TRIMBLE R7          2.30                REC # / TYPE / VERS
-Unknown-           TRM39105.00     NONE                    ANT # / TYPE
  1449458.8073 -1709242.4006  5952441.8343                  APPROX POSITION XYZ
        0.0000        0.0000        0.0000                  ANTENNA: DELTA H/E/N
     1     1                                                WAVELENGTH FACT L1/2
    20    L1    L2    L5    L6    L7    L8    C1    P1    C2# / TYPES OF OBSERV
          P2    C5    C6    C7    C8    S1    S2    S5    S6# / TYPES OF OBSERV
          S7    S8                                          # / TYPES OF OBSERV
    30.0000                                                 INTERVAL
    15                                                      LEAP SECONDS
Forced Modulo Decimation to 30 seconds                      COMMENT
 SNR is mapped to RINEX snr flag value [0-9]                COMMENT
  L1 & L2: min(max(int(snr_dBHz/6), 0), 9)                  COMMENT
teqc edited: Beidou # 1 - 37 excluded                       COMMENT
  2009    10    23    23    11    0.0000000     GPS         TIME OF FIRST OBS
                                                            END OF HEADER
 09 10 23 23 11  0.0000000  0  9G02G04G05G10G13G23G29G30G31
   -152307.66858    -73793.86357
                  20319216.6024                                   20319210.9384
                                                                        52.2504
        43.2504
    -33845.30958    -17139.07056
                  21346537.4384                                   21346534.2074
                                                                        51.0004
        40.2504
   -291537.38357   -142451.21954
                  23544955.6954                                   23544952.2074
                                                                        42.0004
        29.5004
   -284228.55957   -138890.12155
                  22616842.6254                                   22616839.0984
                                                                        45.2504
        32.2504
   -176129.68758    -85192.71956
                  21182276.5474                                   21182271.7704
                                                                        50.7504
        37.2504
    -60629.69957    -29870.82055
                  22105753.6724                                   22105747.6914
                                                                        47.5004
        33.2504
   -250247.58257   -122388.00055
                  23057568.1724                                   23057565.3164
                                                                        45.0004
        32.2504
    -20475.07857    -10729.87554
                  23464989.8834                                   23464986.5784
                                                                        43.5004
        28.0004
    -31037.78957    -17247.01654
                  24463852.0634                                   24463847.1604
                                                                        43.0004
        25.5004
 09 10 23 23 11 30.0000000  0  9G02G04G05G10G13G23G29G30G31
   1313442.69148   1068349.29347
                  20598139.7274                                   20598133.6994
                                                                        52.5004
        43.2504
   1515089.58648   1189823.18446
                  21641289.9304                                   21641286.6914
                                                                        50.2504
        39.5004
   1074681.19147    922134.72345
                  23804938.8204                                   23804934.7624
                                                                        44.5004
        32.0004
   1087287.08647    929823.33645
                  22877833.1884                                   22877830.0164
                                                                        45.5004
        31.7504
   1272927.01248   1043942.37946
                  21458022.9224                                   21458018.3674
                                                                        50.2504
        37.0004
   1469688.93048   1162585.24645
                  22396964.0634                                   22396958.1054
                                                                        48.2504
        32.2504
   1145456.77047    965173.84445
                  23323161.9844                                   23323158.6214
                                                                        46.0004
        32.2504
   1538007.92647   1203672.46944
                  23761557.9224                                   23761555.1134
                                                                        42.2504
        26.0004
   1518746.02347   1190376.77343
                  24758766.0554                                   24758761.0164
                                                                        42.5004
        23.7504
 09 10 23 23 12  0.0000000  0  9G02G04G05G10G13G23G25G29G30
   1203914.05148    983002.36747
                  20577296.7584                                   20577290.8834
                                                                        53.0004
        43.2504
   1488598.53948   1169180.78546
                  21636248.8364                                   21636244.9064
                                                                        50.2504
        39.0004
    865225.73847    758922.66045
                  23765080.8834                                   23765076.4964
                                                                        45.5004
        32.2504
    883229.65247    770817.54345
                  22839002.2194                                   22838999.3404
                                                                        45.5004
        32.5004
   1146783.02348    945648.36746
                  21434018.4844                                   21434013.6564
                                                                        51.2504
        37.0004
   1424700.67248   1127529.45745
                  22388402.7424                                   22388396.6254
                                                                        48.0004
        32.7504
   1331884.59056   1056508.30153
                  24323869.3284                                   24323866.0434
                                                                        41.2504
        22.0004
    965706.78147    825108.91045
                  23288956.6804                                   23288953.4964
                                                                        46.0004
        32.0004
   1521080.32847   1190482.13343
                  23758336.4844                                   23758333.9104
                                                                        42.0004
        23.5004
 09 10 23 23 12 30.0000000  0  9G02G04G05G10G13G23G25G29G30
   1094830.19148    898002.01247
                  20556539.0234                                   20556533.1454
                                                                        52.7504
        43.5004
   1462400.67648   1148766.84446
                  21631263.4224                                   21631259.9264
                                                                        51.0004
        38.7504
    655824.14847    595752.54745
                  23725232.6414                                   23725228.4224
                                                                        45.2504
        31.7504
    679328.10247    611933.25445
                  22800201.4224                                   22800198.4534
                                                                        46.2504
        34.2504
   1021163.58648    847763.09446
                  21410113.5944                                   21410109.3954
                                                                        51.5004
        36.5004
   1380125.03548   1092795.19145
                  22379920.6644                                   22379914.0474
                                                                        48.0004
        32.5004
   1142758.27346    909137.15643
                  24287880.3364                                   24287875.9654
                                                                        40.2504
        19.2504
    786230.32047    685257.13345
                  23254803.6644                                   23254799.8794
                                                                        46.2504
        32.5004
   1504459.18446   1177530.60944
                  23755173.9844                                   23755170.9064
                                                                        40.0004
        24.5004
 09 10 23 23 13  0.0000000  0  9G02G04G05G10G13G23G25G29G30
    986316.45348    813445.94147
                  20535889.3444                                   20535883.4104
                                                                        53.0004
        43.0004
   1436619.28148   1128677.45346
                  21626357.5704                                   21626354.0944
                                                                        50.5004
        38.7504
    446603.21147    432723.25845
                  23685419.3054                                   23685414.9694
                                                                        44.5004
        31.7504
    475708.52047    453268.68045
                  22761453.3754                                   22761450.9104
                                                                        46.5004
        33.5004
    896194.85948    750384.87146
                  21386333.0164                                   21386328.4024
                                                                        51.0004
        37.2504
   1336085.02748   1058478.30945
                  22371540.2814                                   22371533.6884
                                                                        48.5004
        32.5004
    953912.93446    761984.94943
                  24251943.7734                                   24251939.8164
                                                                        40.5004
        19.7504
    607154.25847    545717.35545
                  23220726.6644                                   23220723.2344
                                                                        46.2504
        32.5004
   1488265.87546   1164912.44544
                  23752092.8594                                   23752089.7814
                                                                        40.7504
        25.0004
 09 10 23 23 13 30.0000000  0  9G02G04G05G10G13G23G25G29G30
    878456.62548    729399.34847
                  20515364.1484                                   20515358.3204
                                                                        52.7504
        43.2504
   1411335.40648   1108975.74646
                  21621545.9694                                   21621542.4414
                                                                        50.7504
        39.2504
    237649.03547    269901.84845
                  23645656.2504                                   23645652.2344
                                                                        45.0004
        31.7504
    272456.54347    294890.51645
                  22722776.5314                                   22722773.3054
                                                                        47.2504
        34.5004
    771960.68048    653579.05146
                  21362692.2034                                   21362687.2624
                                                                        50.7504
        37.0004
   1292661.92248   1024642.14545
                  22363277.1564                                   22363270.6334
                                                                        49.0004
        32.2504
    765434.26246    615118.50443
                  24216077.7894                                   24216074.3014
                                                                        40.2504
        19.7504
    428564.77747    406556.74645
                  23186742.1334                                   23186738.7304
                                                                        45.7504
        33.2504
   1472581.01646   1152690.45344
                  23749107.8834                                   23749104.7384
                                                                        41.0004
        24.5004
 09 10 23 23 14  0.0000000  0  9G02G04G05G10G13G23G25G29G30
    771297.44948    645898.70347
                  20494972.5634                                   20494966.5434
                                                                        52.5004
        43.7504
   1386593.54748   1089696.37546
                  21616837.9844                                   21616834.5084
                                                                        51.2504
        38.2504
     29009.32047    107325.47345
                  23605953.5944                                   23605949.8594
                                                                        44.5004
        31.7504
     69620.98847    136836.84845
                  22684178.0634                                   22684174.4024
                                                                        46.7504
        33.5004
    648507.84848    557382.05146
                  21339199.8204                                   21339195.2974
                                                                        50.5004
        37.2504
   1249900.06648    991321.22345
                  22355139.1954                                   22355133.3914
                                                                        48.0004
        32.5004
    577371.57446    468576.21943
                  24180290.1174                                   24180286.6024
                                                                        41.5004
        22.0004
    250510.03147    267812.80545
                  23152859.1804                                   23152856.3794
                                                                        45.5004
        32.2504
   1457447.36347   1140897.98844
                  23746228.4774                                   23746224.9844
                                                                        43.0004
        26.7504
 09 10 23 23 14 30.0000000  0  9G02G04G05G10G13G23G25G29G30
    664860.43048    562960.78547
                  20474718.1954                                   20474712.4494
                                                                        51.7504
        43.5004
   1362413.04348   1070854.41046
                  21612236.7584                                   21612233.1214
                                                                        51.0004
        38.5004
   -179292.62947    -54987.72745
                  23566315.2504                                   23566311.5354
                                                                        46.5004
        33.2504
   -132774.48847    -20873.93045
                  22645663.6884                                   22645659.4774
                                                                        47.0004
        33.0004
    525858.48848    461811.13346
                  21315860.3984                                   21315855.9884
                                                                        50.5004
        37.2504
   1207818.58648    958530.46945
                  22347131.7504                                   22347125.1724
                                                                        48.2504
        32.5004
    389748.55547    322376.51243
                  24144587.7274                                   24144582.8634
                                                                        42.5004
        22.7504
     73014.11347    129504.31645
                  23119082.7034                                   23119079.6414
                                                                        44.7504
        31.7504
   1442883.63747   1129549.52744
                  23743456.9844                                   23743454.3094
                                                                        42.5004
        28.5004
 09 10 23 23 15  0.0000000  0  9G02G04G05G10G13G23G25G29G30
    559160.87948    480597.51247
                  20454604.1254                                   20454598.5434
                                                                        52.7504
        43.0004
   1338805.94548   1052459.21546
                  21607743.9144                                   21607740.4884
                                                                        51.0004
        38.7504
   -387240.90247   -217025.33645
                  23526743.9534                                   23526739.9384
                                                                        45.5004
        32.2504
   -334714.40647   -178229.74645
                  22607235.4384                                   22607231.4654
                                                                        46.2504
        33.2504
    404027.38748    366877.81346
                  21292676.5164                                   21292672.2584
                                                                        50.5004
        37.0004
   1166429.89848    926279.53945
                  22339255.6254                                   22339249.3054
                                                                        48.7504
        33.0004
    202582.34847    176532.75443
                  24108970.5554                                   24108966.7034
                                                                        42.7504
        23.2504
   -103906.65247     -8356.00845
                  23085416.3754                                   23085413.2384
                                                                        45.7504
        33.2504
   1428900.78147   1118653.80944
                  23740796.3284                                   23740793.3404
                                                                        44.0004
        29.5004
 09 10 23 23 15 30.0000000  0  9G02G04G05G10G13G23G25G29G30
    454205.37948    398814.02747
                  20434631.9924                                   20434625.4844
                                                                        52.2504
        43.2504
   1315777.10248   1034514.62546
                  21603361.8674                                   21603358.3634
                                                                        50.5004
        38.7504
   -594827.04747   -378780.77745
                  23487241.4774                                   23487237.6524
                                                                        45.5004
        32.2504
   -536189.66447   -335223.44145
                  22568896.0234                                   22568892.4344
                                                                        45.5004
        32.5004
    283022.00448    272587.95346
                  21269650.0004                                   21269645.6134
                                                                        50.5004
        36.5004
   1125738.15648    894571.70745
                  22331512.6174                                   22331506.0164
                                                                        48.0004
        32.7504
     15881.93846     31051.93443
                  24073442.0944                                   24073439.0394
                                                                        41.5004
        23.5004
   -280243.72747   -145761.50845
                  23051860.3134                                   23051856.5944
                                                                        46.2504
        34.0004
   1415501.71547   1108212.96145
                  23738246.5164                                   23738244.0704
                                                                        43.2504
        30.2504
 09 10 23 23 16  0.0000000  0  9G02G04G05G10G13G23G25G29G30
    350000.34848    317615.29747
                  20414802.5864                                   20414796.5164
                                                                        52.7504
        43.2504
   1293330.47348   1017023.70746
                  21599090.6484                                   21599087.2154
                                                                        50.5004
        38.5004
   -802043.16847   -540247.93445
                  23447809.3204                                   23447805.3674
                                                                        46.0004
        31.7504
   -737192.37547   -491848.96945
                  22530646.6954                                   22530643.1334
                                                                        46.2504
        34.0004
    162848.51648    178946.28546
                  21246781.8754                                   21246777.2504
                                                                        51.0004
        36.2504
   1085747.23447    863409.93045
                  22323901.8984                                   22323896.1374
                                                                        47.5004
        31.7504
   -170343.82846   -114059.00444
                  24038004.8754                                   24038001.4614
                                                                        41.7504
        24.7504
   -455988.82047   -282705.73845
                  23018416.8594                                   23018413.6374
                                                                        45.5004
        33.0004
   1402689.52347   1098229.40244
                  23735808.6094                                   23735806.0004
                                                                        43.5004
        28.0004
 09 10 23 23 16 30.0000000  0  9G02G04G05G10G13G23G25G29G30
    246546.78148    237002.09847
                  20395115.6954                                   20395109.9104
                                                                        52.7504
        43.5004
   1271465.01648    999985.68046
                  21594929.5004                                   21594926.0514
                                                                        50.2504
        38.5004
  -1008885.87147   -701424.10945
                  23408448.6414                                   23408444.8054
                                                                        45.5004
        32.5004
   -937718.75447   -648103.24245
                  22492487.7664                                   22492484.1764
                                                                        46.7504
        34.5004
     43508.66448     85954.20746
                  21224071.9924                                   21224067.4884
                                                                        50.2504
        37.0004
   1046456.12147    832793.50045
                  22316425.4454                                   22316418.6884
                                                                        47.0004
        31.5004
   -356091.59847   -258797.47343
                  24002658.2274                                   24002654.6484
                                                                        42.7504
        23.2504
   -631137.92247   -419185.55145
                  22985086.8984                                   22985083.7114
                                                                        45.5004
        33.5004
   1390463.03147   1088702.34044
                  23733481.6954                                   23733479.2854
                                                                        42.5004
        27.0004
 09 10 23 23 17  0.0000000  0  9G02G04G05G10G13G23G25G29G30
    143845.40648    156974.99247
                  20375572.6804                                   20375566.3244
                                                                        52.7504
        43.2504
   1250179.27348    983399.37546
                  21590879.0784                                   21590875.5394
                                                                        50.7504
        38.2504
  -1215354.07847   -862308.46145
                  23369159.2894                                   23369155.7154
                                                                        43.7504
        33.0004
  -1137767.12148   -803985.09045
                  22454419.8914                                   22454416.5314
                                                                        48.0004
        34.7504
    -74996.35948     -6387.37146
                  21201521.4064                                   21201517.0004
                                                                        49.5004
        36.7504
   1007863.23047    802721.12945
                  22309081.6024                                   22309074.9144
                                                                        47.5004
        31.5004
   -541357.82046   -403160.70743
                  23967403.2274                                   23967399.6094
                                                                        41.2504
        22.2504
   -805689.70747   -555199.94145
                  22951871.2194                                   22951867.9024
                                                                        44.7504
        33.5004
   1378817.34047   1079627.78144
                  23731264.5474                                   23731262.4804
                                                                        42.2504
        24.0004
 09 10 23 23 17 30.0000000  0  9G02G04G05G10G13G23G25G29G30
     41895.39848     77533.35247
                  20356171.9844                                   20356165.9774
                                                                        52.0004
        43.0004
   1229469.66048    967262.00446
                  21586938.0944                                   21586934.7544
                                                                        50.5004
        38.0004
  -1421446.13347  -1022899.67245
                  23329940.7114                                   23329937.6134
                                                                        44.0004
        32.7504
  -1337336.57847   -959493.73045
                  22416443.1254                                   22416439.6804
                                                                        47.5004
        35.5004
   -192667.55548    -98079.17246
                  21179128.9774                                   21179124.6684
                                                                        50.0004
        37.0004
    969964.82847    773189.95345
                  22301869.5004                                   22301863.2074
                                                                        47.0004
        31.7504
   -726141.64146   -547148.07443
                  23932239.5474                                   23932236.0274
                                                                        41.2504
        22.7504
   -979642.18447   -690747.29345
                  22918768.8134                                   22918765.9224
                                                                        45.0004
        33.2504
   1367749.17247   1071003.19943
                  23729159.1564                                   23729156.1954
                                                                        42.5004
        22.5004
 09 10 23 23 18  0.0000000  0  9G02G04G05G10G13G23G25G29G30
    -59304.99248     -1324.17247
                  20336914.2274                                   20336908.2074
                                                                        52.5004
        43.5004
   1209332.33248    951570.57046
                  21583106.0474                                   21583102.7464
                                                                        50.2504
        38.0004
  -1627162.34047  -1183198.00845
                  23290794.5784                                   23290791.0394
                                                                        45.2504
        33.7504
  -1536427.16447  -1114629.28545
                  22378557.3524                                   22378554.2424
                                                                        47.5004
        34.2504
   -309506.51248   -189122.46146
                  21156895.3524                                   21156890.3984
                                                                        50.5004
        37.5004
    932756.94947    744196.81345
                  22294789.1724                                   22294782.2664
                                                                        47.0004
        30.7504
   -910442.25647   -690758.88643
                  23897168.9384                                   23897164.5004
                                                                        42.2504
        21.7504
  -1152995.52747   -825827.78945
                  22885781.0944                                   22885777.7854
                                                                        45.5004
        33.5004
   1357253.55347   1062824.85243
                  23727161.8834                                   23727158.4694
                                                                        43.5004
        22.7504
 09 10 23 23 18 30.0000000  0  9G02G04G05G10G13G23G25G29G30
   -159757.46948    -79598.81647
                  20317799.0474                                   20317793.0474
                                                                        52.2504
        43.0004
   1189763.33648    936321.99646
                  21579382.4694                                   21579378.9694
                                                                        50.0004
        38.0004
  -1832503.19147  -1343203.94145
                  23251720.0004                                   23251715.9734
                                                                        46.5004
        34.2504
  -1735038.36347  -1269391.23445
                  22340762.5864                                   22340758.8914
                                                                        46.0004
        33.5004
   -425514.64848   -279518.38346
                  21134820.1174                                   21134815.6024
                                                                        50.0004
        37.0004
    896235.08647    715738.23445
                  22287839.2344                                   22287832.5514
                                                                        47.5004
        31.2504
  -1094258.85546   -833992.58243
                  23862190.1414                                   23862185.1134
                                                                        41.5004
        20.7504
  -1325749.38747   -960441.16845
                  22852907.0864                                   22852903.6994
                                                                        45.2504
        34.2504
   1347324.65647   1055088.05544
                  23725272.0394                                   23725269.3754
                                                                        44.0004
        24.5004
 09 10 23 23 19  0.0000000  0  9G02G04G05G10G13G23G25G29G30
   -259455.88348   -157285.94547
                  20298826.6954                                   20298820.8134
                                                                        52.5004
        43.2504
   1170766.31648    921519.11746
                  21575767.4144                                   21575763.8484
                                                                        50.5004
        38.0004
  -2037460.03147  -1502910.57045
                  23212718.0634                                   23212713.6994
                                                                        47.0004
        34.0004
  -1933162.27347  -1423773.47345
                  22303060.9774                                   22303057.1764
                                                                        47.5004
        34.0004
   -540685.69148   -369262.04746
                  21112903.3594                                   21112899.0514
                                                                        50.0004
        37.0004
    860402.90647    687817.07845
                  22281020.6884                                   22281013.8204
                                                                        47.0004
        31.5004
  -1277583.30146   -976842.79743
                  23827304.2274                                   23827299.6604
                                                                        41.2504
        21.0004
  -1497895.70347  -1094581.14545
                  22820148.8984                                   22820145.2154
                                                                        45.5004
        33.5004
   1337965.53147   1047795.21944
                  23723491.4774                                   23723487.9774
                                                                        44.5004
        25.7504
 09 10 23 23 19 30.0000000  0  9G02G04G05G10G13G23G25G29G30
   1217015.69148    993211.40247
                  20579790.2584                                   20579783.8164
                                                                        52.7504
        43.0004
   2727752.00848   2134754.69946
                  21872052.1094                                   21872048.3364
                                                                        50.0004
        38.0004
   -666612.78547   -434717.94545
                  23473581.3754                                   23473577.1414
                                                                        46.2504
        33.2504
   -555378.14847   -350175.45745
                  22565244.6644                                   22565240.5944
                                                                        47.5004
        34.0004
    920396.86748    769243.84846
                  21390938.2114                                   21390933.5124
                                                                        50.0004
        37.5004
   2400671.71948   1888026.54745
                  22574124.1954                                   22574117.8364
                                                                        48.5004
        31.5004
    115005.51246    108291.41843
                  24092304.6254                                   24092301.3554
                                                                        41.5004
        22.5004
    -94014.21547      -647.49645
                  23087298.6334                                   23087295.0554
                                                                        45.2504
        33.2504
   2904585.30147   2268537.95344
                  24021609.7664                                   24021606.3594
                                                                        45.7504
        27.0004
 09 10 23 23 20  0.0000000  0  9G02G04G05G10G13G23G25G29G30
   1118807.75048    916685.78147
                  20561101.6804                                   20561095.6684
                                                                        52.2504
        43.2504
   2709874.71148   2120824.32046
                  21868650.1884                                   21868646.5474
                                                                        50.2504
        38.0004
   -870816.34447   -593837.62945
                  23434722.9384                                   23434718.2544
                                                                        46.0004
        32.0004
   -752539.99247   -503808.03945
                  22527726.3984                                   22527722.7074
                                                                        47.7504
        34.7504
    806883.14548    680791.61346
                  21369337.3134                                   21369332.8524
                                                                        49.7504
        37.2504
   2366194.28547   1861161.03145
                  22567563.1954                                   22567556.4454
                                                                        47.7504
        32.5004
    -67344.52046    -33799.44943
                  24057605.1254                                   24057600.8094
                                                                        41.5004
        22.7504
   -264957.46947   -133850.02745
                  23054769.4384                                   23054765.4304
                                                                        44.5004
        33.5004
   2896336.50847   2262110.27044
                  24020040.2114                                   24020037.1374
                                                                        45.0004
        27.0004
 09 10 23 23 20 30.0000000  0  9G02G04G05G10G13G23G25G29G30
   1021338.77048    840735.95747
                  20542553.7894                                   20542547.9844
                                                                        53.0004
        43.5004
   2692547.66048   2107322.74646
                  21865352.7424                                   21865349.2934
                                                                        50.0004
        37.7504
  -1074646.26247   -752666.11745
                  23395934.8594                                   23395930.7734
                                                                        45.2504
        32.0004
   -949224.25448   -657068.48845
                  22490298.6644                                   22490295.0314
                                                                        48.0004
        35.5004
    694192.09048    592980.41446
                  21347892.6884                                   21347888.4064
                                                                        50.0004
        37.0004
   2332384.28148   1834815.57445
                  22561129.6094                                   22561123.2114
                                                                        48.0004
        32.5004
   -249210.45747   -175513.15644
                  24022996.6094                                   24022992.7854
                                                                        42.0004
        25.2504
   -435301.98047   -266586.00445
                  23022353.6174                                   23022350.4144
                                                                        45.0004
        33.2504
   2888632.61347   2256107.25044
                  24018574.1094                                   24018570.7074
                                                                        43.7504
        27.0004
 09 10 23 23 21  0.0000000  0  9G02G04G05G10G13G23G25G29G30
    924602.35248    765356.93847
                  20524145.4924                                   20524139.6724
                                                                        52.5004
        43.2504
   2675762.43048   2094243.35546
                  21862158.6724                                   21862154.9184
                                                                        50.2504
        38.0004
  -1278107.43447   -911207.28545
                  23357217.7424                                   23357213.9694
                                                                        45.7504
        33.2504
  -1145435.48848   -809960.35545
                  22452960.6884                                   22452957.1254
                                                                        48.0004
        35.5004
    582317.51648    505805.39546
                  21326603.8524                                   21326599.4344
                                                                        49.7504
        37.0004
   2299233.12147   1808983.51645
                  22554821.1564                                   22554814.5554
                                                                        47.0004
        33.0004
   -430595.52046   -316852.12144
                  23988480.2974                                   23988476.3134
                                                                        41.7504
        24.2504
   -605052.37547   -398859.02745
                  22990051.2114                                   22990047.4304
                                                                        44.5004
        33.2504
   2881463.17647   2250520.67244
                  24017209.2034                                   24017206.7384
                                                                        42.5004
        26.7504
 09 10 23 23 21 30.0000000  0  9G02G04G05G10G13G23G25G29G30
    828601.14848    690550.81647
                  20505876.8674                                   20505871.5204
                                                                        53.0004
        43.5004
   2659519.96148   2081586.88746
                  21859067.9224                                   21859064.3444
                                                                        50.5004
        37.0004
  -1481195.30147  -1069457.57445
                  23318571.3984                                   23318568.2384
                                                                        45.2504
        34.5004
  -1341169.03948   -962480.04745
                  22415713.7114                                   22415710.3594
                                                                        48.2504
        35.5004
    471262.24248    419268.78146
                  21305470.3594                                   21305466.2704
                                                                        49.0004
        37.2504
   2266740.84447   1783664.84445
                  22548637.2114                                   22548631.2274
                                                                        47.2504
        32.2504
   -611494.46547   -457812.30544
                  23954057.0084                                   23954052.6564
                                                                        42.0004
        25.2504
   -774204.14147   -530665.57845
                  22957862.2734                                   22957858.9694
                                                                        45.5004
        33.0004
   2874827.44947   2245349.96544
                  24015946.2114                                   24015944.0004
                                                                        42.7504
        25.5004
 09 10 23 23 22  0.0000000  0  9G02G04G05G10G13G23G25G29G30
    733327.71148    616311.79347
                  20487747.2814                                   20487741.4064
                                                                        53.0004
        43.7504
   2643809.33648   2069344.82046
                  21856078.3134                                   21856074.5434
                                                                        50.0004
        37.5004
  -1683916.10947  -1227421.83645
                  23279995.1884                                   23279991.0664
                                                                        46.7504
        35.5004
  -1536430.61347  -1114631.94545
                  22378556.4534                                   22378553.3634
                                                                        47.5004
        35.5004
    361018.84048    333364.81646
                  21284492.3284                                   21284487.5784
                                                                        50.0004
        37.2504
   2234897.28947   1758851.67245
                  22542577.7974                                   22542571.9614
                                                                        46.0004
        31.2504
   -791913.35247   -598398.40244
                  23919723.0474                                   23919719.9454
                                                                        42.5004
        25.2504
   -942762.53147   -662009.78145
                  22925786.9614                                   22925782.8324
                                                                        45.2504
        33.5004
   2868714.33646   2240586.41844
                  24014782.7894                                   24014780.8754
                                                                        41.5004
        24.5004
 09 10 23 23 22 30.0000000  0  9G02G04G05G10G13G23G25G29G30
    638777.34048    542636.18047
                  20469754.7274                                   20469748.8834
                                                                        52.0004
        43.2504
   2628624.30548   2057512.31646
                  21853188.2584                                   21853184.6994
                                                                        49.5004
        37.0004
  -1886272.65647  -1385102.23045
                  23241488.1254                                   23241484.1174
                                                                        46.5004
        34.2504
  -1731222.66848  -1266417.96145
                  22341488.5784                                   22341484.9574
                                                                        48.2504
        34.7504
    251582.77348    248089.92246
                  21263667.1414                                   21263662.8524
                                                                        49.5004
        37.0004
   2203695.65247   1734538.68845
                  22536640.9924                                   22536634.4654
                                                                        45.7504
        31.0004
   -971853.83646   -738611.73443
                  23885482.1484                                   23885478.4574
                                                                        40.7504
        23.2504
  -1110730.19547   -792893.67245
                  22893824.1564                                   22893820.5474
                                                                        45.0004
        33.5004
   2863115.75047   2236223.78543
                  24013717.6644                                   24013715.1524
                                                                        42.0004
        23.5004
 09 10 23 23 23  0.0000000  0  9G02G04G05G10G13G23G25G29G30
    544948.47748    469522.78147
                  20451899.6024                                   20451894.0514
                                                                        52.0004
        43.5004
   2613961.09848   2046086.42646
                  21850398.1954                                   21850394.4494
                                                                        49.7504
        38.0004
  -2088264.67247  -1542498.63345
                  23203049.9924                                   23203046.0864
                                                                        46.5004
        33.5004
  -1925545.30148  -1417838.20745
                  22304510.5314                                   22304506.8284
                                                                        48.5004
        35.2504
    142952.79348    163443.15246
                  21242995.3984                                   21242991.3204
                                                                        50.5004
        36.7504
   2173131.93047   1710722.80144
                  22530824.2664                                   22530818.1454
                                                                        46.0004
        29.5004
  -1151315.04346   -878451.59443
                  23851331.2114                                   23851328.0664
                                                                        41.5004
        22.5004
  -1278106.86347   -923317.08245
                  22861972.7664                                   22861970.0354
                                                                        46.2504
        34.5004
   2858026.91047   2232258.39143
                  24012749.3364                                   24012746.5984
                                                                        42.0004
        22.7504
 09 10 23 23 23 30.0000000  0  9G02G04G05G10G13G23G25G29G30
    451839.32048    396970.19147
                  20434181.8054                                   20434175.8954
                                                                        51.5004
        43.0004
   2599816.27348   2035064.48446
                  21847706.5164                                   21847703.2194
                                                                        49.5004
        37.5004
  -2289892.09047  -1699610.91845
                  23164681.6724                                   23164677.6334
                                                                        46.2504
        33.5004
  -2119397.62948  -1568891.94545
                  22267622.0234                                   22267618.3134
                                                                        49.0004
        34.7504
     35127.42248     79423.34846
                  21222477.0784                                   21222472.5554
                                                                        49.5004
        37.0004
   2143202.23847   1687400.96945
                  22525129.1024                                   22525122.2344
                                                                        47.0004
        31.0004
  -1330295.90646  -1017917.17243
                  23817272.9694                                   23817268.6524
                                                                        41.5004
        23.7504
  -1444892.03947  -1053279.55545
                  22830234.7424                                   22830231.6884
                                                                        45.2504
        34.0004
   2853442.50447   2228686.13743
                  24011877.6884                                   24011873.9454
                                                                        42.2504
        22.5004
 09 10 23 23 24  0.0000000  0  9G02G04G05G10G13G23G25G29G30
    359442.73048    324972.84847
                  20416599.0004                                   20416593.6844
                                                                        51.5004
        43.5004
   2586179.87948   2024438.70346
                  21845111.8444                                   21845108.1134
                                                                        49.0004
        37.5004
  -2491160.37147  -1856443.35545
                  23126381.3364                                   23126377.0314
                                                                        47.0004
        33.0004
  -2312785.37948  -1719583.70345
                  22230821.1954                                   22230817.8874
                                                                        48.5004
        34.5004
    -71900.96548     -3975.38746
                  21202110.0944                                   21202105.6484
                                                                        49.0004
        37.5004
   2113896.39847   1664565.21545
                  22519552.3524                                   22519546.1134
                                                                        46.2504
        31.0004
  -1508801.61747  -1157012.53143
                  23783304.7974                                   23783299.9064
                                                                        42.0004
        22.0004
  -1611091.09047  -1182785.27045
                  22798607.7974                                   22798605.0394
                                                                        45.5004
        34.5004
   2849352.13747   2225498.85243
                  24011099.1484                                   24011095.6214
                                                                        42.7504
        22.5004
 09 10 23 23 24 30.0000000  0  9G02G04G05G10G13G23G25G29G30
    267753.35248    253526.57047
                  20399151.1254                                   20399145.0784
                                                                        51.0004
        43.5004
   2573044.60548   2014203.40246
                  21842612.4694                                   21842608.8594
                                                                        48.7504
        37.7504
  -2692072.37147  -2012998.21145
                  23088149.3754                                   23088145.2854
                                                                        47.7504
        34.0004
  -2505711.35248  -1869915.60245
                  22194108.6724                                   22194105.4774
                                                                        48.0004
        35.7504
   -178137.36348    -86757.08646
                  21181894.1644                                   21181889.8674
                                                                        48.0004
        37.7504
   2085207.32447   1642210.11345
                  22514093.5554                                   22514086.4884
                                                                        47.2504
        30.0004
  -1686834.71147  -1295739.65243
                  23749425.6884                                   23749421.5354
                                                                        42.0004
        23.0004
  -1776706.88347  -1311836.51645
                  22767092.2814                                   22767088.9964
                                                                        45.0004
        34.5004
   2845747.72347   2222690.34844
                  24010413.1884                                   24010409.5864
                                                                        43.2504
        24.5004
 09 10 23 23 25  0.0000000  0  9G02G04G05G10G13G23G25G29G30
    176772.42648    182632.32447
                  20381837.9694                                   20381832.4024
                                                                        51.7504
        43.2504
   2560410.00848   2004358.25446
                  21840207.9614                                   21840204.0904
                                                                        50.0004
        37.7504
  -2892625.51247  -2169273.40245
                  23049985.6724                                   23049981.1094
                                                                        47.5004
        35.2504
  -2698172.47347  -2019885.23045
                  22157484.6564                                   22157481.2504
                                                                        47.5004
        35.7504
   -283580.04348   -168920.20346
                  21161828.8444                                   21161824.8204
                                                                        49.0004
        37.0004
   2057133.80947   1620334.66845
                  22508751.2504                                   22508744.1484
                                                                        47.0004
        31.0004
  -1864391.24646  -1434095.39543
                  23715638.2344                                   23715633.8054
                                                                        41.0004
        22.7504
  -1941735.88347  -1440430.51245
                  22735688.6254                                   22735685.2854
                                                                        45.2504
        34.0004
   2842626.97347   2220258.74244
                  24009819.7424                                   24009815.9534
                                                                        42.5004
        24.5004
 09 10 23 23 25 30.0000000  0  9G02G04G05G10G13G23G25G29G30
     86493.95748    112285.46947
                  20364658.6414                                   20364652.9024
                                                                        52.2504
        43.5004
   2548267.48048   1994896.53546
                  21837897.3204                                   21837894.1254
                                                                        49.2504
        37.0004
  -3092824.13748  -2325272.35945
                  23011888.4614                                   23011885.1844
                                                                        48.0004
        34.7504
  -2890173.42247  -2169496.35545
                  22120947.7504                                   22120944.1524
                                                                        47.7504
        35.0004
   -388235.01648   -250469.46946
                  21141913.8134                                   21141909.2424
                                                                        49.5004
        36.7504
   2029667.55548   1598932.42645
                  22503524.7974                                   22503517.7814
                                                                        48.0004
        31.7504
  -2041474.97746  -1572082.73043
                  23681939.7894                                   23681935.6994
                                                                        40.2504
        22.7504
  -2106182.69947  -1568570.84445
                  22704395.2894                                   22704392.2154
                                                                        44.7504
        34.5004
   2839979.74247   2218196.01644
                  24009315.3284                                   24009312.3984
                                                                        42.0004
        25.5004
 09 10 23 23 26  0.0000000  0  9G02G04G05G10G13G23G25G29G30
     -3082.08648     42485.97747
                  20347612.9774                                   20347607.1454
                                                                        52.2504
        43.2504
   2536614.94948   1985816.63346
                  21835679.4144                                   21835676.5434
                                                                        49.0004
        37.0004
  -3292666.24247  -2480993.48045
                  22973859.8914                                   22973856.5434
                                                                        46.7504
        35.5004
  -3081711.57847  -2318746.88745
                  22084499.3914                                   22084495.5274
                                                                        47.0004
        35.5004
   -492102.64848   -331405.27046
                  21122148.5944                                   21122143.8754
                                                                        49.2504
        37.5004
   2002805.45747   1578000.93445
                  22498412.7584                                   22498406.0904
                                                                        45.7504
        30.5004
  -2218083.47346  -1709699.70343
                  23648331.9064                                   23648328.3014
                                                                        40.7504
        22.5004
  -2270045.22747  -1696255.89545
                  22673213.3524                                   22673209.8324
                                                                        44.5004
        34.5004
   2837803.11346   2216500.02044
                  24008901.1414                                   24008898.3164
                                                                        41.0004
        25.7504
 09 10 23 23 26 30.0000000  0  9G02G04G05G10G13G23G25G29G30
    -91957.60248    -26767.66447
                  20330700.5554                                   20330694.7424
                                                                        51.5004
        43.0004
   2525448.69948   1977115.64146
                  21833555.1334                                   21833551.2424
                                                                        49.2504
        37.2504
  -3492151.56247  -2636436.49645
                  22935898.9304                                   22935895.7974
                                                                        47.2504
        35.0004
  -3272787.12547  -2467636.95346
                  22048138.6724                                   22048135.5084
                                                                        47.5004
        36.2504
   -595184.23848   -411728.58246
                  21102532.7344                                   21102528.4884
                                                                        48.0004
        36.7504
   1976543.69147   1557537.19945
                  22493414.5634                                   22493408.4304
                                                                        46.0004
        30.2504
  -2394215.61346  -1846945.50844
                  23614815.5084                                   23614811.5864
                                                                        40.5004
        24.5004
  -2433322.84047  -1823485.17645
                  22642142.9384                                   22642139.3634
                                                                        45.0004
        35.0004
   2836091.88346   2215166.60944
                  24008574.9384                                   24008572.6094
                                                                        40.5004
        25.2504
 09 10 23 23 27  0.0000000  0  9G02G04G05G10G13G23G25G29G30
   -180137.06648    -95478.91447
                  20313920.6254                                   20313914.8914
                                                                        51.2504
        43.5004
   2514761.82047   1968788.18446
                  21831521.6644                                   21831518.0474
                                                                        47.7504
        37.2504
  -3691282.71148  -2791603.59445
                  22898005.8984                                   22898001.7974
                                                                        48.0004
        34.7504
  -3463402.03948  -2616168.00445
                  22011865.6644                                   22011862.3554
                                                                        48.5004
        35.5004
   -697485.07848   -491443.57846
                  21083065.4224                                   21083061.2704
                                                                        49.0004
        37.2504
   1950874.93847   1537535.57045
                  22488529.8834                                   22488524.2624
                                                                        45.0004
        30.2504
  -2569874.12546  -1983822.25444
                  23581389.1174                                   23581385.5704
                                                                        40.7504
        25.0004
  -2596018.13347  -1950260.70745
                  22611183.1024                                   22611179.7384
                                                                        45.0004
        34.7504
   2834838.39547   2214189.92244
                  24008336.7664                                   24008334.1564
                                                                        42.0004
        26.5004
 09 10 23 23 27 30.0000000  0  9G02G04G05G10G13G23G25G29G30
   1307800.19548   1063952.70347
                  20597065.5704                                   20597059.9224
                                                                        51.5004
        43.5004
   4079970.66848   3188431.40646
                  22129370.6174                                   22129366.9734
                                                                        49.7504
        36.7504
  -2314633.56247  -1718889.97745
                  23159973.2974                                   23159969.0864
                                                                        47.7504
        34.0004
  -2078130.46548  -1536735.58646
                  22275474.1564                                   22275470.6564
                                                                        48.0004
        36.0004
    776416.67248    657051.28146
                  21363539.8054                                   21363535.4964
                                                                        50.2504
        37.2504
   3501216.26247   2745593.75844
                  22783550.1644                                   22783544.0474
                                                                        45.5004
        29.7504
  -1169632.30146   -892724.70744
                  23847846.0234                                   23847842.2424
                                                                        41.0004
        26.0004
  -1182705.32847   -848977.96945
                  22880126.6804                                   22880123.6994
                                                                        45.2504
        34.0004
   4409457.50047   3441166.02043
                  24307977.1024                                   24307973.6134
                                                                        44.0004
        23.5004
 09 10 23 23 28  0.0000000  0  9G02G04G05G10G13G23G25G29G30
   1221004.29748    996319.53547
                  20580549.0314                                   20580543.0474
                                                                        51.7504
        43.5004
   4070228.77348   3180840.30146
                  22127516.5864                                   22127513.5664
                                                                        49.2504
        36.5004
  -2513059.38348  -1873507.50445
                  23122214.0084                                   23122210.1524
                                                                        48.2504
        35.0004
  -2267827.16048  -1684551.18746
                  22239376.3204                                   22239372.6294
                                                                        49.0004
        36.5004
    675670.41848    578547.73046
                  21344368.3524                                   21344364.1564
                                                                        49.7504
        37.2504
   3476719.66847   2726505.50845
                  22778889.2034                                   22778882.8324
                                                                        46.5004
        31.0004
  -1344342.85546  -1028862.77044
                  23814599.9144                                   23814595.6254
                                                                        41.5004
        26.0004
  -1344237.81647   -974847.43445
                  22849387.8984                                   22849385.0234
                                                                        45.5004
        33.5004
   4409101.19147   3440888.46944
                  24307908.8834                                   24307905.4614
                                                                        43.2504
        24.2504
 09 10 23 23 28 30.0000000  0  8G02G04G05G10G13G23G25G29
   1134898.18448    929223.86747
                  20564163.3444                                   20564157.2814
                                                                        52.2504
        43.2504
   4060953.71948   3173612.99646
                  22125751.9844                                   22125748.0234
                                                                        49.2504
        36.7504
  -2711131.35948  -2027849.29345
                  23084522.7424                                   23084518.4804
                                                                        48.0004
        34.5004
  -2457063.48048  -1832008.05146
                  22203365.6804                                   22203362.5354
                                                                        48.2504
        36.0004
    575699.45348    500648.33646
                  21325344.3134                                   21325339.7304
                                                                        50.0004
        37.7504
   3452802.96547   2707869.12145
                  22774337.2664                                   22774330.9734
                                                                        46.2504
        31.0004
  -1518578.07847  -1164630.44944
                  23781444.2194                                   23781439.6844
                                                                        42.0004
        25.5004
  -1505187.74647  -1100262.92245
                  22818760.6954                                   22818757.6724
                                                                        45.7504
        34.2504
 09 10 23 23 29  0.0000000  0  8G02G04G05G10G13G23G25G29
   1049475.26648    862660.57447
                  20547907.8054                                   20547901.9734
                                                                        52.0004
        43.7504
   4052137.73848   3166743.42246
                  22124074.2734                                   22124071.1844
                                                                        49.2504
        36.5004
  -2908854.47348  -2181919.27045
                  23046896.7424                                   23046892.8444
                                                                        48.0004
        35.0004
  -2645843.94948  -1979109.69946
                  22167442.1884                                   22167438.6094
                                                                        48.7504
        36.0004
    476497.14148    423347.82046
                  21306466.9064                                   21306462.6374
                                                                        50.5004
        37.2504
   3429457.37947   2689677.74645
                  22769894.7504                                   22769888.9184
                                                                        45.7504
        31.0004
  -1692341.63747  -1300030.62544
                  23748378.3594                                   23748373.7304
                                                                        42.2504
        25.7504
  -1665559.14547  -1225227.62545
                  22788242.7734                                   22788239.2304
                                                                        46.0004
        35.0004
 09 10 23 23 29 30.0000000  0  8G02G04G05G10G13G23G25G29
    964738.85548    796632.21147
                  20531783.0394                                   20531777.0434
                                                                        52.0004
        43.2504
   4043782.13348   3160232.63346
                  22122483.6804                                   22122480.9024
                                                                        49.0004
        36.7504
  -3106223.04347  -2335712.94545
                  23009338.3914                                   23009335.1414
                                                                        47.7504
        34.2504
  -2834162.67648  -2125851.55546
                  22131606.1094                                   22131602.1454
                                                                        49.5004
        36.2504
    378066.68048    346648.75446
                  21287736.2974                                   21287732.5514
                                                                        50.2504
        37.0004
   3406684.69547   2671932.79345
                  22765561.8674                                   22765555.7074
                                                                        46.2504
        31.2504
  -1865627.17247  -1435058.29343
                  23715402.5084                                   23715398.4924
                                                                        42.5004
        23.0004
  -1825347.01247  -1349737.63745
                  22757836.1804                                   22757832.4534
                                                                        46.0004
        33.2504
 09 10 23 23 30  0.0000000  0  8G02G04G05G10G13G23G25G29
    880691.31648    731140.62947
                  20515789.3914                                   20515783.4024
                                                                        52.5004
        43.5004
   4035886.73048   3154080.41846
                  22120981.8284                                   22120977.9344
                                                                        49.7504
        36.5004
  -3303232.56648  -2489226.82445
                  22971848.8834                                   22971845.6844
                                                                        48.0004
        35.2504
  -3022015.51248  -2272230.37946
                  22095858.8364                                   22095855.3954
                                                                        49.2504
        36.2504
    280410.82848    270553.28546
                  21269153.0084                                   21269148.7544
                                                                        49.5004
        37.0004
   3384484.18447   2654633.68445
                  22761337.4144                                   22761330.9574
                                                                        46.0004
        30.0004
  -2038430.39846  -1569710.18443
                  23682518.7894                                   23682514.1724
                                                                        41.7504
        22.7504
  -1984546.81647  -1473789.42245
                  22727541.9384                                   22727538.0234
                                                                        45.5004
        34.5004
 09 10 23 23 30 30.0000000  0  8G02G04G05G10G13G23G25G29
    797331.23048    666184.71147
                  20499926.5554                                   20499920.7234
                                                                        51.0004
        43.5004
   4028447.89848   3148283.93446
                  22119566.6334                                   22119562.6994
                                                                        49.0004
        36.2504
  -3499882.74248  -2642460.71546
                  22934427.9304                                   22934424.0944
                                                                        49.2504
        36.5004
  -3209401.86748  -2418245.68446
                  22060200.0394                                   22060197.2344
                                                                        48.5004
        37.5004
    183528.02348    195060.18846
                  21250716.8594                                   21250711.8794
                                                                        49.0004
        37.0004
   3362852.09447   2637777.51245
                  22757220.5164                                   22757214.2504
                                                                        43.7504
        30.0004
  -2210750.31647  -1703985.43043
                  23649727.7424                                   23649723.5514
                                                                        42.7504
        23.0004
  -2143157.53947  -1597382.20745
                  22697358.9774                                   22697355.3554
                                                                        44.5004
        34.5004
 09 10 23 23 31  0.0000000  0  8G02G04G05G10G13G23G25G29
    714653.62548    601760.62547
                  20484193.6564                                   20484187.6844
                                                                        52.5004
        43.2504
   4021459.47748   3142838.34846
                  22118236.1644                                   22118232.6914
                                                                        49.7504
        36.5004
  -3696176.65648  -2795417.00046
                  22897074.5474                                   22897070.8674
                                                                        49.5004
        36.5004
  -3396324.16848  -2563899.38346
                  22024630.4224                                   22024626.7344
                                                                        49.0004
        36.5004
     87413.55548    120165.79346
                  21232426.6174                                   21232422.3984
                                                                        50.0004
        36.2504
   3341781.75447   2621359.07844
                  22753211.5314                                   22753204.4534
                                                                        46.2504
        28.5004
  -2382588.16447  -1837885.02343
                  23617027.2974                                   23617023.6804
                                                                        42.7504
        23.2504
  -2301182.39147  -1720518.44945
                  22667287.8754                                   22667284.4964
                                                                        46.5004
        34.7504
 09 10 23 23 31 30.0000000  0  8G02G04G05G10G13G23G25G29
    632651.37548    537862.76647
                  20468589.0394                                   20468583.0824
                                                                        52.0004
        43.0004
   4014912.10248   3137736.42246
                  22116990.2504                                   22116987.0164
                                                                        48.5004
        36.5004
  -3892118.89848  -2948099.26646
                  22859787.7814                                   22859784.3714
                                                                        49.0004
        36.5004
  -3582787.76648  -2709195.71946
                  21989147.4774                                   21989143.9304
                                                                        48.2504
        36.7504
     -7940.19948     45864.19546
                  21214281.7194                                   21214277.7034
                                                                        48.2504
        37.7504
   3321263.53147   2605370.87544
                  22749305.9304                                   22749300.1254
                                                                        45.5004
        28.5004
  -2553949.05947  -1971412.96143
                  23584418.9144                                   23584415.0044
                                                                        42.0004
        23.5004
  -2458625.85247  -1843201.64545
                  22637327.5314                                   22637323.6214
                                                                        45.0004
        34.2504
 09 10 23 23 32  0.0000000  0  8G02G04G05G10G13G23G25G29
    551315.71948    474484.33247
                  20453111.2974                                   20453105.4804
                                                                        52.5004
        43.2504
   4008795.29748   3132970.05546
                  22115826.8204                                   22115823.3204
                                                                        49.0004
        36.2504
  -4087716.32848  -3100512.80146
                  22822567.0704                                   22822563.3554
                                                                        48.5004
        36.2504
  -3768798.97348  -2854139.49646
                  21953750.6484                                   21953746.8554
                                                                        49.0004
        36.5004
   -102541.44948    -27851.00446
                  21196279.3984                                   21196275.1094
                                                                        48.7504
        36.7504
   3301286.52747   2589804.37144
                  22745504.9224                                   22745498.6094
                                                                        46.0004
        28.2504
  -2724838.87147  -2104573.82444
                  23551900.1174                                   23551896.1094
                                                                        42.5004
        25.2504
  -2615495.26647  -1965437.55145
                  22607476.3284                                   22607472.6804
                                                                        46.5004
        34.7504
 09 10 23 23 32 30.0000000  0  8G02G04G05G10G13G23G25G29
    470643.00048    411622.44947
                  20437759.7114                                   20437753.9264
                                                                        52.2504
        43.2504
   4003103.14148   3128534.59046
                  22114743.5004                                   22114740.4384
                                                                        49.0004
        36.5004
  -4282969.89148  -3252658.43745
                  22785411.0864                                   22785407.1804
                                                                        48.0004
        35.0004
  -3954358.92248  -2998731.57046
                  21918439.9384                                   21918436.1994
                                                                        48.2504
        36.2504
   -196394.55148   -100983.24646
                  21178419.8914                                   21178415.6054
                                                                        49.5004
        37.2504
   3281844.44947   2574654.69545
                  22741805.2814                                   22741798.6134
                                                                        45.0004
        30.0004
  -2895259.11347  -2237368.77044
                  23519470.0704                                   23519466.3594
                                                                        43.2504
        26.5004
  -2771790.55147  -2087226.05945
                  22577734.5394                                   22577730.6134
                                                                        47.2504
        35.5004
 09 10 23 23 33  0.0000000  0  8G02G04G05G10G13G23G25G29
    390631.04748    349275.43847
                  20422534.1484                                   20422528.1764
                                                                        52.5004
        43.2504
   3997832.11348   3124427.25846
                  22113740.3674                                   22113736.5984
                                                                        49.0004
        36.0004
  -4477880.87547  -3404537.13345
                  22748320.8134                                   22748317.2384
                                                                        47.5004
        35.5004
  -4139468.28548  -3142972.54746
                  21883214.6414                                   21883210.9264
                                                                        48.2504
        37.0004
   -289500.80148   -173533.53546
                  21160702.0084                                   21160697.5554
                                                                        49.2504
        36.5004
   3262933.38747   2559918.79745
                  22738206.2274                                   22738200.2934
                                                                        45.2504
        30.0004
  -3065208.30547  -2369796.66444
                  23487130.2734                                   23487126.4144
                                                                        43.7504
        27.2504
  -2927513.38347  -2208568.52345
                  22548101.0864                                   22548097.3014
                                                                        47.2504
        35.0004
 09 10 23 23 33 30.0000000  0  8G02G04G05G10G13G23G25G29
    311273.80548    287438.62947
                  20407432.8524                                   20407427.0864
                                                                        52.0004
        42.7504
   3992973.80548   3120641.52745
                  22112815.5704                                   22112812.3444
                                                                        48.5004
        35.7504
  -4672451.84848  -3556150.82846
                  22711295.0864                                   22711291.4964
                                                                        48.0004
        36.0004
  -4324130.30148  -3286865.05946
                  21848074.5554                                   21848070.8054
                                                                        49.2504
        36.5004
   -381867.30548   -245507.43446
                  21143125.4454                                   21143120.8954
                                                                        49.0004
        36.5004
   3244544.38747   2545589.69945
                  22734707.2424                                   22734700.8444
                                                                        45.7504
        30.0004
  -3234690.85247  -2501860.94144
                  23454878.3524                                   23454874.0784
                                                                        44.2504
        27.2504
  -3082666.40647  -2329466.99245
                  22518576.3054                                   22518573.0554
                                                                        46.7504
        34.5004
 09 10 23 23 34  0.0000000  0  8G02G04G05G10G13G23G25G29
    232566.93448    226108.59047
                  20392455.2894                                   20392449.5314
                                                                        52.0004
        42.7504
   3988522.21148   3117172.77745
                  22111968.6254                                   22111965.0984
                                                                        49.0004
        35.7504
  -4866685.90248  -3707501.98046
                  22674333.6414                                   22674330.2894
                                                                        48.2504
        36.2504
  -4508347.07448  -3430410.53946
                  21813019.3594                                   21813015.3014
                                                                        48.5004
        36.7504
   -473498.12948   -316908.09846
                  21125688.9614                                   21125684.1174
                                                                        49.0004
        36.5004
   3226671.23447   2531662.57044
                  22731306.4924                                   22731300.2234
                                                                        45.7504
        29.5004
  -3403707.98047  -2633562.56244
                  23422715.1804                                   23422711.1374
                                                                        43.5004
        26.2504
  -3237252.19547  -2449923.43445
                  22489159.4924                                   22489156.3284
                                                                        47.2504
        35.5004
 09 10 23 23 34 30.0000000  0  8G02G04G05G10G13G23G25G29
    154510.68848    165285.53147
                  20377601.8914                                   20377595.5084
                                                                        52.0004
        43.2504
   3984475.74248   3114019.68845
                  22111198.5554                                   22111194.9534
                                                                        48.2504
        35.0004
  -5060580.06248  -3858588.27746
                  22637437.0554                                   22637433.3984
                                                                        48.5004
        37.5004
  -4692116.36348  -3573607.30546
                  21778048.9384                                   21778045.3714
                                                                        48.7504
        37.0004
   -564392.85248   -387735.14546
                  21108392.0394                                   21108387.6294
                                                                        49.0004
        36.5004
   3209312.11747   2518135.98844
                  22728003.5314                                   22727996.5004
                                                                        46.5004
        29.5004
  -3572256.45347  -2764899.02744
                  23390641.3834                                   23390637.2814
                                                                        43.0004
        25.5004
  -3391268.33247  -2569936.00445
                  22459851.4304                                   22459847.7584
                                                                        47.0004
        35.5004
 09 10 23 23 35  0.0000000  0  8G02G04G05G10G13G23G25G29
     77107.14148    104971.08647
                  20362872.4224                                   20362866.5824
                                                                        53.0004
        43.0004
   3980834.82448   3111182.60245
                  22110505.7034                                   22110502.3634
                                                                        49.0004
        35.2504
  -5254130.13747  -4009406.44146
                  22600605.4534                                   22600601.4734
                                                                        47.7504
        36.7504
  -4875433.62948  -3716451.87946
                  21743164.8754                                   21743161.4734
                                                                        49.0004
        37.0004
   -654549.50048   -457987.09046
                  21091235.8754                                   21091231.5664
                                                                        49.5004
        37.2504
   3192466.61747   2505009.63745
                  22724796.9844                                   22724791.1604
                                                                        46.2504
        30.2504
  -3740331.83047  -2895866.83744
                  23358657.7274                                   23358654.0864
                                                                        42.0004
        24.5004
  -3544709.94947  -2689500.89145
                  22430652.4534                                   22430648.5744
                                                                        47.2504
        35.2504
 09 10 23 23 35 30.0000000  0  8G02G04G05G10G13G23G25G29
       350.55148     45160.77347
                  20348266.2194                                   20348260.0314
                                                                        52.2504
        42.5004
   3977591.75448   3108655.52046
                  22109888.7274                                   22109884.6914
                                                                        49.0004
        36.0004
  -5447339.85947  -4159959.46146
                  22563839.1094                                   22563835.1884
                                                                        46.7504
        36.7504
  -5058302.53148  -3858947.03546
                  21708365.9694                                   21708362.7234
                                                                        48.7504
        37.2504
   -743973.56648   -527668.17246
                  21074218.8984                                   21074214.5434
                                                                        50.2504
        37.0004
   3176127.21147   2492277.62945
                  22721687.8834                                   22721681.7384
                                                                        45.0004
        30.0004
  -3907936.82447  -3026468.14144
                  23326763.2584                                   23326759.5594
                                                                        42.5004
        24.0004
  -3697581.40647  -2808621.50046
                  22401561.8594                                   22401558.6644
                                                                        47.2504
        36.2504
 09 10 23 23 36  0.0000000  0  8G02G04G05G10G13G23G25G29
   1499662.18448   1213455.56647
                  20633575.8444                                   20633569.5164
                                                                        52.5004
        43.0004
   5550163.46548   4334036.07845
                  22409139.0314                                   22409135.9224
                                                                        48.7504
        35.5004
  -4064782.03147  -3082641.70746
                  22826931.0084                                   22826926.8554
                                                                        47.5004
        36.0004
  -3665295.88348  -2773487.26646
                  21973446.3834                                   21973442.3794
                                                                        49.2504
        37.0004
    742756.14548    630822.51246
                  21357134.0164                                   21357129.3594
                                                                        50.5004
        36.5004
   4735710.71547   3707537.49644
                  23018466.5004                                   23018460.6454
                                                                        45.7504
        28.5004
  -2499644.59847  -1929097.53144
                  23594752.5634                                   23594748.6094
                                                                        42.2504
        24.5004
  -2274456.35547  -1699692.86746
                  22672373.3204                                   22672370.4614
                                                                        47.2504
        36.0004
 09 10 23 23 36 30.0000000  0  8G02G04G05G10G13G23G25G29
   1424196.21148   1154650.91447
                  20619214.9534                                   20619208.8524
                                                                        52.5004
        43.2504
   5547707.41448   4332122.26245
                  22408671.8914                                   22408668.8054
                                                                        49.0004
        35.2504
  -4257307.64547  -3232661.60546
                  22790294.6484                                   22790290.7234
                                                                        46.7504
        36.0004
  -3847264.05148  -2915280.60546
                  21938818.8754                                   21938815.3594
                                                                        49.2504
        37.2504
    654792.96548    562279.78146
                  21340395.1414                                   21340391.0274
                                                                        50.0004
        37.0004
   4720373.16047   3695586.15244
                  23015548.3284                                   23015541.2814
                                                                        45.0004
        27.2504
  -2666304.25046  -2058962.19544
                  23563038.7504                                   23563034.4184
                                                                        41.0004
        25.0004
  -2426183.18747  -1817921.56246
                  22643500.7584                                   22643497.8834
                                                                        47.7504
        36.0004
 09 10 23 23 37  0.0000000  0  8G02G04G05G10G13G23G25G29
   1349370.88348   1096345.43847
                  20604976.2114                                   20604970.3094
                                                                        52.0004
        42.7504
   5545637.61748   4330509.42245
                  22408278.0944                                   22408274.9304
                                                                        49.2504
        35.5004
  -4449492.08647  -3382415.60246
                  22753722.7344                                   22753719.2034
                                                                        47.0004
        36.5004
  -4028782.88348  -3056723.80946
                  21904276.8524                                   21904272.9844
                                                                        49.7504
        36.7504
    567555.48448    494302.54346
                  21323794.6094                                   21323790.3594
                                                                        51.0004
        37.0004
   4705528.71947   3684019.06644
                  23012723.7504                                   23012716.7194
                                                                        45.0004
        28.0004
  -2832491.57847  -2188458.80144
                  23531414.3284                                   23531410.2424
                                                                        42.7504
        26.5004
  -2577338.84847  -1935705.18745
                  22614736.7664                                   22614733.5394
                                                                        47.5004
        35.0004
 09 10 23 23 37 30.0000000  0  8G02G04G05G10G13G23G25G29
   1275188.64548   1038541.09847
                  20590859.6644                                   20590853.8324
                                                                        51.7504
        43.2504
   5543954.80548   4329198.11345
                  22407957.8364                                   22407954.3134
                                                                        49.0004
        35.5004
  -4641330.90247  -3531900.39546
                  22717217.3754                                   22717213.2704
                                                                        47.7504
        36.5004
  -4209847.59048  -3197813.14546
                  21869821.1954                                   21869817.7344
                                                                        49.7504
        36.7504
    481045.98048    426892.56646
                  21307332.4614                                   21307327.8054
                                                                        51.0004
        36.7504
   4691177.66447   3672836.44144
                  23009993.1804                                   23009986.0354
                                                                        45.7504
        28.0004
  -2998201.86346  -2317583.70744
                  23499880.6024                                   23499876.8204
                                                                        41.0004
        25.0004
  -2727918.68747  -2053040.09845
                  22586082.5234                                   22586079.3014
                                                                        47.5004
        35.0004
 09 10 23 23 38  0.0000000  0  8G02G04G05G10G13G23G25G29
   1201645.64848    981234.86747
                  20576865.1484                                   20576859.0824
                                                                        51.7504
        42.7504
   5542653.34848   4328183.93445
                  22407709.9694                                   22407706.8714
                                                                        48.2504
        35.0004
  -4832825.34447  -3681116.78546
                  22680776.9224                                   22680773.3834
                                                                        47.2504
        37.0004
  -4390459.42248  -3338549.55946
                  21835452.3054                                   21835448.5394
                                                                        49.5004
        37.5004
    395260.64548    360046.82446
                  21291008.2114                                   21291003.8054
                                                                        51.2504
        36.7504
   4677313.83247   3662033.46144
                  23007354.3984                                   23007347.9104
                                                                        45.0004
        28.5004
  -3163435.68447  -2446337.32044
                  23468437.6254                                   23468433.6764
                                                                        42.5004
        26.2504
  -2877924.28547  -2169927.57445
                  22557537.5474                                   22557533.7624
                                                                        47.5004
        35.2504
 09 10 23 23 38 30.0000000  0  8G02G04G05G10G13G23G25G29
   1128748.91448    924432.22747
                  20562993.0704                                   20562987.5314
                                                                        52.2504
        43.5004
   5541738.70347   4327471.13345
                  22407535.8054                                   22407532.2234
                                                                        47.7504
        35.0004
  -5023966.89148  -3830058.28946
                  22644404.2424                                   22644400.0864
                                                                        48.5004
        37.0004
  -4570609.44948  -3478926.19146
                  21801170.6954                                   21801166.7544
                                                                        50.0004
        37.5004
    310206.62148    293770.95746
                  21274822.5784                                   21274818.2854
                                                                        51.5004
        37.2504
   4663942.52747   3651614.26244
                  23004809.9064                                   23004803.9224
                                                                        46.0004
        29.0004
  -3328183.20747  -2574711.99244
                  23437086.9534                                   23437083.2624
                                                                        42.0004
        27.0004
  -3027346.59847  -2286360.51245
                  22529103.3984                                   22529099.4494
                                                                        47.2504
        35.5004
 09 10 23 23 39  0.0000000  0  8G02G04G05G10G13G23G25G29
   1056488.12148    868125.12547
                  20549242.5084                                   20549236.6764
                                                                        52.2504
        42.0004
   5541198.68847   4327050.32045
                  22407433.1254                                   22407429.9884
                                                                        47.5004
        34.5004
  -5214762.77348  -3978730.28546
                  22608096.7504                                   22608092.6024
                                                                        48.0004
        37.5004
  -4750305.81248  -3618949.29346
                  21766975.2814                                   21766971.8054
                                                                        50.0004
        38.0004
    225872.70748    228056.18446
                  21258774.4144                                   21258770.4494
                                                                        51.5004
        37.2504
   4651050.78947   3641568.75844
                  23002356.2584                                   23002350.4454
                                                                        44.5004
        29.7504
  -3492452.22746  -2702713.80544
                  23405828.2504                                   23405824.0944
                                                                        41.0004
        27.2504
  -3176193.68748  -2402345.23445
                  22500778.7664                                   22500774.6604
                                                                        48.0004
        35.7504
 09 10 23 23 39 30.0000000  0  8G02G04G05G10G13G23G25G29
    984857.21548    812308.83647
                  20535611.6644                                   20535605.3444
                                                                        52.0004
        42.5004
   5541025.25448   4326915.11745
                  22407400.6884                                   22407396.4574
                                                                        48.5004
        35.0004
  -5405216.62147  -4127135.87546
                  22571854.6644                                   22571850.8284
                                                                        47.5004
        37.5004
  -4929551.86348  -3758621.51646
                  21732866.0554                                   21732862.0864
                                                                        49.2504
        38.2504
    142253.24648    162898.14846
                  21242862.2344                                   21242857.7974
                                                                        50.7504
        37.5004
   4638630.28547   3631890.43044
                  22999993.2194                                   22999987.1414
                                                                        44.2504
        27.5004
  -3656246.24647  -2830345.48844
                  23374658.7584                                   23374654.7624
                                                                        42.0004
        27.0004
  -3324468.91047  -2517884.35245
                  22472562.9844                                   22472558.8984
                                                                        47.5004
        35.7504
 09 10 23 23 40  0.0000000  0  8G02G04G05G10G13G23G25G29
    913860.36748    756986.61347
                  20522101.1414                                   20522095.3014
                                                                        52.5004
        43.2504
   5541221.53547   4327068.07045
                  22407437.8524                                   22407434.3324
                                                                        47.2504
        34.0004
  -5595322.22347  -4275270.02046
                  22535678.0784                                   22535674.7034
                                                                        47.5004
        37.7504
  -5108340.68448  -3897937.45746
                  21698844.1884                                   21698839.9844
                                                                        50.0004
        38.2504
     59352.54348     98300.17646
                  21227087.1564                                   21227082.5944
                                                                        50.7504
        36.5004
   4626683.76247   3622581.44144
                  22997719.2504                                   22997713.7424
                                                                        44.5004
        28.2504
  -3819557.73846  -2957601.19144
                  23343581.8284                                   23343578.1764
                                                                        41.5004
        27.5004
  -3472165.87547  -2632972.89545
                  22444457.1024                                   22444452.4774
                                                                        47.0004
        34.7504
 09 10 23 23 40 30.0000000  0  8G02G04G05G10G13G23G25G29
    843495.16448    702156.59447
                  20508711.3984                                   20508705.2934
                                                                        52.5004
        42.5004
   5541783.37547   4327505.87145
                  22407544.6884                                   22407541.0664
                                                                        47.0004
        34.7504
  -5785079.22348  -4423132.57846
                  22499568.4304                                   22499565.1804
                                                                        48.0004
        37.2504
  -5286672.78148  -4036897.50046
                  21664908.1024                                   21664904.5354
                                                                        49.2504
        37.7504
    -22832.06248     34260.24246
                  21211447.8364                                   21211443.3444
                                                                        50.7504
        37.0004
   4615206.66847   3613638.23044
                  22995535.6174                                   22995529.5784
                                                                        44.0004
        27.7504
  -3982386.57046  -3084480.79344
                  23312596.6564                                   23312591.8754
                                                                        41.7504
        26.7504
  -3619284.68747  -2747610.91045
                  22416461.4304                                   22416457.3524
                                                                        47.2504
        35.5004
 09 10 23 23 41  0.0000000  0  8G02G04G05G10G13G23G25G29
    773762.48448    647819.44547
                  20495441.5164                                   20495435.7274
                                                                        53.0004
        42.7504
   5542710.14148   4328228.05145
                  22407721.0634                                   22407717.5354
                                                                        48.0004
        34.5004
  -5974485.10248  -4570721.56246
                  22463526.6094                                   22463521.8204
                                                                        48.0004
        37.0004
  -5464544.66448  -4175498.95346
                  21631060.1484                                   21631056.7424
                                                                        50.0004
        37.5004
   -104299.68748    -29220.98046
                  21195944.4694                                   21195940.0514
                                                                        51.2504
        36.7504
   4604197.97347   3605060.02744
                  22993441.0004                                   22993434.4614
                                                                        44.0004
        27.5004
  -4144728.59846  -3210981.04744
                  23281703.7664                                   23281699.7584
                                                                        41.0004
        24.7504
  -3765823.05147  -2861796.64145
                  22388576.1884                                   22388571.9494
                                                                        47.5004
        35.5004
 09 10 23 23 41 30.0000000  0  8G02G04G05G10G13G23G25G29
    704657.62548    593971.51647
                  20482291.3834                                   20482285.1134
                                                                        52.0004
        42.7504
   5543994.66047   4329228.94145
                  22407965.0784                                   22407961.8674
                                                                        46.7504
        34.5004
  -6163541.45348  -4718038.20746
                  22427549.8134                                   22427545.9454
                                                                        48.7504
        37.0004
  -5641958.44148  -4313743.44546
                  21597300.0164                                   21597295.9774
                                                                        50.0004
        38.5004
   -185056.05948    -92147.99646
                  21180577.3444                                   21180572.5554
                                                                        51.2504
        36.0004
   4593650.16447   3596840.97744
                  22991433.8054                                   22991427.1564
                                                                        44.5004
        27.0004
  -4306586.82046  -3337104.30544
                  23250903.1254                                   23250898.7344
                                                                        41.7504
        26.5004
  -3911782.30147  -2975531.10946
                  22360801.0234                                   22360797.0824
                                                                        47.5004
        36.7504
 09 10 23 23 42  0.0000000  0  8G02G04G05G10G13G23G25G29
    636179.17248    540611.72347
                  20469260.3054                                   20469254.3014
                                                                        52.5004
        42.5004
   5545634.75047   4330506.90245
                  22408277.0704                                   22408273.7934
                                                                        46.5004
        34.0004
  -6352247.44148  -4865081.80546
                  22391640.3524                                   22391636.1484
                                                                        48.7504
        37.2504
  -5818913.47348  -4451630.47746
                  21563625.9224                                   21563622.5354
                                                                        49.2504
        38.5004
   -265102.19548   -154521.62546
                  21165344.9384                                   21165340.3954
                                                                        50.5004
        36.0004
   4583560.28947   3588978.77744
                  22989513.7034                                   22989507.1644
                                                                        44.5004
        29.2504
  -4467958.90646  -3462848.74644
                  23220194.8594                                   23220191.1644
                                                                        41.7504
        27.0004
  -4057161.94947  -3088813.92245
                  22333136.0394                                   22333132.4734
                                                                        47.7504
        35.5004
 09 10 23 23 42 30.0000000  0  8G02G04G05G10G13G23G25G29
    568326.27348    487739.35947
                  20456348.2734                                   20456342.8094
                                                                        52.2504
        42.0004
   5547627.66847   4332059.79745
                  22408656.8134                                   22408653.3714
                                                                        47.2504
        33.7504
  -6540601.51648  -5011851.19546
                  22355797.7894                                   22355793.6054
                                                                        49.2504
        37.7504
  -5995407.78548  -4589158.48446
                  21530040.3914                                   21530037.0744
                                                                        50.0004
        38.5004
   -344438.94148   -216342.46546
                  21150247.7734                                   21150243.4694
                                                                        50.7504
        36.5004
   4573925.55547   3581471.20744
                  22987680.6414                                   22987674.0164
                                                                        44.5004
        28.7504
  -4628843.06646  -3588213.01644
                  23189579.3054                                   23189575.8594
                                                                        41.7504
        26.7504
  -4201960.46947  -3201643.93446
                  22305581.3524                                   22305577.9654
                                                                        47.7504
        36.5004
 09 10 23 23 43  0.0000000  0  8G02G04G05G10G13G23G25G29
    501100.52748    435355.66447
                  20443555.5084                                   20443549.3324
                                                                        52.0004
        43.0004
   5549973.62947   4333887.78545
                  22409103.4614                                   22409099.9454
                                                                        47.2504
        34.5004
  -6728599.40648  -5158343.06646
                  22320022.3594                                   22320018.9534
                                                                        48.5004
        38.0004
  -6171437.03948  -4726324.12946
                  21496543.1094                                   21496539.4574
                                                                        49.2504
        38.2504
   -423065.33648   -277609.77346
                  21135285.6484                                   21135281.3284
                                                                        50.2504
        36.5004
   4564745.47347   3574317.90644
                  22985933.2664                                   22985927.4804
                                                                        43.5004
        28.0004
  -4789234.93447  -3713193.65244
                  23159058.2194                                   23159054.3484
                                                                        42.2504
        27.0004
  -4346173.57447  -3314017.76246
                  22278138.5634                                   22278135.3404
                                                                        47.5004
        36.2504
 09 10 23 23 43 30.0000000  0  8G02G04G05G10G13G23G25G29
    434496.91848    383456.77347
                  20430881.5004                                   20430875.1374
                                                                        52.2504
        42.7504
   5552665.82847   4335985.56345
                  22409615.8204                                   22409612.4614
                                                                        47.2504
        34.5004
  -6916244.03148  -5304559.66046
                  22284315.1484                                   22284311.4614
                                                                        48.5004
        37.5004
  -6347004.28548  -4863129.77046
                  21463133.8284                                   21463129.8714
                                                                        49.7504
        38.0004
   -500985.94548   -338327.10246
                  21120458.1564                                   21120453.3914
                                                                        50.7504
        36.2504
   4556012.66047   3567513.11344
                  22984270.8444                                   22984265.0044
                                                                        42.5004
        26.5004
  -4949136.77047  -3837792.48444
                  23128630.4064                                   23128625.4964
                                                                        42.7504
        27.7504
  -4489804.92648  -3425938.28546
                  22250806.7664                                   22250803.2464
                                                                        48.0004
        36.7504
 09 10 23 23 44  0.0000000  0  8G02G04G05G10G13G23G25G29
    368511.98048    332039.98047
                  20418324.8444                                   20418318.7664
                                                                        51.7504
        42.2504
   5555699.32447   4338349.27745
                  22410192.9454                                   22410189.9264
                                                                        47.5004
        34.7504
  -7103535.85548  -5450501.34046
                  22248674.8834                                   22248671.0864
                                                                        48.0004
        38.0004
  -6522110.18048  -4999575.91846
                  21429812.3284                                   21429808.6024
                                                                        50.0004
        38.5004
   -578204.78948   -398497.59846
                  21105763.7114                                   21105759.1644
                                                                        50.7504
        36.7504
   4547722.18847   3561052.98444
                  22982693.1884                                   22982687.5204
                                                                        43.5004
        27.0004
  -5108549.05147  -3962009.86344
                  23098294.9384                                   23098290.1724
                                                                        43.7504
        27.7504
  -4632854.90648  -3537405.78546
                  22223585.1954                                   22223581.9734
                                                                        48.2504
        36.7504
 09 10 23 23 44 30.0000000  0  8G02G04G05G10G13G23G25G29
   1878567.31648   1508706.46947
                  20705678.6564                                   20705672.9494
                                                                        51.0004
        42.7504
   7134492.16447   5568577.42245
                  22710627.3524                                   22710623.7424
                                                                        47.7504
        34.0004
  -5715046.86348  -4368561.84446
                  22512895.4694                                   22512891.5084
                                                                        48.0004
        38.0004
  -5121327.02748  -3908056.57046
                  21696372.5314                                   21696368.8244
                                                                        49.7504
        38.2504
    920699.78548    769479.99646
                  21390995.3364                                   21390991.0314
                                                                        50.5004
        36.7504
   6115291.43447   4782535.50844
                  23280992.5164                                   23280985.9024
                                                                        43.0004
        28.0004
  -3692044.15247  -2858239.81244
                  23367846.3914                                   23367842.1414
                                                                        43.2504
        27.7504
  -3199896.96148  -2420815.15646
                  22496267.9454                                   22496264.4804
                                                                        48.2504
        37.0004
 09 10 23 23 45  0.0000000  0  8G02G04G05G10G13G23G25G29
   1813818.98848   1458253.20747
                  20693357.4694                                   20693351.8054
                                                                        52.5004
        42.5004
   7138203.70347   5571469.52745
                  22711333.0554                                   22711329.7544
                                                                        46.2504
        33.5004
  -5901626.80948  -4513948.86346
                  22477390.5634                                   22477386.8244
                                                                        49.0004
        38.0004
  -5295503.46948  -4043778.47346
                  21663228.1644                                   21663224.3444
                                                                        50.0004
        39.0004
    844883.36748    710402.28946
                  21376568.3204                                   21376563.6564
                                                                        51.0004
        36.5004
   6107878.45747   4776759.15644
                  23279582.1414                                   23279575.2544
                                                                        43.5004
        28.2504
  -3850469.28947  -2981687.96944
                  23337698.7664                                   23337694.4344
                                                                        43.2504
        25.2504
  -3341778.30148  -2531372.03546
                  22469269.1414                                   22469265.4184
                                                                        48.7504
        36.2504
 09 10 23 23 45 30.0000000  0  8G02G04G05G10G13G23G25G29
   1749685.96148   1408279.43047
                  20681153.6334                                   20681147.4494
                                                                        51.0004
        42.0004
   7142248.81348   5574621.57045
                  22712103.3054                                   22712100.1054
                                                                        48.5004
        33.5004
  -6087849.95348  -4659057.82446
                  22441953.9304                                   22441949.3954
                                                                        48.0004
        38.0004
  -5469214.46948  -4179137.68746
                  21630171.6724                                   21630168.2074
                                                                        49.0004
        38.5004
    769764.80148    651868.35546
                  21362273.7504                                   21362269.1414
                                                                        50.0004
        36.0004
   6100898.18047   4771319.98844
                  23278253.3594                                   23278246.6524
                                                                        44.5004
        26.7504
  -4008399.91446  -3104750.80544
                  23307645.5704                                   23307641.5044
                                                                        41.0004
        25.5004
  -3483075.02047  -2641473.37146
                  22442380.8134                                   22442377.5474
                                                                        47.0004
        36.0004
 09 10 23 23 46  0.0000000  0  9G02G04G05G10G13G23G25G29G16
   1686166.79748   1358784.01647
                  20669066.0554                                   20669060.1764
                                                                        51.0004
        42.0004
   7146624.42247   5578031.12545
                  22712935.5944                                   22712932.9144
                                                                        47.5004
        33.2504
  -6273715.41048  -4803888.04746
                  22406584.5474                                   22406580.1884
                                                                        48.5004
        38.0004
  -5642459.00448  -4314133.41046
                  21597204.4304                                   21597200.8444
                                                                        50.0004
        38.5004
    695342.24648    593876.76646
                  21348111.4224                                   21348106.7664
                                                                        51.0004
        37.0004
   6094347.57047   4766215.65644
                  23277006.8204                                   23276999.6054
                                                                        44.7504
        26.5004
  -4165834.33247  -3227426.95744
                  23277687.3134                                   23277683.3244
                                                                        43.7504
        28.0004
  -3623785.96548  -2751118.26246
                  22415604.8284                                   22415600.9534
                                                                        48.0004
        36.7504
   7667420.10256   6012765.59053
                  24433642.9454                                   24433637.5784
                                                                        38.2504
        19.5004
 09 10 23 23 46 30.0000000  0  9G02G04G05G10G13G23G25G29G16
   1623255.32848   1309762.07447
                  20657094.3364                                   20657088.4614
                                                                        50.7504
        42.2504
   7151322.86347   5581692.19145
                  22713829.5314                                   22713826.7734
                                                                        47.5004
        33.0004
  -6459226.12948  -4948441.84046
                  22371283.1094                                   22371279.0474
                                                                        48.2504
        37.7504
  -5815240.70348  -4448768.50046
                  21564324.9534                                   21564321.2464
                                                                        50.2504
        39.0004
    621609.12148    536422.38745
                  21334080.8754                                   21334075.8284
                                                                        51.0004
        35.5004
   6088218.42647   4761439.72344
                  23275840.5944                                   23275833.9964
                                                                        44.0004
        25.2504
  -4322776.08647  -3349719.21944
                  23247822.2344                                   23247818.7304
                                                                        43.2504
        27.7504
  -3763915.14147  -2860309.82046
                  22388939.1334                                   22388935.6024
                                                                        47.7504
        36.5004
   7505016.98846   5886217.67642
                  24402738.3284                                   24402733.0554
                                                                        38.2504
        17.7504
 09 10 23 23 47  0.0000000  0  9G02G04G05G10G13G23G25G29G16
   1560946.31648   1261209.59447
                  20645237.2584                                   20645231.4104
                                                                        51.7504
        42.2504
   7156337.97347   5585600.05145
                  22714784.3524                                   22714781.4614
                                                                        47.7504
        33.5004
  -6644385.09048  -5092721.52746
                  22336048.3444                                   22336044.2704
                                                                        48.5004
        38.0004
  -5987562.50848  -4583045.25846
                  21531533.2734                                   21531529.6414
                                                                        50.0004
        39.0004
    548560.68448    479501.53946
                  21320179.9304                                   21320175.2934
                                                                        51.5004
        36.0004
   6082503.74247   4756986.72744
                  23274752.5944                                   23274746.4534
                                                                        43.5004
        28.0004
  -4479226.82447  -3471628.87544
                  23218050.3984                                   23218047.0204
                                                                        43.7504
        28.7504
  -3903465.57048  -2969050.40246
                  22362383.4454                                   22362379.8954
                                                                        48.5004
        37.5004
   7343104.96946   5760052.52343
                  24371927.3914                                   24371923.1174
                                                                        38.0004
        18.2504
 09 10 23 23 47 30.0000000  0  9G02G04G05G10G13G23G25G29G16
   1499242.71948   1213128.85947
                  20633495.9224                                   20633489.5744
                                                                        51.5004
        42.5004
   7161671.15247   5589755.74645
                  22715799.5634                                   22715796.2114
                                                                        47.5004
        34.2504
  -6829186.70748  -5236722.77346
                  22300881.8524                                   22300877.8364
                                                                        48.7504
        38.5004
  -6159418.08648  -4716958.68446
                  21498830.2734                                   21498827.0434
                                                                        50.7504
        38.5004
    476199.54748    423116.24246
                  21306409.7584                                   21306405.8444
                                                                        50.2504
        36.7504
   6077204.30547   4752857.28544
                  23273743.6644                                   23273738.1724
                                                                        42.2504
        27.2504
  -4635181.05147  -3593151.63344
                  23188373.1644                                   23188369.9344
                                                                        43.7504
        27.2504
  -4042431.38348  -3077335.44546
                  22335939.1724                                   22335935.1914
                                                                        49.0004
        37.0004
   7181689.62546   5634274.36343
                  24341211.1414                                   24341206.1414
                                                                        39.5004
        19.7504
 09 10 23 23 48  0.0000000  0  9G02G04G05G10G13G23G25G29G16
   1438145.57848   1165520.71147
                  20621869.2814                                   20621862.9534
                                                                        52.0004
        42.7504
   7167322.02747   5594159.00845
                  22716874.6414                                   22716871.5354
                                                                        46.7504
        32.2504
  -7013627.26248  -5380442.66046
                  22265784.2114                                   22265780.1024
                                                                        48.5004
        38.7504
  -6330803.91048  -4850506.07446
                  21466216.6884                                   21466213.1914
                                                                        50.2504
        39.0004
    404526.23848    367266.91446
                  21292770.7894                                   21292766.2114
                                                                        50.7504
        36.5004
   6072319.03547   4749050.57844
                  23272815.0314                                   23272808.7624
                                                                        44.0004
        27.0004
  -4790635.14547  -3714284.69544
                  23158791.8284                                   23158787.7234
                                                                        44.0004
        27.5004
  -4180809.86348  -3185162.82846
                  22309606.4064                                   22309602.8554
                                                                        48.0004
        36.7504
   7020774.91846   5508886.29743
                  24310590.0554                                   24310585.5904
                                                                        41.2504
        22.0004
 09 10 23 23 48 30.0000000  0  9G02G04G05G10G13G23G25G29G16
   1377656.11348   1118386.08247
                  20610358.6484                                   20610352.5164
                                                                        52.0004
        42.5004
   7173289.77747   5598809.17245
                  22718010.1804                                   22718006.6524
                                                                        47.2504
        32.5004
  -7197703.38748  -5523878.56646
                  22230755.2814                                   22230751.3794
                                                                        49.2504
        38.2504
  -6501716.46148  -4983684.66846
                  21433692.9144                                   21433689.4614
                                                                        49.7504
        39.5004
    333541.53548    311954.15646
                  21279263.3524                                   21279258.7384
                                                                        50.7504
        36.0004
   6067847.48047   4745566.24644
                  23271963.8524                                   23271957.5554
                                                                        45.0004
        27.2504
  -4945585.10947  -3835024.92244
                  23129305.4924                                   23129301.3204
                                                                        44.2504
        28.5004
  -4318597.16848  -3292529.54746
                  22283386.5164                                   22283382.5514
                                                                        48.0004
        36.0004
   6860365.09447   5383891.63343
                  24280064.8674                                   24280060.3984
                                                                        42.0004
        23.0004
 09 10 23 23 49  0.0000000  0  9G02G04G05G10G13G23G25G29G16
   1317773.15648   1071724.02747
                  20598963.3284                                   20598957.0594
                                                                        52.0004
        42.2504
   7179572.82047   5603705.05145
                  22719205.8524                                   22719202.5434
                                                                        47.2504
        32.5004
  -7381413.09848  -5667028.98446
                  22195796.3054                                   22195792.2774
                                                                        49.5004
        38.0004
  -6672154.06248  -5116493.17646
                  21401259.6954                                   21401256.0784
                                                                        50.0004
        38.7504
    263244.34848    257177.12545
                  21265886.0084                                   21265881.0984
                                                                        50.7504
        35.7504
   6063786.80947   4742402.09844
                  23271191.6954                                   23271185.9064
                                                                        45.5004
        28.0004
  -5100028.68047  -3955370.56644
                  23099915.7584                                   23099912.2974
                                                                        45.2504
        28.5004
  -4455792.15248  -3399434.72346
                  22257278.7274                                   22257275.1054
                                                                        48.5004
        36.2504
   6700462.56647   5259292.23443
                  24249636.6954                                   24249632.2704
                                                                        43.0004
        22.0004
 09 10 23 23 49 30.0000000  0  9G02G04G05G10G13G23G25G29G16
   1258500.09848   1025537.21947
                  20587684.0554                                   20587677.7974
                                                                        52.5004
        42.5004
   7186172.70347   5608847.80145
                  22720461.7424                                   22720458.2854
                                                                        47.5004
        32.5004
  -7564750.31248  -5809889.12946
                  22160908.8364                                   22160904.7464
                                                                        49.5004
        38.5004
  -6842110.93448  -5248927.10946
                  21368918.3134                                   21368914.6254
                                                                        51.0004
        39.7504
    193637.83248    202938.29345
                  21252639.9224                                   21252635.7894
                                                                        51.0004
        35.7504
   6060138.58647   4739559.32444
                  23270497.3134                                   23270490.7274
                                                                        45.0004
        26.0004
  -5253959.60547  -4075316.74244
                  23070624.1094                                   23070619.8754
                                                                        44.2504
        27.5004
  -4592389.21148  -3505873.98446
                  22231285.3984                                   22231281.3244
                                                                        49.5004
        36.0004
   6541073.49247   5135092.93443
                  24219306.5164                                   24219301.4654
                                                                        42.7504
        22.7504
 09 10 23 23 50  0.0000000  0  9G02G04G05G10G13G23G25G29G16
   1199836.38348    979825.22347
                  20576520.2974                                   20576514.5204
                                                                        52.0004
        42.5004
   7193087.87547   5614236.22345
                  22721778.0784                                   22721774.6094
                                                                        46.7504
        32.7504
  -7747713.00448  -5952457.46146
                  22126092.0164                                   22126087.7704
                                                                        50.7504
        38.5004
  -7011585.24648  -5380985.03546
                  21336667.9774                                   21336664.5164
                                                                        51.0004
        39.0004
    124721.12548    149236.95746
                  21239525.7664                                   21239521.2974
                                                                        51.2504
        36.7504
   6056900.26647   4737035.96144
                  23269880.7974                                   23269874.4184
                                                                        45.5004
        26.0004
  -5407375.79747  -4194861.82044
                  23041429.9304                                   23041425.5594
                                                                        45.2504
        27.0004
  -4728386.39548  -3611845.79746
                  22205406.0164                                   22205402.3134
                                                                        48.7504
        36.5004
   6382200.40647   5011295.71143
                  24189073.1334                                   24189068.5594
                                                                        42.5004
        22.0004
 09 10 23 23 50 30.0000000  0  9G02G04G05G10G13G23G25G29G16
   1141779.82048    934586.30947
                  20565472.9844                                   20565466.9534
                                                                        52.2504
        42.0004
   7200314.38347   5619867.23045
                  22723152.9064                                   22723149.5004
                                                                        47.2504
        32.7504
  -7930300.70748  -6094733.59446
                  22091346.9384                                   22091342.7734
                                                                        50.5004
        38.7504
  -7180576.30948  -5512666.37146
                  21304510.2814                                   21304506.4924
                                                                        50.5004
        39.0004
     56491.74248     96071.19146
                  21226542.1564                                   21226537.9304
                                                                        50.7504
        36.0004
   6054068.02347   4734829.02344
                  23269341.9384                                   23269335.7074
                                                                        44.0004
        25.0004
  -5560276.54747  -4314005.24244
                  23012333.8594                                   23012328.9144
                                                                        45.2504
        27.2504
  -4863783.44547  -3717349.97746
                  22179641.2114                                   22179636.7894
                                                                        47.5004
        36.5004
   6223844.50046   4887901.50443
                  24158939.1334                                   24158934.9384
                                                                        39.2504
        20.5004
 09 10 23 23 51  0.0000000  0  9G02G04G05G10G13G23G25G29G16
   1084328.36748    889818.93047
                  20554540.1414                                   20554534.0864
                                                                        53.0004
        42.5004
   7207849.27747   5625738.58645
                  22724586.6804                                   22724583.5944
                                                                        47.7504
        33.5004
  -8112512.78148  -6236717.02746
                  22056672.7424                                   22056668.8134
                                                                        50.5004
        38.5004
  -7349083.35548  -5643970.55546
                  21272444.6564                                   21272440.8364
                                                                        51.2504
        39.7504
    -11052.53948     43439.28146
                  21213689.1644                                   21213684.6724
                                                                        51.2504
        36.2504
   6051637.96547   4732935.46544
                  23268879.3594                                   23268872.5984
                                                                        43.7504
        26.2504
  -5712660.74647  -4432746.17644
                  22983335.7584                                   22983331.7034
                                                                        45.0004
        28.2504
  -4998580.55548  -3822386.66846
                  22153989.6254                                   22153986.3244
                                                                        48.7504
        36.5004
   6066006.68846   4764911.01643
                  24128903.7504                                   24128898.9414
                                                                        40.0004
        20.7504
 09 10 23 23 51 30.0000000  0 10G02G04G05G10G13G23G25G29G16G07
   1027475.54348    845518.01647
                  20543721.2664                                   20543715.4184
                                                                        52.0004
        42.5004
   7215685.05947   5631844.45745
                  22726077.8134                                   22726074.6764
                                                                        46.5004
        32.7504
  -8294352.75448  -6378410.51246
                  22022069.7664                                   22022065.3714
                                                                        50.5004
        39.2504
  -7517109.82448  -5774900.26646
                  21240470.1954                                   21240466.4104
                                                                        50.5004
        39.0004
    -77918.49248     -8664.07446
                  21200964.6884                                   21200960.0944
                                                                        50.5004
        36.2504
   6049602.08247   4731349.07044
                  23268491.6724                                   23268485.4344
                                                                        43.7504
        24.5004
  -5864531.96947  -4551087.37944
                  22954436.3134                                   22954431.6174
                                                                        44.5004
        27.5004
  -5132781.30948  -3926958.68046
                  22128452.0394                                   22128448.5204
                                                                        48.0004
        36.5004
   5908683.92246   4642321.86743
                  24098966.2974                                   24098961.3054
                                                                        39.7504
        20.2504
   7628767.81356   5963545.22353
                  24317638.1804                                   24317633.9304
                                                                        39.5004
        21.0004
 09 10 23 23 52  0.0000000  0 10G02G04G05G10G13G23G25G29G16G07
    971220.27748    801682.73047
                  20533016.5634                                   20533010.5704
                                                                        52.2504
        42.5004
   7223818.77347   5638182.50845
                  22727625.3204                                   22727622.3284
                                                                        47.5004
        33.0004
  -8475819.35248  -6519813.06246
                  21987537.6954                                   21987533.5984
                                                                        50.0004
        39.0004
  -7684654.75048  -5905454.73846
                  21208587.4614                                   21208583.5634
                                                                        51.0004
        39.2504
   -144108.09848    -60240.40646
                  21188369.5634                                   21188364.7304
                                                                        50.7504
        36.0004
   6047957.11347   4730067.27744
                  23268178.6254                                   23268172.7704
                                                                        44.0004
        26.2504
  -6015888.71147  -4669027.68444
                  22925633.4454                                   22925629.1294
                                                                        44.0004
        28.0004
  -5266385.06248  -4031065.49646
                  22103028.5474                                   22103024.3794
                                                                        49.0004
        36.5004
   5751877.74246   4520135.23443
                  24069126.8984                                   24069122.1884
                                                                        40.2504
        20.2504
   7436214.04746   5813503.42243
                  24280995.5314                                   24280992.0634
                                                                        39.5004
        19.2504
 09 10 23 23 52 30.0000000  0 10G02G04G05G10G13G23G25G29G16G07
    915556.75448    758308.53547
                  20522423.9534                                   20522418.1094
                                                                        52.2504
        42.0004
   7232243.46147   5644747.22745
                  22729228.6024                                   22729225.4694
                                                                        46.7504
        32.5004
  -8656915.49648  -6660926.94146
                  21953076.5164                                   21953072.7034
                                                                        50.5004
        38.7504
  -7851721.33648  -6035636.49646
                  21176795.8984                                   21176792.2344
                                                                        51.5004
        39.5004
   -209627.00048   -111294.10945
                  21175901.1724                                   21175897.0554
                                                                        51.0004
        35.5004
   6046695.25847   4729084.03544
                  23267939.5234                                   23267932.7274
                                                                        45.0004
        27.0004
  -6166733.89547  -4786569.35544
                  22896928.0784                                   22896924.5704
                                                                        44.0004
        28.2504
  -5399394.69548  -4134709.35546
                  22077717.3984                                   22077713.5004
                                                                        49.2504
        36.7504
   5595585.66447   4398349.21543
                  24039386.2274                                   24039380.9534
                                                                        42.0004
        20.2504
   7243938.68046   5663678.45743
                  24244406.8524                                   24244403.2344
                                                                        40.0004
        20.2504
 09 10 23 23 53  0.0000000  0 10G02G04G05G10G13G23G25G29G16G07
   2435906.15648   1942996.36747
                  20811736.8134                                   20811730.6454
                                                                        52.7504
        42.0004
   8816376.76647   6879136.83645
                  23030678.8054                                   23030675.7814
                                                                        47.2504
        31.7504
  -7262212.89548  -5574145.69546
                  22218479.6954                                   22218475.6604
                                                                        49.7504
        38.7504
  -6442881.98848  -4937839.60246
                  21444888.8444                                   21444885.0204
                                                                        51.0004
        39.2504
   1300946.23848   1065775.94546
                  21463354.5084                                   21463349.7664
                                                                        50.0004
        36.0004
   7621234.51647   5955997.73044
                  23567564.1024                                   23567557.9774
                                                                        44.2504
        27.0004
  -4741640.07447  -3676106.61744
                  23168115.0004                                   23168110.8914
                                                                        44.2504
        28.2504
  -3956384.25448  -3010285.64146
                  22352313.2274                                   22352309.3484
                                                                        48.7504
        36.7504
   7015235.47746   5504569.81343
                  24309536.6174                                   24309531.0554
                                                                        41.7504
        20.5004
   8627371.35947   6741677.83243
                  24507666.1334                                   24507662.2894
                                                                        42.5004
        22.5004
 09 10 23 23 53 30.0000000  0 10G02G04G05G10G13G23G25G29G16G07
   2381427.66448   1900545.59846
                  20801370.0474                                   20801363.8874
                                                                        52.0004
        41.7504
   8825381.33647   6886153.33245
                  23032392.6334                                   23032389.2934
                                                                        45.5004
        31.5004
  -7442557.66848  -5714674.09446
                  22184161.1334                                   22184157.3244
                                                                        49.5004
        39.5004
  -6608981.93448  -5067268.11746
                  21413281.2034                                   21413277.2814
                                                                        50.7504
        39.7504
   1236769.73048   1015768.26646
                  21451141.9694                                   21451137.4734
                                                                        49.7504
        36.0004
   7620736.07447   5955609.33244
                  23567468.9694                                   23567462.5594
                                                                        43.7504
        24.7504
  -4891451.29747  -3792842.62944
                  23139607.0634                                   23139602.8594
                                                                        44.5004
        29.5004
  -4088197.59848  -3112997.33646
                  22327230.0554                                   22327226.1334
                                                                        49.2504
        37.0004
   6859982.58246   5383593.46943
                  24279992.2584                                   24279987.2974
                                                                        41.5004
        21.2504
   8435666.21147   6592296.88344
                  24471185.7734                                   24471182.3714
                                                                        44.0004
        26.5004
 09 10 23 23 54  0.0000000  0 10G02G04G05G10G13G23G25G29G16G07
   2327545.08648   1858559.17247
                  20791116.7114                                   20791110.9304
                                                                        52.0004
        42.0004
   8834677.31347   6893396.89145
                  23034162.1024                                   23034158.3404
                                                                        45.5004
        31.0004
  -7622519.38748  -5854904.00446
                  22149915.7584                                   22149911.7114
                                                                        50.0004
        39.5004
  -6774590.59048  -5196313.82046
                  21381766.7274                                   21381762.7624
                                                                        51.5004
        39.0004
   1173267.40248    966285.91045
                  21439057.8284                                   21439053.0274
                                                                        49.7504
        35.5004
   7620620.26247   5955519.09044
                  23567447.0704                                   23567440.2114
                                                                        43.7504
        24.2504
  -5040737.78147  -3909169.76644
                  23111198.6884                                   23111194.6454
                                                                        45.2504
        29.7504
  -4219405.57048  -3215237.29346
                  22302261.8204                                   22302258.1214
                                                                        49.5004
        36.7504
   6705257.96546   5263028.85543
                  24250548.6954                                   24250544.6604
                                                                        40.0004
        20.7504
   8244256.47347   6443146.56644
                  24434762.2274                                   24434758.3794
                                                                        44.2504
        26.7504
 09 10 23 23 54 30.0000000  0 10G02G04G05G10G13G23G25G29G16G07
   2274261.73048   1817039.67247
                  20780977.0394                                   20780971.2584
                                                                        51.5004
        42.2504
   8844267.55147   6900869.78545
                  23035986.6094                                   23035983.4884
                                                                        46.2504
        32.2504
  -7802092.25848  -5994830.91446
                  22115743.8444                                   22115740.4144
                                                                        49.7504
        39.7504
  -6939702.64148  -5324972.54746
                  21350347.0394                                   21350343.7704
                                                                        52.2504
        39.7504
   1110442.10948    917331.07846
                  21427102.4694                                   21427097.9414
                                                                        49.2504
        36.0004
   7620888.66047   5955728.23444
                  23567498.0784                                   23567491.7504
                                                                        43.5004
        25.2504
  -5189493.04347  -4025082.97344
                  23082891.6644                                   23082887.2664
                                                                        45.5004
        28.7504
  -4350003.28548  -3317001.75446
                  22277409.9694                                   22277406.3164
                                                                        49.5004
        37.0004
   6551067.37546   5142880.35243
                  24221207.3834                                   24221202.7814
                                                                        41.2504
        22.5004
   8053149.59847   6294232.39844
                  24398395.6254                                   24398391.9304
                                                                        42.0004
        26.0004
 09 10 23 23 55  0.0000000  0 10G02G04G05G10G13G23G25G29G16G07
   2221574.07048   1775984.35547
                  20770950.9924                                   20770945.1604
                                                                        52.0004
        42.2504
   8854146.51647   6908567.67245
                  23037867.0704                                   23037863.3484
                                                                        46.2504
        32.0004
  -7981275.94548  -6134454.56646
                  22081646.4694                                   22081642.3364
                                                                        49.7504
        39.5004
  -7104318.66848  -5453244.77346
                  21319021.7114                                   21319018.1954
                                                                        51.5004
        39.7504
   1048289.74648    868900.64845
                  21415275.4064                                   21415270.7624
                                                                        48.7504
        35.5004
   7621535.85547   5956232.55544
                  23567621.1094                                   23567614.6884
                                                                        43.0004
        26.0004
  -5337718.14547  -4140583.04744
                  23054685.1254                                   23054680.5434
                                                                        44.5004
        28.5004
  -4479990.98848  -3418290.87546
                  22252673.6564                                   22252670.5704
                                                                        50.0004
        37.7504
   6397410.94946   5023148.07443
                  24191968.0474                                   24191962.7584
                                                                        41.0004
        21.5004
   7862344.79346   6145553.65644
                  24362085.9534                                   24362082.8244
                                                                        40.5004
        25.5004
 09 10 23 23 55 30.0000000  0 10G02G04G05G10G13G23G25G29G16G07
   2169483.18848   1735394.07047
                  20761038.2584                                   20761032.2034
                                                                        52.5004
        42.0004
   8864314.55147   6916490.77745
                  23039801.4454                                   23039798.1914
                                                                        46.0004
        31.2504
  -8160067.60248  -6273772.75846
                  22047623.4924                                   22047619.7664
                                                                        48.7504
        39.5004
  -7268435.04748  -5581127.66846
                  21287791.4694                                   21287787.6414
                                                                        51.5004
        39.7504
    986811.22748    820995.28945
                  21403576.2974                                   21403571.6024
                                                                        49.0004
        35.7504
   7622561.21147   5957031.53144
                  23567816.0004                                   23567809.7704
                                                                        42.7504
        27.0004
  -5485408.93047  -4255666.78144
                  23026580.2114                                   23026576.4104
                                                                        44.5004
        28.5004
  -4609365.97348  -3519102.55946
                  22228054.5004                                   22228051.1374
                                                                        49.2504
        37.5004
   6244292.44946   4903834.97343
                  24162830.7894                                   24162825.6134
                                                                        41.0004
        22.5004
   7671846.67246   5997113.72744
                  24325834.8524                                   24325831.7234
                                                                        39.5004
        25.0004
 09 10 23 23 56  0.0000000  0 10G02G04G05G10G13G23G25G29G16G07
   2117989.41048   1695269.06347
                  20751239.5394                                   20751233.5864
                                                                        52.2504
        42.0004
   8874771.02047   6924638.62945
                  23041791.5394                                   23041788.3164
                                                                        44.0004
        31.5004
  -8338463.98048  -6412782.92246
                  22013675.4844                                   22013671.9414
                                                                        49.0004
        39.2504
  -7432048.82048  -5708618.90646
                  21256656.7274                                   21256653.0354
                                                                        51.0004
        40.0004
    926006.86348    773615.29345
                  21392005.5164                                   21392001.2384
                                                                        49.0004
        35.7504
   7623963.64547   5958124.33644
                  23568082.9844                                   23568076.7074
                                                                        43.0004
        25.7504
  -5632561.75847  -4370331.32444
                  22998578.4064                                   22998573.8054
                                                                        43.0004
        27.7504
  -4738126.07048  -3619435.10546
                  22203552.3984                                   22203548.9694
                                                                        49.0004
        37.2504
   6091715.34446   4784943.72343
                  24133795.9384                                   24133791.4184
                                                                        41.5004
        22.7504
   7481660.32046   5848916.63743
                  24289644.0314                                   24289640.6564
                                                                        38.5004
        22.5004
 09 10 23 23 56 30.0000000  0 10G02G04G05G10G13G23G25G29G16G07
   2067087.52048   1655605.27347
                  20741553.0634                                   20741546.9924
                                                                        52.5004
        42.5004
   8885509.16047   6933005.96145
                  23043834.9454                                   23043831.7544
                                                                        46.2504
        32.5004
  -8516466.68048  -6551486.31246
                  21979802.8674                                   21979798.9964
                                                                        49.2504
        39.0004
  -7595162.26248  -5835720.29346
                  21225616.9774                                   21225613.9264
                                                                        51.0004
        39.5004
    865870.90248    726756.10245
                  21380561.8834                                   21380557.6484
                                                                        48.0004
        35.7504
   7625736.09447   5959505.44944
                  23568420.4774                                   23568414.1994
                                                                        42.0004
        24.2504
  -5779179.52747  -4484578.92644
                  22970677.3834                                   22970673.5784
                                                                        43.5004
        27.7504
  -4866272.65648  -3719289.57846
                  22179166.9224                                   22179163.4804
                                                                        49.5004
        37.2504
   5939678.04346   4666473.09443
                  24104864.6644                                   24104859.2814
                                                                        40.7504
        22.5004
   7291784.35246   5700961.45343
                  24253511.1644                                   24253507.7304
                                                                        39.7504
        21.2504
 09 10 23 23 57  0.0000000  0 10G02G04G05G10G13G23G25G29G16G07
   2016775.92248   1616401.42647
                  20731978.8364                                   20731972.8984
                                                                        52.5004
        42.5004
   8896526.61747   6941590.94545
                  23045931.4924                                   23045928.5354
                                                                        47.0004
        31.7504
  -8694074.88348  -6689882.32446
                  21946005.2974                                   21946001.2704
                                                                        50.0004
        39.0004
  -7757774.10948  -5962430.83646
                  21194673.1954                                   21194669.8204
                                                                        51.2504
        40.0004
    806401.56648    680416.37545
                  21369245.5944                                   21369240.7384
                                                                        49.2504
        35.2504
   7627875.60547   5961172.61744
                  23568827.6334                                   23568821.0394
                                                                        42.0004
        25.2504
  -5925260.66847  -4598408.41044
                  22942879.3594                                   22942874.5824
                                                                        43.5004
        27.7504
  -4993805.87948  -3818666.10246
                  22154898.0944                                   22154894.9264
                                                                        49.5004
        37.0004
   5788181.71546   4548424.00843
                  24076035.0394                                   24076030.5394
                                                                        40.5004
        22.0004
   7102221.46146   5553250.23043
                  24217439.0474                                   24217434.1054
                                                                        41.7504
        21.0004
 09 10 23 23 57 30.0000000  0 10G02G04G05G10G13G23G25G29G16G07
   1967052.11348   1577655.60547
                  20722517.0394                                   20722510.9534
                                                                        52.2504
        42.5004
   8907819.74247   6950390.72745
                  23048080.5234                                   23048077.3954
                                                                        47.0004
        31.0004
  -8871288.16848  -6827970.58246
                  21912282.7974                                   21912279.0314
                                                                        49.5004
        39.2504
  -7919883.95348  -6088750.20346
                  21163824.4694                                   21163821.1564
                                                                        50.5004
        39.7504
    747595.75048    634593.63745
                  21358055.0944                                   21358050.1334
                                                                        49.0004
        35.0004
   7630377.98846   5963122.51643
                  23569303.5394                                   23569297.1764
                                                                        41.5004
        23.7504
  -6070804.46147  -4711819.15244
                  22915183.6954                                   22915179.7544
                                                                        43.7504
        29.0004
  -5120725.87548  -3917564.79346
                  22130746.2034                                   22130742.7774
                                                                        49.0004
        37.2504
   5637227.27046   4430797.16043
                  24047310.0394                                   24047304.8164
                                                                        40.2504
        22.2504
   6912972.69947   5405783.73844
                  24181426.5394                                   24181421.4024
                                                                        42.0004
        25.0004
 09 10 23 23 58  0.0000000  0 10G02G04G05G10G13G23G25G29G16G07
   1917915.47748   1539367.34047
                  20713166.5164                                   20713160.3674
                                                                        52.7504
        42.2504
   8919386.71147   6959403.90645
                  23050281.7194                                   23050278.1564
                                                                        46.7504
        30.0004
  -9048104.27048  -6965749.31646
                  21878635.7424                                   21878631.7664
                                                                        50.0004
        39.7504
  -8081490.03948  -6214677.01246
                  21133072.2274                                   21133068.3954
                                                                        51.0004
        40.0004
    689452.26648    589287.02045
                  21346990.5784                                   21346985.9734
                                                                        48.2504
        34.7504
   7633240.79746   5965353.26643
                  23569848.1094                                   23569841.3834
                                                                        41.2504
        23.0004
  -6215809.03147  -4824809.70744
                  22887589.8594                                   22887585.8164
                                                                        44.5004
        29.0004
  -5247031.21548  -4015984.52346
                  22106710.6334                                   22106707.3244
                                                                        49.5004
        37.2504
   5486817.28146   4313594.55543
                  24018687.1564                                   24018682.9144
                                                                        38.5004
        21.5004
   6724041.14847   5258564.37944
                  24145473.9384                                   24145469.9344
                                                                        42.2504
        26.7504
 09 10 23 23 58 30.0000000  0 10G02G04G05G10G13G23G25G29G16G07
   1869363.55148   1501534.65247
                  20703927.4614                                   20703921.4304
                                                                        52.5004
        42.0004
   8931224.23447   6968627.92645
                  23052534.1414                                   23052531.1054
                                                                        46.5004
        31.0004
  -9224522.46548  -7103218.04746
                  21845064.3984                                   21845060.4844
                                                                        50.7504
        40.5004
  -8242591.67648  -6340210.78946
                  21102415.6174                                   21102411.4224
                                                                        51.2504
        40.0004
    631968.76648    544494.68845
                  21336051.9534                                   21336047.3284
                                                                        48.7504
        35.5004
   7636460.44547   5967862.11744
                  23570461.0474                                   23570454.2894
                                                                        43.5004
        25.0004
  -6360273.45347  -4937379.36744
                  22860099.0554                                   22860095.6764
                                                                        43.7504
        28.5004
  -5372721.56248  -4113925.05546
                  22082793.0864                                   22082789.4804
                                                                        49.5004
        37.0004
   5336952.22746   4196816.59843
                  23990168.4454                                   23990164.4064
                                                                        38.2504
        21.5004
   6535428.99646   5111593.96544
                  24109581.2894                                   24109577.9924
                                                                        40.2504
        28.0004
 09 10 23 23 59  0.0000000  0 10G02G04G05G10G13G23G25G29G16G07
   1821396.89148   1464158.03946
                  20694799.5474                                   20694793.8404
                                                                        51.7504
        41.5004
   8943331.79747   6978062.34845
                  23054838.3914                                   23054835.2384
                                                                        46.0004
        30.7504
  -9400539.40648  -7240374.10246
                  21811569.4844                                   21811565.5434
                                                                        50.0004
        39.7504
  -8403185.77048  -6465349.03146
                  21071855.4064                                   21071851.5474
                                                                        51.0004
        39.5004
    575144.86748    500216.34045
                  21325238.8284                                   21325234.2854
                                                                        49.5004
        34.7504
   7640035.43447   5970647.82044
                  23571141.7814                                   23571134.4924
                                                                        43.7504
        25.2504
  -6504194.55547  -5049525.65645
                  22832712.0634                                   22832707.9224
                                                                        45.2504
        30.7504
  -5497794.40648  -4211384.42246
                  22058992.3054                                   22058988.9614
                                                                        49.2504
        37.7504
   5187635.83246   4080466.20343
                  23961755.0554                                   23961750.9344
                                                                        39.5004
        20.5004
   6347141.07446   4964876.19944
                  24073751.9064                                   24073748.0594
                                                                        41.5004
        28.0004
 09 10 23 23 59 30.0000000  0 10G02G04G05G10G13G23G25G29G16G07
   1774010.62948   1427233.66046
                  20685782.2034                                   20685776.6134
                                                                        52.7504
        41.7504
   8955703.45747   6987702.55545
                  23057192.4924                                   23057189.4734
                                                                        46.5004
        30.2504
  -9576157.36748  -7377219.28946
                  21778150.3594                                   21778146.3954
                                                                        50.5004
        39.7504
  -8563274.22748  -6590093.27346
                  21041391.4774                                   21041387.9494
                                                                        50.7504
        39.7504
    518976.22748    456448.59445
                  21314550.1414                                   21314545.6024
                                                                        49.5004
        35.0004
   7643959.37147   5973705.43043
                  23571888.4844                                   23571881.5554
                                                                        43.0004
        22.7504
  -6647574.14547  -5161250.01645
                  22805428.0474                                   22805423.6054
                                                                        44.5004
        30.0004
  -5622251.97348  -4308364.35946
                  22035308.9694                                   22035305.3594
                                                                        49.0004
        38.0004
   5038866.59446   3964542.11743
                  23933445.8914                                   23933440.6484
                                                                        40.0004
        21.7504
   6159176.09846   4818409.95344
                  24037982.8594                                   24037979.6414
                                                                        40.2504
        26.2504
