     2.11           OBSERVATION DATA    G (GPS)             RINEX VERSION / TYPE
teqc  2019Feb25                         20221121 12:28:44UTCPGM / RUN BY / DATE
OSX ker:10.11.6|Core i5|gcc 4.3 -m64|OSX ker:10.10+|=+      COMMENT
BIT 2 OF LLI FLAGS DATA COLLECTED UNDER A/S CONDITION       COMMENT
04712990                                                    MARKER NAME
2990                                                        MARKER NUMBER
-Unknown-           -Unknown-                               OBSERVER / AGENCY
0220400471          TRIMBLE R7          2.30                REC # / TYPE / VERS
-Unknown-           TRM39105.00     NONE                    ANT # / TYPE
  1449458.8879 -1709242.6820  5952441.4335                  APPROX POSITION XYZ
        0.0000        0.0000        0.0000                  ANTENNA: DELTA H/E/N
     1     1                                                WAVELENGTH FACT L1/2
    20    L1    L2    L5    L6    L7    L8    C1    P1    C2# / TYPES OF OBSERV
          P2    C5    C6    C7    C8    S1    S2    S5    S6# / TYPES OF OBSERV
          S7    S8                                          # / TYPES OF OBSERV
    30.0000                                                 INTERVAL
    15                                                      LEAP SECONDS
Forced Modulo Decimation to 30 seconds                      COMMENT
 SNR is mapped to RINEX snr flag value [0-9]                COMMENT
  L1 & L2: min(max(int(snr_dBHz/6), 0), 9)                  COMMENT
teqc edited: Beidou # 1 - 37 excluded                       COMMENT
  2009    10    26     0     0    0.0000000     GPS         TIME OF FIRST OBS
                                                            END OF HEADER
 09 10 26  0  0  0.0000000  0 10G02G04G05G10G13G23G25G29G16G07
  -6623560.60548  -5135990.88746
                  20994480.2504                                   20994474.8324
                                                                        53.0004
        41.5004
    210227.13347    168394.79344
                  23565885.6024                                   23565882.1804
                                                                        44.2504
        28.5004
 -18522260.43748 -14370926.60246
                  21654305.8914                                   21654301.9574
                                                                        50.7504
        40.2504
 -17286916.42648 -13412376.67246
                  20965336.7034                                   20965333.3554
                                                                        51.5004
        41.0004
  -7736240.32447  -5996108.87945
                  21599609.3984                                   21599605.2074
                                                                        47.7504
        34.0004
   -967627.46146   -744460.48444
                  24037870.3674                                   24037864.7624
                                                                        41.7504
        24.2504
 -15754285.26247 -12225401.14145
                  22797142.5704                                   22797138.9694
                                                                        46.5004
        30.0004
 -14150354.89148 -10976994.25046
                  22090145.6564                                   22090142.4924
                                                                        49.2504
        37.7504
  -6769273.24647  -5236915.56643
                  23907928.2194                                   23907923.0864
                                                                        42.0004
        21.5004
  -6369403.25047  -4951241.10544
                  23876226.5944                                   23876223.5594
                                                                        43.2504
        27.2504
 09 10 26  0  0 30.0000000  0 10G02G04G05G10G13G23G25G29G16G07
  -6658532.26648  -5163241.52046
                  20987825.1174                                   20987819.6604
                                                                        53.2504
        41.5004
    229236.84047    183207.53144
                  23569502.4304                                   23569499.4804
                                                                        45.0004
        28.7504
 -18688021.42648 -14500090.98846
                  21622762.3284                                   21622758.9344
                                                                        51.0004
        41.0004
 -17434815.59448 -13527622.77746
                  20937192.2114                                   20937189.0594
                                                                        52.0004
        40.5004
  -7778555.37947  -6029081.67645
                  21591557.1334                                   21591553.6724
                                                                        47.7504
        34.5004
   -955794.11746   -735239.71944
                  24040122.4614                                   24040116.9104
                                                                        41.7504
        24.7504
 -15885301.64547 -12327491.83245
                  22772211.4614                                   22772207.0864
                                                                        46.2504
        30.0004
 -14261085.82848 -11063278.10246
                  22069074.0314                                   22069070.8594
                                                                        49.5004
        37.0004
  -6905556.09847  -5343109.98843
                  23881994.7734                                   23881989.3634
                                                                        42.5004
        20.7504
  -6548818.29747  -5091044.95344
                  23842085.2814                                   23842082.0234
                                                                        42.2504
        26.5004
 09 10 26  0  1  0.0000000  0 10G02G04G05G10G13G23G25G29G16G07
  -6692942.32848  -5190054.55946
                  20981277.2584                                   20981271.5864
                                                                        52.5004
        41.5004
    248474.42647    198197.77744
                  23573162.8444                                   23573160.5664
                                                                        44.5004
        27.5004
 -18853342.66848 -14628912.74246
                  21591302.8054                                   21591299.1724
                                                                        50.5004
        40.5004
 -17582171.64548 -13642445.66846
                  20909151.4304                                   20909148.1454
                                                                        51.7504
        41.0004
  -7820242.65648  -6061565.28945
                  21583624.5784                                   21583620.7114
                                                                        48.2504
        34.7504
   -943656.55146   -725781.88743
                  24042432.1024                                   24042425.9734
                                                                        41.7504
        22.5004
 -16015738.94147 -12429131.28544
                  22747389.5554                                   22747386.1294
                                                                        46.2504
        29.7504
 -14371176.79348 -11149063.30946
                  22048124.6024                                   22048121.4534
                                                                        49.5004
        37.5004
  -7041249.96946  -5448845.47743
                  23856172.2114                                   23856167.0554
                                                                        41.2504
        20.2504
  -6727847.69547  -5230548.30144
                  23808017.1954                                   23808014.0554
                                                                        42.5004
        27.2504
 09 10 26  0  1 30.0000000  0 10G02G04G05G10G13G23G25G29G16G07
  -6726794.15648  -5216432.59046
                  20974835.5004                                   20974830.0904
                                                                        53.2504
        41.2504
    267935.85547    213362.45744
                  23576866.2734                                   23576863.9184
                                                                        45.5004
        27.5004
 -19018223.94948 -14757391.65246
                  21559926.9534                                   21559923.1954
                                                                        51.2504
        40.5004
 -17728985.19148 -13756845.83646
                  20881213.8204                                   20881210.5394
                                                                        51.7504
        40.5004
  -7861306.18748  -6093562.85945
                  21575810.0164                                   21575806.1134
                                                                        48.5004
        33.5004
   -931219.38746   -716090.60244
                  24044798.0394                                   24044793.0354
                                                                        40.7504
        24.5004
 -16145597.73847 -12530319.96145
                  22722678.3444                                   22722674.6724
                                                                        46.2504
        30.0004
 -14480629.07848 -11234350.78546
                  22027296.3754                                   22027293.3484
                                                                        49.7504
        37.2504
  -7176354.84447  -5554122.00443
                  23830462.3834                                   23830458.4064
                                                                        42.0004
        21.5004
  -6906490.72347  -5369750.62144
                  23774022.8984                                   23774019.6214
                                                                        43.0004
        28.7504
 09 10 26  0  2  0.0000000  0 10G02G04G05G10G13G23G25G29G16G07
  -6760090.44148  -5242377.74646
                  20968499.3284                                   20968493.7074
                                                                        52.5004
        41.0004
    287617.85547    228699.07044
                  23580611.6254                                   23580609.2584
                                                                        45.0004
        28.0004
 -19182664.94548 -14885527.47746
                  21528634.8674                                   21528630.9964
                                                                        51.0004
        40.5004
 -17875255.59848 -13870822.78546
                  20853379.4774                                   20853375.9614
                                                                        51.2504
        40.7504
  -7901748.92648  -6125076.68745
                  21568114.2584                                   21568109.8244
                                                                        49.2504
        33.7504
   -918486.20346   -706168.65243
                  24047221.4224                                   24047216.0394
                                                                        40.2504
        23.5004
 -16274877.64147 -12631057.56245
                  22698077.6884                                   22698073.4654
                                                                        45.5004
        30.2504
 -14589442.44548 -11319140.41846
                  22006590.1564                                   22006587.2114
                                                                        49.5004
        38.0004
  -7310870.04747  -5658939.04343
                  23804864.8204                                   23804861.0594
                                                                        42.0004
        21.7504
  -7084745.93047  -5508650.77044
                  23740101.7974                                   23740098.3834
                                                                        43.0004
        27.7504
 09 10 26  0  2 30.0000000  0 10G02G04G05G10G13G23G25G29G16G07
  -6792830.69548  -5267889.63746
                  20962269.1024                                   20962263.2704
                                                                        52.5004
        41.0004
    307520.10547    244207.30144
                  23584399.3984                                   23584396.6374
                                                                        44.2504
        28.0004
 -19346662.35548 -15013317.67246
                  21497427.3054                                   21497423.4344
                                                                        50.0004
        40.7504
 -18020980.28548 -13984374.48446
                  20825648.7344                                   20825645.4884
                                                                        51.7504
        40.5004
  -7941571.10248  -6156106.96545
                  21560536.4304                                   21560532.6174
                                                                        49.2504
        34.0004
   -905458.27046   -696017.04743
                  24049700.6334                                   24049695.1374
                                                                        38.7504
        21.0004
 -16403575.73847 -12731341.79344
                  22673586.2194                                   22673583.5864
                                                                        45.5004
        29.5004
 -14697614.66848 -11403430.44946
                  21986005.7814                                   21986002.5204
                                                                        49.0004
        37.7504
  -7444792.41046  -5763294.11743
                  23779380.6884                                   23779376.5084
                                                                        41.2504
        22.7504
  -7262608.40247  -5647244.89544
                  23706256.2424                                   23706252.4184
                                                                        43.7504
        29.5004
 09 10 26  0  3  0.0000000  0 10G02G04G05G10G13G23G25G29G16G07
  -6825017.17248  -5292970.01646
                  20956144.1484                                   20956139.0744
                                                                        52.0004
        40.7504
    327639.37947    259884.61344
                  23588227.7274                                   23588225.8484
                                                                        43.5004
        27.5004
 -19510215.35948 -15140761.55546
                  21466304.0554                                   21466300.6214
                                                                        50.5004
        40.7504
 -18166158.37548 -14097500.26646
                  20798022.3444                                   20798019.3714
                                                                        51.7504
        41.0004
  -7980775.39548  -6186655.76245
                  21553076.1414                                   21553071.9184
                                                                        49.2504
        34.0004
   -892138.84846   -685638.27743
                  24052235.1564                                   24052229.1454
                                                                        40.7504
        20.2504
 -16531691.37547 -12831172.14544
                  22649206.7974                                   22649203.5864
                                                                        46.0004
        29.2504
 -14805145.97748 -11487221.08246
                  21965543.0004                                   21965539.8094
                                                                        49.0004
        38.0004
  -7578121.25446  -5867186.74243
                  23754009.0864                                   23754005.5124
                                                                        41.5004
        22.7504
  -7440076.40647  -5785531.62944
                  23672484.6564                                   23672481.7504
                                                                        42.2504
        28.5004
 09 10 26  0  3 30.0000000  0 10G02G04G05G10G13G23G25G29G16G07
  -6856650.48448  -5317619.35946
                  20950124.6334                                   20950118.9534
                                                                        53.0004
        41.7504
    347974.85247    275730.40244
                  23592097.3524                                   23592094.6334
                                                                        44.0004
        28.0004
 -19673321.02748 -15267856.87946
                  21435266.3984                                   21435262.5864
                                                                        50.5004
        41.0004
 -18310787.74248 -14210198.46946
                  20770500.8524                                   20770497.2304
                                                                        51.7504
        41.0004
  -8019362.64148  -6216723.73845
                  21545732.8754                                   21545729.1914
                                                                        49.5004
        34.5004
   -878529.34046   -675033.44543
                  24054824.8204                                   24054818.8834
                                                                        40.5004
        19.5004
 -16659221.88347 -12930546.59045
                  22624938.6724                                   22624935.2584
                                                                        46.0004
        31.0004
 -14912034.64848 -11570510.96946
                  21945202.8134                                   21945199.6094
                                                                        48.7504
        38.0004
  -7710853.64146  -5970614.53943
                  23728751.0474                                   23728746.8094
                                                                        41.7504
        23.7504
  -7617145.54747  -5923507.52744
                  23638789.2584                                   23638785.9734
                                                                        43.0004
        27.2504
 09 10 26  0  4  0.0000000  0 10G02G04G05G10G13G23G25G29G16G07
  -6887734.02048  -5341840.30146
                  20944209.5634                                   20944204.0594
                                                                        51.7504
        41.5004
    368522.44147    291741.52744
                  23596007.7274                                   23596005.1414
                                                                        43.5004
        29.0004
 -19835979.55548 -15394603.78546
                  21404313.5004                                   21404309.5474
                                                                        51.0004
        40.5004
 -18454868.43048 -14322469.13346
                  20743082.7344                                   20743079.1374
                                                                        51.0004
        40.5004
  -8057336.82048  -6246314.01245
                  21538506.9454                                   21538502.9964
                                                                        48.5004
        34.0004
   -864635.02746   -664206.69943
                  24057468.5554                                   24057463.4654
                                                                        39.7504
        21.0004
 -16786168.06247 -13029465.68745
                  22600782.0164                                   22600778.0744
                                                                        46.0004
        30.5004
 -15018281.91448 -11653301.02746
                  21924984.5004                                   21924981.6174
                                                                        48.7504
        38.2504
  -7842989.91046  -6073577.85943
                  23703605.8834                                   23703602.1134
                                                                        41.0004
        22.7504
  -7793815.13746  -6061172.06244
                  23605170.4694                                   23605167.0314
                                                                        41.7504
        28.5004
 09 10 26  0  4 30.0000000  0 10G02G04G05G10G13G23G25G29G16G07
  -6918268.53548  -5365633.43046
                  20938398.9774                                   20938393.6524
                                                                        52.5004
        41.0004
    389280.75447    307916.83644
                  23599957.9224                                   23599955.1724
                                                                        43.2504
        27.7504
 -19998188.44948 -15521000.32046
                  21373445.8594                                   21373442.1884
                                                                        51.0004
        41.0004
 -18598398.66448 -14434310.86746
                  20715770.1334                                   20715766.8444
                                                                        52.2504
        40.5004
  -8094699.13748  -6275427.49245
                  21531397.3054                                   21531393.0474
                                                                        49.5004
        35.2504
   -850457.21547   -653159.07043
                  24060167.5784                                   24060160.9574
                                                                        42.0004
        21.0004
 -16912527.82447 -13127927.85245
                  22576736.0634                                   22576732.6884
                                                                        45.0004
        30.0004
 -15123886.41448 -11735590.26246
                  21904888.6564                                   21904886.1024
                                                                        49.0004
        38.0004
  -7974528.09846  -6176075.13744
                  23678575.1254                                   23678571.7624
                                                                        41.2504
        24.7504
  -7970081.64846  -6198522.54344
                  23571628.2344                                   23571624.7854
                                                                        41.5004
        27.0004
 09 10 26  0  5  0.0000000  0  9G02G04G05G10G13G25G29G16G07
  -6948257.86748  -5389001.73846
                  20932692.3054                                   20932686.4694
                                                                        52.5004
        41.0004
    410245.99247    324253.38744
                  23603947.5554                                   23603944.1684
                                                                        42.5004
        27.5004
 -20159948.01648 -15647046.72746
                  21342664.2734                                   21342660.9534
                                                                        49.5004
        41.0004
 -18741378.65248 -14545723.84046
                  20688561.8204                                   20688558.4024
                                                                        52.0004
        41.5004
  -8131453.48448  -6304067.23845
                  21524403.0234                                   21524399.0204
                                                                        49.2504
        33.5004
 -17038301.71547 -13225933.47745
                  22552802.4454                                   22552798.8284
                                                                        45.5004
        30.2504
 -15228849.22748 -11817379.46946
                  21884915.2974                                   21884912.1604
                                                                        48.0004
        38.0004
  -8105468.47746  -6278106.58644
                  23653658.1564                                   23653654.3634
                                                                        40.2504
        25.0004
  -8145944.16847  -6335558.20744
                  23538162.1024                                   23538158.9344
                                                                        42.2504
        27.2504
 09 10 26  0  5 30.0000000  0  9G02G04G05G10G13G25G29G16G07
  -6977702.37548  -5411945.53146
                  20927089.2504                                   20927084.0824
                                                                        52.0004
        41.2504
    431416.60247    340749.94144
                  23607975.8054                                   23607973.5084
                                                                        42.0004
        27.2504
 -20321256.52348 -15772741.66846
                  21311968.2114                                   21311964.4804
                                                                        50.7504
        41.5004
 -18883806.99248 -14656706.96546
                  20661458.4224                                   20661455.1214
                                                                        51.7504
        40.5004
  -8167601.14548  -6332234.22345
                  21517524.4064                                   21517520.2304
                                                                        49.5004
        33.5004
 -17163487.85947 -13323481.12145
                  22528980.1414                                   22528976.6724
                                                                        46.2504
        30.0004
 -15333169.74648 -11898668.19146
                  21865063.1484                                   21865060.3014
                                                                        49.2504
        37.7504
  -8235808.96946  -6379670.61344
                  23628855.2664                                   23628851.6684
                                                                        41.7504
        24.7504
  -8321399.21147  -6472276.37544
                  23504773.9924                                   23504771.2934
                                                                        43.0004
        28.5004
 09 10 26  0  6  0.0000000  0  9G02G04G05G10G13G25G29G16G07
  -5431178.59048  -4206862.06246
                  21221382.8134                                   21221377.4414
                                                                        51.2504
        41.0004
   2028214.04747   1585007.63344
                  23911836.5474                                   23911834.4654
                                                                        43.0004
        27.2504
 -18906682.10248 -14670475.88346
                  21581152.3524                                   21581148.9264
                                                                        50.0004
        41.0004
 -17450253.06248 -13539651.95346
                  20934254.8834                                   20934251.5204
                                                                        52.0004
        41.0004
  -6627718.76248  -5132325.86345
                  21810554.4844                                   21810549.7704
                                                                        49.2504
        33.5004
 -15712656.36347 -12192963.08645
                  22805064.3834                                   22805060.7384
                                                                        46.2504
        30.0004
 -13861418.79748 -10751849.25446
                  22145128.1334                                   22145125.0634
                                                                        49.0004
        38.0004
  -6790118.60946  -5253158.63744
                  23903961.0554                                   23903956.9184
                                                                        41.7504
        26.5004
  -6921013.96947  -5381067.04744
                  23771258.8134                                   23771254.8674
                                                                        42.7504
        28.5004
 09 10 26  0  6 30.0000000  0  9G02G04G05G10G13G25G29G16G07
  -5459526.58648  -4228951.41446
                  21215988.5864                                   21215983.0594
                                                                        51.2504
        41.0004
   2049800.89147   1601828.53944
                  23915944.3054                                   23915942.0634
                                                                        44.2504
        28.0004
 -19067070.43048 -14795453.79746
                  21550631.9064                                   21550628.5124
                                                                        50.5004
        41.0004
 -17591561.43748 -13649762.36746
                  20907364.7894                                   20907361.3324
                                                                        52.0004
        41.2504
  -6662647.45348  -5159543.02045
                  21803907.6094                                   21803903.4304
                                                                        48.7504
        33.5004
 -15836651.12547 -12289582.37945
                  22781468.8524                                   22781465.8054
                                                                        45.7504
        30.7504
 -13964439.77048 -10832125.30146
                  22125523.9224                                   22125521.2894
                                                                        48.7504
        38.2504
  -6919242.05147  -5353774.30544
                  23879389.2584                                   23879385.8874
                                                                        43.0004
        24.5004
  -7095633.69547  -5517134.34844
                  23738030.1024                                   23738025.4804
                                                                        42.0004
        27.0004
 09 10 26  0  7  0.0000000  0  9G02G04G05G10G13G25G29G16G07
  -5487327.48448  -4250614.44946
                  21210698.3984                                   21210692.8324
                                                                        51.7504
        40.7504
   2071593.85547   1618810.03944
                  23920091.6724                                   23920088.8244
                                                                        44.0004
        26.7504
 -19226995.21548 -14920070.50846
                  21520198.8054                                   21520195.1524
                                                                        49.5004
        41.0004
 -17732306.93448 -13759434.18446
                  20880581.2814                                   20880577.9774
                                                                        52.0004
        40.7504
  -6696968.85948  -5186286.96945
                  21797376.2584                                   21797372.2814
                                                                        49.0004
        33.2504
 -15960047.34047 -12385735.26645
                  22757987.7894                                   22757983.9494
                                                                        46.2504
        31.0004
 -14066809.33248 -10911893.75446
                  22106043.7734                                   22106040.4304
                                                                        48.0004
        38.0004
  -7047753.73846  -5453913.28944
                  23854935.2894                                   23854930.6884
                                                                        41.7504
        24.7504
  -7269830.51247  -5652872.08644
                  23704881.3054                                   23704877.2584
                                                                        44.5004
        28.7504
 09 10 26  0  7 30.0000000  0  9G02G04G05G10G13G25G29G16G07
  -5514589.46948  -4271857.55546
                  21205510.5944                                   21205504.7584
                                                                        51.7504
        40.7504
   2093584.53547   1635945.59844
                  23924276.3834                                   23924273.1724
                                                                        44.2504
        26.0004
 -19386461.32848 -15044329.82446
                  21489853.7424                                   21489850.0824
                                                                        50.5004
        41.5004
 -17872494.64848 -13868671.35946
                  20853904.8054                                   20853901.6054
                                                                        52.0004
        41.2504
  -6730691.00848  -5212563.97345
                  21790959.0084                                   21790955.4774
                                                                        48.5004
        34.2504
 -16082849.96547 -12481425.61345
                  22734619.1804                                   22734615.3674
                                                                        46.5004
        30.5004
 -14168533.45348 -10991159.28546
                  22086686.5314                                   22086683.2234
                                                                        48.0004
        38.5004
  -7175658.71947  -5553579.48444
                  23830594.8054                                   23830591.5704
                                                                        42.5004
        24.2504
  -7443607.84447  -5788282.95344
                  23671812.5004                                   23671809.0314
                                                                        44.5004
        28.5004
 09 10 26  0  8  0.0000000  0  9G02G04G05G10G13G25G29G16G07
  -5541316.43048  -4292683.76246
                  21200424.5554                                   21200419.1254
                                                                        51.7504
        40.2504
   2115768.30547   1653231.56344
                  23928497.2894                                   23928494.7194
                                                                        43.0004
        24.5004
 -19545469.32448 -15168232.15246
                  21459595.6724                                   21459591.9804
                                                                        50.5004
        41.5004
 -18012125.85248 -13977474.89146
                  20827333.9844                                   20827330.9844
                                                                        52.0004
        41.2504
  -6763818.60548  -5238377.68445
                  21784655.2034                                   21784651.1054
                                                                        48.5004
        34.0004
 -16205060.30147 -12576654.43445
                  22711363.1724                                   22711359.6954
                                                                        46.2504
        30.7504
 -14269613.73448 -11069923.10946
                  22067451.3984                                   22067448.1094
                                                                        48.7504
        37.5004
  -7302958.00046  -5652773.72743
                  23806370.8204                                   23806366.4694
                                                                        41.2504
        23.7504
  -7616965.36347  -5923366.70744
                  23638823.8754                                   23638820.3094
                                                                        42.7504
        29.0004
 09 10 26  0  8 30.0000000  0  9G02G04G05G10G13G25G29G16G07
  -5567512.75448  -4313096.48046
                  21195439.2274                                   21195434.0984
                                                                        52.2504
        40.5004
   2138140.55147   1670664.43844
                  23932754.7344                                   23932752.3524
                                                                        43.2504
        28.0004
 -19704020.64848 -15291778.63746
                  21429424.3914                                   21429420.5394
                                                                        51.0004
        41.2504
 -18151202.03548 -14085845.93746
                  20800868.6484                                   20800865.5474
                                                                        52.0004
        41.0004
  -6796356.52748  -5263731.89545
                  21778463.4924                                   21778459.6804
                                                                        49.5004
        33.7504
 -16326680.19947 -12671423.16845
                  22688219.3914                                   22688215.8954
                                                                        46.5004
        31.2504
 -14370052.80548 -11148187.29746
                  22048338.4534                                   22048335.3794
                                                                        49.0004
        37.7504
  -7429653.11747  -5751497.21543
                  23782261.9774                                   23782257.2464
                                                                        42.2504
        22.7504
  -7789903.37547  -6058123.57444
                  23605914.2114                                   23605910.7854
                                                                        42.5004
        27.2504
 09 10 26  0  9  0.0000000  0  9G02G04G05G10G13G25G29G16G07
  -5593182.10948  -4333098.57846
                  21190554.4844                                   21190549.5234
                                                                        51.0004
        41.0004
   2160696.85947   1688240.76244
                  23937047.3444                                   23937044.8524
                                                                        44.5004
        29.2504
 -19862115.43448 -15414969.37946
                  21399339.3914                                   21399335.9574
                                                                        49.7504
        41.5004
 -18289723.70348 -14193784.90246
                  20774508.8204                                   20774505.6524
                                                                        53.0004
        41.5004
  -6828308.98048  -5288629.91045
                  21772383.2274                                   21772379.3444
                                                                        48.2504
        33.0004
 -16447710.37547 -12765732.40645
                  22665188.2274                                   22665184.8554
                                                                        47.2504
        31.0004
 -14469852.27347 -11225953.10546
                  22029347.1254                                   22029344.1914
                                                                        47.5004
        37.7504
  -7555744.59846  -5849750.31243
                  23758267.5634                                   23758262.7704
                                                                        40.0004
        21.5004
  -7962420.84847  -6192552.74244
                  23573085.4534                                   23573082.3404
                                                                        42.5004
        28.7504
 09 10 26  0  9 30.0000000  0  9G02G04G05G10G13G25G29G16G07
  -5618327.58648  -4352692.46946
                  21185769.7424                                   21185764.3754
                                                                        51.0004
        41.0004
   2183433.80547   1705957.86744
                  23941373.7664                                   23941371.9924
                                                                        45.0004
        28.0004
 -20019753.80548 -15537804.47746
                  21369342.2974                                   21369339.0634
                                                                        50.2504
        41.2504
 -18427691.48448 -14301292.27046
                  20748254.5474                                   20748251.0394
                                                                        52.5004
        41.0004
  -6859679.55148  -5313074.51645
                  21766413.3364                                   21766409.6484
                                                                        48.7504
        33.0004
 -16568151.13347 -12859582.35545
                  22642269.5554                                   22642265.6134
                                                                        46.5004
        32.0004
 -14569012.94948 -11303221.13346
                  22010477.6484                                   22010474.4384
                                                                        48.5004
        38.0004
  -7681232.25446  -5947532.91443
                  23734388.3754                                   23734382.2074
                                                                        41.0004
        22.7504
  -8134516.35247  -6326653.09444
                  23540336.5084                                   23540333.2854
                                                                        42.0004
        28.2504
 09 10 26  0 10  0.0000000  0  9G02G04G05G10G13G25G29G16G07
  -5642951.57848  -4371879.99246
                  21181083.8834                                   21181078.2304
                                                                        51.5004
        40.5004
   2206348.64147   1723813.55144
                  23945734.2504                                   23945731.9884
                                                                        44.7504
        27.5004
 -20176934.55948 -15660282.98046
                  21339431.7194                                   21339428.2154
                                                                        51.2504
        41.2504
 -18565104.44548 -14408367.30946
                  20722105.5164                                   20722102.6374
                                                                        53.0004
        41.5004
  -6890471.05948  -5337067.90245
                  21760553.9224                                   21760549.7774
                                                                        49.0004
        33.5004
 -16688001.97347 -12952972.62945
                  22619462.0084                                   22619458.6914
                                                                        47.0004
        30.5004
 -14667535.30148 -11379991.77046
                  21991729.4304                                   21991726.1644
                                                                        48.5004
        38.5004
  -7806115.56646  -6044844.60943
                  23710623.4144                                   23710617.8714
                                                                        41.5004
        22.0004
  -8306188.17247  -6460423.31644
                  23507668.7894                                   23507665.0394
                                                                        43.0004
        29.0004
 09 10 26  0 10 30.0000000  0  9G02G04G05G10G13G25G29G16G07
  -5667054.66848  -4390661.62546
                  21176497.1884                                   21176491.6024
                                                                        51.5004
        40.2504
   2229440.68447   1741807.27344
                  23950129.2114                                   23950126.3984
                                                                        43.7504
        26.7504
 -20333654.93448 -15782402.75446
                  21309608.8914                                   21309605.0124
                                                                        51.2504
        41.7504
 -18701960.22348 -14515008.17246
                  20696062.8054                                   20696059.6414
                                                                        51.7504
        41.5004
  -6920684.05548  -5360610.49645
                  21754804.6564                                   21754800.6334
                                                                        49.0004
        33.7504
 -16807260.41847 -13045901.29345
                  22596768.1414                                   22596764.5784
                                                                        46.7504
        30.5004
 -14765417.38748 -11456263.52746
                  21973102.9924                                   21973099.9144
                                                                        48.0004
        37.7504
  -7930392.02046  -6141683.41843
                  23686974.5554                                   23686968.9574
                                                                        41.7504
        22.5004
  -8477431.60247  -6593859.73444
                  23475082.5234                                   23475078.7274
                                                                        43.2504
        29.5004
 09 10 26  0 11  0.0000000  0  9G02G04G05G10G13G25G29G16G07
  -5690638.14148  -4409038.35546
                  21172009.1254                                   21172003.9064
                                                                        51.2504
        40.7504
   2252707.72747   1759937.42644
                  23954556.1174                                   23954553.9964
                                                                        43.5004
        25.7504
 -20489913.14848 -15904162.40246
                  21279873.7194                                   21279870.1994
                                                                        51.5004
        41.5004
 -18838257.69548 -14621213.99246
                  20670126.1804                                   20670123.1214
                                                                        52.0004
        41.0004
  -6950320.90248  -5383704.15245
                  21749165.1414                                   21749161.3524
                                                                        49.0004
        33.0004
 -16925925.57447 -13138367.64545
                  22574186.7734                                   22574183.5944
                                                                        47.0004
        31.2504
 -14862659.06648 -11532036.25446
                  21954597.9694                                   21954594.9064
                                                                        50.0004
        38.5004
  -8054060.07446  -6238048.14143
                  23663440.8754                                   23663436.4494
                                                                        39.5004
        21.5004
  -8648244.45347  -6726960.62544
                  23442577.7974                                   23442573.5274
                                                                        43.0004
        28.7504
 09 10 26  0 11 30.0000000  0  9G02G04G05G10G13G25G29G16G07
  -5713703.89848  -4427011.68046
                  21167620.0394                                   21167614.7424
                                                                        51.7504
        40.7504
   2276148.04347   1778202.60543
                  23959016.5314                                   23959014.4494
                                                                        43.0004
        23.5004
 -20645707.86748 -16025560.87546
                  21250227.1024                                   21250223.5044
                                                                        51.7504
        41.7504
 -18973995.87548 -14726984.00446
                  20644296.0234                                   20644292.9184
                                                                        51.5004
        41.0004
  -6979383.97348  -5406350.70345
                  21743634.6884                                   21743630.9064
                                                                        48.5004
        33.2504
 -17043996.34847 -13230370.85545
                  22551718.5864                                   22551715.2854
                                                                        46.2504
        32.0004
 -14959260.38348 -11607309.98446
                  21936215.7664                                   21936212.6994
                                                                        50.0004
        38.5004
  -8177118.86746  -6333938.11343
                  23640023.4844                                   23640019.0084
                                                                        41.0004
        22.2504
  -8818624.01647  -6859723.89544
                  23410155.5784                                   23410151.4534
                                                                        43.7504
        28.5004
 09 10 26  0 12  0.0000000  0  9G02G04G05G10G13G25G29G16G07
  -5736253.31248  -4444582.66046
                  21163329.3754                                   21163323.8404
                                                                        51.5004
        40.7504
   2299759.41847   1796601.07444
                  23963510.1564                                   23963507.4184
                                                                        44.0004
        26.0004
 -20801037.13748 -16146596.67246
                  21220668.4924                                   21220665.1644
                                                                        51.5004
        41.2504
 -19109173.30148 -14832317.05546
                  20618572.5704                                   20618569.5744
                                                                        51.7504
        41.0004
  -7007874.87148  -5428551.40245
                  21738212.6484                                   21738208.8914
                                                                        48.0004
        33.0004
 -17161471.32447 -13321909.79745
                  22529364.1724                                   22529360.2974
                                                                        46.0004
        30.0004
 -15055220.10948 -11682083.77046
                  21917955.5864                                   21917952.2304
                                                                        49.7504
        38.7504
  -8299566.35246  -6429351.72743
                  23616722.9304                                   23616718.4224
                                                                        41.0004
        23.2504
  -8988567.14547  -6992147.10244
                  23377816.2734                                   23377812.3324
                                                                        42.0004
        29.0004
 09 10 26  0 12 30.0000000  0  9G02G04G05G10G13G25G29G16G07
  -5758288.51648  -4461752.94546
                  21159136.0164                                   21159130.2034
                                                                        51.5004
        40.0004
   2323539.58247   1815131.03144
                  23968035.3524                                   23968033.6414
                                                                        43.0004
        27.0004
 -20955900.01248 -16267269.04746
                  21191199.4844                                   21191195.8324
                                                                        51.2504
        41.5004
 -19243788.88748 -14937212.32046
                  20592956.2034                                   20592952.8324
                                                                        52.5004
        41.5004
  -7035796.66448  -5450308.63345
                  21732899.6024                                   21732895.7974
                                                                        48.2504
        33.5004
 -17278350.06247 -13412984.15245
                  22507122.4534                                   22507119.0784
                                                                        46.2504
        31.0004
 -15150538.73848 -11756358.03546
                  21899816.5004                                   21899813.7504
                                                                        50.0004
        38.7504
  -8421402.19546  -6524288.73843
                  23593538.1564                                   23593533.8984
                                                                        41.5004
        23.2504
  -9158071.35547  -7124228.32044
                  23345560.7114                                   23345556.6214
                                                                        42.5004
        29.0004
 09 10 26  0 13  0.0000000  0  9G02G04G05G10G13G25G29G16G07
  -5779811.73448  -4478524.28946
                  21155040.4304                                   21155034.6524
                                                                        51.2504
        40.7504
   2347485.75447   1833790.26644
                  23972592.6884                                   23972590.2074
                                                                        43.0004
        27.2504
 -21110294.98448 -16387576.80946
                  21161819.0704                                   21161815.4964
                                                                        51.0004
        41.7504
 -19377841.81648 -15041669.14547
                  20567447.0234                                   20567443.2114
                                                                        51.7504
        42.0004
  -7063151.60948  -5471624.17645
                  21727693.9144                                   21727689.6724
                                                                        48.5004
        32.7504
 -17394631.87947 -13503593.35545
                  22484994.7734                                   22484991.4184
                                                                        45.5004
        30.2504
 -15245215.98848 -11830132.48446
                  21881800.2664                                   21881797.0984
                                                                        49.5004
        38.5004
  -8542625.15246  -6618748.19144
                  23570470.4774                                   23570466.0784
                                                                        41.0004
        24.0004
  -9327134.30147  -7255965.63744
                  23313389.1024                                   23313385.8754
                                                                        43.2504
        29.5004
 09 10 26  0 13 30.0000000  0  9G02G04G05G10G13G25G29G16G07
  -5800824.31648  -4494897.73446
                  21151041.6254                                   21151036.4224
                                                                        52.0004
        40.5004
   2371596.76247   1852577.99644
                  23977180.5864                                   23977178.6214
                                                                        42.5004
        26.7504
 -21264220.34048 -16507518.64546
                  21132528.2114                                   21132524.4024
                                                                        51.7504
        41.5004
 -19511331.14848 -15145686.80546
                  20542044.9694                                   20542041.2704
                                                                        52.2504
        40.7504
  -7089941.66448  -5492499.53545
                  21722596.0474                                   21722592.1954
                                                                        48.2504
        33.5004
 -17510315.34447 -13593736.30945
                  22462981.2114                                   22462976.9964
                                                                        45.7504
        30.0004
 -15339251.48448 -11903406.89546
                  21863905.8444                                   21863902.7424
                                                                        50.2504
        38.5004
  -8663233.68446  -6712728.86343
                  23547519.0084                                   23547514.6254
                                                                        41.5004
        22.0004
  -9495753.24247  -7387357.00444
                  23281301.9534                                   23281298.7384
                                                                        43.2504
        29.5004
 09 10 26  0 14  0.0000000  0  9G02G04G05G10G13G25G29G16G07
  -5821328.93048  -4510875.37146
                  21147139.9384                                   21147134.6174
                                                                        52.2504
        41.0004
   2395869.35946   1871491.71543
                  23981799.3364                                   23981797.0594
                                                                        40.5004
        23.2504
 -21417675.33248 -16627093.96946
                  21103326.3444                                   21103322.8874
                                                                        51.5004
        41.5004
 -19644256.42248 -15249264.94146
                  20516749.8754                                   20516746.1254
                                                                        52.5004
        41.0004
  -7116169.96948  -5512937.17245
                  21717604.9844                                   21717601.1254
                                                                        48.0004
        33.0004
 -17625400.59047 -13683413.12145
                  22441081.3134                                   22441077.5314
                                                                        45.2504
        30.2504
 -15432646.10948 -11976181.92246
                  21846133.4224                                   21846130.1884
                                                                        49.7504
        38.5004
  -8783227.94146  -6806230.89543
                  23524684.8134                                   23524680.9774
                                                                        40.5004
        23.5004
  -9663926.20747  -7518400.85544
                  23249299.3444                                   23249296.1214
                                                                        42.7504
        29.2504
 09 10 26  0 14 30.0000000  0  9G02G04G05G10G13G25G29G16G07
  -5841328.05948  -4526459.11346
                  21143334.0314                                   21143328.4144
                                                                        51.2504
        40.5004
   2420300.98047   1890529.29744
                  23986448.7664                                   23986446.6174
                                                                        42.0004
        25.0004
 -21570659.30948 -16746302.26246
                  21074214.9144                                   21074211.1374
                                                                        51.7504
        41.7504
 -19776617.15248 -15352403.17646
                  20491562.6804                                   20491559.0124
                                                                        52.5004
        41.0004
  -7141839.37548  -5532939.31245
                  21712720.3054                                   21712716.3834
                                                                        48.0004
        32.2504
 -17739887.27047 -13772623.51645
                  22419294.6024                                   22419291.6094
                                                                        45.5004
        30.2504
 -15525400.19948 -12048457.83246
                  21828482.8984                                   21828479.8094
                                                                        49.7504
        38.2504
  -8902606.96146  -6899253.50444
                  23501968.0084                                   23501964.1684
                                                                        41.0004
        24.5004
  -9831650.94146  -7649095.45744
                  23217382.1804                                   23217378.6844
                                                                        41.2504
        29.2504
 09 10 26  0 15  0.0000000  0  9G02G04G05G10G13G25G29G16G07
  -4285401.29348  -3314048.64846
                  21439417.3204                                   21439411.5084
                                                                        52.0004
        40.5004
   4020309.83247   3137289.31643
                  24290920.6414                                   24290917.9264
                                                                        42.5004
        22.5004
 -20147744.18448 -15637537.23047
                  21344986.4774                                   21344982.8874
                                                                        51.2504
        42.0004
 -18332986.73848 -14227496.36346
                  20766275.8834                                   20766272.9104
                                                                        52.0004
        41.7504
  -5591530.16448  -4324906.15645
                  22007734.1094                                   22007730.1054
                                                                        48.0004
        31.7504
 -16278349.37547 -12633762.81645
                  22697416.4384                                   22697412.6134
                                                                        46.2504
        31.0004
 -14042089.36348 -10892631.20346
                  22110747.7664                                   22110744.5664
                                                                        50.0004
        38.2504
  -7445944.60547  -5764191.93444
                  23779161.8594                                   23779157.8484
                                                                        42.2504
        24.0004
  -8423498.03147  -6551833.42644
                  23485345.6484                                   23485341.5004
                                                                        44.2504
        29.5004
 09 10 26  0 15 30.0000000  0  9G02G04G05G10G13G25G29G16G07
  -4304391.74248  -3328846.39146
                  21435803.1884                                   21435797.5274
                                                                        51.0004
        40.5004
   4045055.58647   3156571.62143
                  24295629.4144                                   24295626.2544
                                                                        43.0004
        23.5004
 -20299778.41048 -15756005.46546
                  21316055.4774                                   21316051.9844
                                                                        50.5004
        41.7504
 -18464212.36748 -14329750.10946
                  20741304.8914                                   20741301.4574
                                                                        52.5004
        41.5004
  -5616086.13348  -4344040.68045
                  22003061.4694                                   22003057.4304
                                                                        48.5004
        33.0004
 -16391633.53147 -12722036.18445
                  22675859.2584                                   22675855.8204
                                                                        46.0004
        32.0004
 -14133559.05148 -10963906.28546
                  22093341.6884                                   22093338.7584
                                                                        49.2504
        38.5004
  -7564087.36346  -5856251.21944
                  23756679.8134                                   23756676.2704
                                                                        41.5004
        25.5004
  -8590316.57847  -6681821.87945
                  23453600.9384                                   23453597.1524
                                                                        42.5004
        30.5004
 09 10 26  0 16  0.0000000  0  9G02G04G05G10G13G25G29G16G07
  -4322880.75048  -3343253.42646
                  21432285.1334                                   21432279.8204
                                                                        51.2504
        40.5004
   4069955.60947   3175974.20344
                  24300367.5394                                   24300364.6334
                                                                        42.7504
        24.5004
 -20451335.77348 -15874102.10247
                  21287214.8284                                   21287211.3244
                                                                        50.7504
        42.2504
 -18594869.14548 -14431560.59046
                  20716441.5474                                   20716438.0274
                                                                        52.2504
        41.5004
  -5640088.89548  -4362744.12945
                  21998494.2664                                   21998489.8714
                                                                        48.5004
        32.5004
 -16504315.20747 -12809840.09445
                  22654416.7734                                   22654412.7114
                                                                        45.2504
        31.0004
 -14224386.82448 -11034681.17646
                  22076057.3364                                   22076054.4654
                                                                        49.0004
        39.0004
  -7681610.67647  -5947827.83644
                  23734315.7344                                   23734312.1764
                                                                        42.0004
        25.7504
  -8756677.37947  -6811453.66445
                  23421943.4454                                   23421939.3014
                                                                        45.0004
        30.2504
 09 10 26  0 16 30.0000000  0  9G02G04G05G10G13G25G29G16G07
  -4340873.13348  -3357273.46146
                  21428861.0864                                   21428855.8674
                                                                        51.0004
        40.0004
   4095004.52347   3195492.84844
                  24305134.2114                                   24305132.2934
                                                                        43.5004
        26.0004
 -20602417.85248 -15991828.40246
                  21258464.7584                                   21258461.0234
                                                                        51.5004
        41.5004
 -18724959.30948 -14532929.55547
                  20691686.0474                                   20691682.9064
                                                                        53.0004
        42.0004
  -5663543.87148  -4381020.73445
                  21994030.7664                                   21994026.4734
                                                                        48.5004
        32.2504
 -16616396.75047 -12897176.37145
                  22633088.1954                                   22633084.6294
                                                                        46.2504
        32.0004
 -14314575.51248 -11104958.08646
                  22058895.1254                                   22058891.9774
                                                                        50.0004
        38.0004
  -7798516.50047  -6038923.28944
                  23712069.9064                                   23712065.4844
                                                                        42.5004
        26.5004
  -8922581.17247  -6940729.32845
                  23390373.0164                                   23390368.8094
                                                                        44.5004
        30.5004
 09 10 26  0 17  0.0000000  0  9G02G04G05G10G13G25G29G16G07
  -4358369.09048  -3370906.69146
                  21425531.9224                                   21425526.3444
                                                                        51.5004
        40.7504
   4120202.26247   3215127.46544
                  24309929.1024                                   24309926.9574
                                                                        43.2504
        26.0004
 -20753021.17648 -16109181.64846
                  21229806.1484                                   21229802.2034
                                                                        50.2504
        41.7504
 -18854479.60248 -14633854.46946
                  20667039.4614                                   20667035.9694
                                                                        52.5004
        41.5004
  -5686451.58248  -4398870.89845
                  21989671.6024                                   21989667.4494
                                                                        48.5004
        32.5004
 -16727875.48847 -12984042.93745
                  22611875.1254                                   22611871.2344
                                                                        45.5004
        31.5004
 -14404122.99248 -11174735.35946
                  22041854.8284                                   22041851.5314
                                                                        49.0004
        39.0004
  -7914801.85946  -6129535.27744
                  23689941.1174                                   23689937.2664
                                                                        41.7504
        25.0004
  -9088023.64547  -7069645.50045
                  23358890.2114                                   23358886.4264
                                                                        44.0004
        30.0004
 09 10 26  0 17 30.0000000  0  9G02G04G05G10G13G25G29G16G07
  -4375369.58648  -3384153.83246
                  21422296.7894                                   21422291.1254
                                                                        51.2504
        40.0004
   4145547.28947   3234876.77044
                  24314752.0234                                   24314750.5234
                                                                        43.0004
        26.0004
 -20903143.69148 -16226160.23447
                  21201238.9144                                   21201235.2504
                                                                        52.0004
        42.0004
 -18983428.47348 -14734334.10947
                  20642501.2034                                   20642498.2544
                                                                        52.5004
        42.0004
  -5708813.74648  -4416295.97745
                  21985415.9384                                   21985411.9614
                                                                        48.0004
        32.5004
 -16838749.85947 -13070438.55145
                  22590776.2734                                   22590772.9064
                                                                        46.5004
        32.0004
 -14493028.29748 -11244012.17246
                  22024936.8754                                   22024933.7384
                                                                        49.5004
        38.2504
  -8030465.02346  -6219662.41044
                  23667931.2034                                   23667927.1994
                                                                        41.5004
        26.7504
  -9253001.59047  -7198199.71545
                  23327495.9774                                   23327492.0634
                                                                        44.0004
        30.0004
 09 10 26  0 18  0.0000000  0  9G02G04G05G10G13G25G29G16G07
  -4391879.17648  -3397018.46146
                  21419155.1024                                   21419149.4614
                                                                        51.0004
        40.0004
   4171035.02747   3254737.26244
                  24319602.7034                                   24319600.2584
                                                                        43.5004
        25.5004
 -21052786.76248 -16342765.22346
                  21172762.5084                                   21172758.8834
                                                                        51.0004
        41.5004
 -19111807.51248 -14834369.72746
                  20618071.4384                                   20618068.1724
                                                                        52.5004
        41.5004
  -5730635.22747  -4433299.75045
                  21981263.6484                                   21981259.2974
                                                                        47.5004
        31.5004
 -16949021.58247 -13156364.56245
                  22569792.0394                                   22569788.7664
                                                                        45.5004
        32.0004
 -14581294.11748 -11312790.69146
                  22008140.2114                                   22008137.0984
                                                                        49.0004
        38.5004
  -8145507.53147  -6309305.90644
                  23646039.1174                                   23646035.4534
                                                                        42.0004
        26.5004
  -9417514.77746  -7326391.73444
                  23296189.6954                                   23296186.1844
                                                                        41.7504
        28.7504
 09 10 26  0 18 30.0000000  0  9G02G04G05G10G13G25G29G16G07
  -4407898.26248  -3409500.86346
                  21416106.8914                                   21416101.4184
                                                                        51.5004
        39.5004
   4196664.67646   3274708.27343
                  24324479.0004                                   24324477.6024
                                                                        41.5004
        22.7504
 -21201950.31648 -16458996.56646
                  21144377.5554                                   21144373.6994
                                                                        51.0004
        41.7504
 -19239614.29748 -14933959.43046
                  20593750.7424                                   20593747.1724
                                                                        52.0004
        41.0004
  -5751916.83247  -4449882.82845
                  21977213.7734                                   21977209.2504
                                                                        47.5004
        32.0004
 -17058688.55147 -13241819.33645
                  22548922.7894                                   22548919.5634
                                                                        45.0004
        31.7504
 -14668919.37548 -11381070.09446
                  21991465.8284                                   21991463.2704
                                                                        48.5004
        39.0004
  -8259926.90247  -6398463.84444
                  23624266.1484                                   23624262.3524
                                                                        42.2504
        25.5004
  -9581559.34847  -7454218.62144
                  23264972.9304                                   23264969.7304
                                                                        43.5004
        29.2504
 09 10 26  0 19  0.0000000  0  9G02G04G05G10G13G25G29G16G07
  -4423430.48448  -3421603.91046
                  21413150.7894                                   21413145.5904
                                                                        50.7504
        39.5004
   4222432.99246   3294787.51643
                  24329382.6414                                   24329380.7664
                                                                        40.5004
        22.5004
 -21350626.82848 -16574848.39546
                  21116085.3914                                   21116081.8714
                                                                        51.5004
        41.7504
 -19366850.12148 -15033104.21146
                  20569538.5314                                   20569535.3834
                                                                        51.7504
        41.5004
  -5772662.87547  -4466048.59445
                  21973265.9454                                   21973262.4224
                                                                        47.5004
        32.5004
 -17167751.81647 -13326803.68445
                  22528168.9614                                   22528165.3554
                                                                        45.0004
        31.2504
 -14755906.09848 -11448851.95346
                  21974912.6414                                   21974909.5474
                                                                        48.2504
        38.0004
  -8373724.35947  -6487137.19944
                  23602611.1644                                   23602607.1524
                                                                        42.2504
        25.7504
  -9745134.41047  -7581679.69144
                  23233845.3834                                   23233842.2814
                                                                        44.0004
        28.7504
 09 10 26  0 19 30.0000000  0  9G02G04G05G10G13G25G29G16G07
  -4438475.94948  -3433327.65246
                  21410287.9304                                   21410282.6764
                                                                        50.5004
        39.5004
   4248339.36347   3314974.33243
                  24334313.2584                                   24334310.2194
                                                                        42.5004
        23.0004
 -21498815.89148 -16690320.38747
                  21087885.9614                                   21087882.6914
                                                                        50.5004
        42.0004
 -19493511.59848 -15131801.45746
                  20545435.5704                                   20545432.5664
                                                                        52.0004
        41.5004
  -5792873.79347  -4481797.37545
                  21969419.7894                                   21969416.2734
                                                                        47.5004
        32.5004
 -17276208.92247 -13411315.70345
                  22507530.6094                                   22507526.8364
                                                                        45.0004
        32.0004
 -14842252.12948 -11516134.55946
                  21958481.6024                                   21958478.6484
                                                                        48.0004
        38.2504
  -8486896.66047  -6575323.38744
                  23581075.0944                                   23581070.7854
                                                                        42.2504
        25.2504
  -9908235.56247  -7708771.46945
                  23202808.8914                                   23202805.1294
                                                                        43.2504
        30.5004
 09 10 26  0 20  0.0000000  0  9G02G04G05G10G13G25G29G16G07
  -4453037.80948  -3444674.57446
                  21407517.1414                                   21407511.6644
                                                                        50.5004
        39.5004
   4274380.03947   3335265.85244
                  24339269.0474                                   24339266.1214
                                                                        43.7504
        24.0004
 -21646521.56248 -16805415.71947
                  21059778.5234                                   21059775.2424
                                                                        51.2504
        42.0004
 -19619599.44548 -15230051.73446
                  20521441.8984                                   20521438.4614
                                                                        52.2504
        41.0004
  -5812553.77048  -4497132.46545
                  21965674.9064                                   21965670.9804
                                                                        48.0004
        31.5004
 -17384060.63747 -13495356.00445
                  22487006.7814                                   22487002.9654
                                                                        45.0004
        31.5004
 -14927958.53148 -11582918.74646
                  21942172.1174                                   21942169.0434
                                                                        49.0004
        38.5004
  -8599444.66847  -6663023.13344
                  23559658.2274                                   23559653.4614
                                                                        42.5004
        24.2504
 -10070861.66047  -7835493.08245
                  23171862.5474                                   23171858.5354
                                                                        44.5004
        30.7504
 09 10 26  0 20 30.0000000  0  9G02G04G05G10G13G25G29G16G07
  -4467116.72748  -3455645.17646
                  21404837.9694                                   21404832.2854
                                                                        50.7504
        39.0004
   4300555.04347   3355662.00044
                  24344249.5314                                   24344246.9344
                                                                        42.2504
        26.2504
 -21793740.55148 -16920131.80546
                  21031763.8594                                   21031760.2734
                                                                        51.5004
        41.7504
 -19745111.42648 -15327853.27746
                  20497557.8364                                   20497554.9694
                                                                        51.5004
        41.2504
  -5831703.23847  -4512054.13745
                  21962030.9924                                   21962026.7074
                                                                        47.2504
        31.0004
 -17491304.69947 -13578922.79345
                  22466598.5004                                   22466595.4884
                                                                        45.0004
        32.0004
 -15013024.78548 -11649204.13346
                  21925984.5784                                   21925981.6844
                                                                        49.2504
        38.2504
  -8711366.16847  -6750234.68044
                  23538360.0704                                   23538355.2034
                                                                        44.0004
        24.7504
 -10233008.82447  -7961841.50445
                  23141006.6954                                   23141002.8134
                                                                        46.0004
        30.7504
 09 10 26  0 21  0.0000000  0  9G02G04G05G10G13G25G29G16G07
  -4480708.83648  -3466236.45746
                  21402251.3674                                   21402245.5234
                                                                        50.0004
        39.5004
   4326867.78947   3376165.52744
                  24349256.2974                                   24349254.1884
                                                                        42.0004
        25.7504
 -21940463.63348 -17034461.47747
                  21003843.2894                                   21003839.6454
                                                                        50.7504
        42.0004
 -19870040.68748 -15425200.76647
                  20473784.4534                                   20473781.3524
                                                                        52.5004
        42.0004
  -5850319.34847  -4526560.21545
                  21958488.1804                                   21958484.3794
                                                                        47.0004
        31.2504
 -17597935.00847 -13662011.33245
                  22446307.8284                                   22446303.9924
                                                                        44.7504
        31.7504
 -15097444.93448 -11714986.07046
                  21909919.9304                                   21909917.2584
                                                                        48.5004
        38.2504
  -8822654.54747  -6836952.89544
                  23517182.4924                                   23517178.4694
                                                                        42.0004
        25.5004
 -10394668.88747  -8087810.36345
                  23110243.6024                                   23110239.5824
                                                                        45.0004
        30.7504
 09 10 26  0 21 30.0000000  0  9G02G04G05G10G13G25G29G16G07
  -4493824.96948  -3476456.82846
                  21399755.4694                                   21399750.1564
                                                                        50.5004
        39.5004
   4353307.18846   3396767.65643
                  24354287.5784                                   24354285.4924
                                                                        40.5004
        22.7504
 -22086698.40648 -17148410.65247
                  20976015.8284                                   20976012.0864
                                                                        50.7504
        42.2504
 -19994395.22348 -15522100.39846
                  20450120.5784                                   20450117.2114
                                                                        52.0004
        41.2504
  -5868413.31247  -4540659.42245
                  21955045.2274                                   21955041.0744
                                                                        47.0004
        31.2504
 -17703959.68047 -13744627.93445
                  22426132.2194                                   22426128.4574
                                                                        43.7504
        32.2504
 -15181228.06248 -11780271.64146
                  21893976.4384                                   21893973.7624
                                                                        48.5004
        38.7504
  -8933317.78946  -6923184.01644
                  23496124.1804                                   23496119.3244
                                                                        41.5004
        25.2504
 -10555847.68747  -8213404.21545
                  23079572.5634                                   23079568.3754
                                                                        45.0004
        30.5004
 09 10 26  0 22  0.0000000  0  9G02G04G05G10G13G25G29G16G07
  -4506466.93748  -3486307.71146
                  21397349.7584                                   21397344.6644
                                                                        50.0004
        39.2504
   4379871.26246   3417466.75843
                  24359343.2344                                   24359340.6054
                                                                        40.7504
        22.5004
 -22232443.34448 -17261978.13747
                  20948281.3364                                   20948277.6214
                                                                        51.5004
        42.0004
 -20118174.26648 -15618551.60246
                  20426566.3914                                   20426562.8244
                                                                        52.2504
        41.5004
  -5885986.93747  -4554353.18445
                  21951701.1884                                   21951697.3714
                                                                        46.7504
        31.5004
 -17809377.76247 -13826771.85945
                  22406071.6954                                   22406067.9104
                                                                        45.0004
        32.0004
 -15264373.82848 -11845060.55946
                  21878154.4224                                   21878151.8204
                                                                        48.5004
        39.0004
  -9043354.73447  -7008927.10244
                  23475184.2974                                   23475180.5784
                                                                        42.7504
        26.0004
 -10716542.78947  -8338621.14144
                  23048993.3364                                   23048988.8054
                                                                        44.5004
        29.7504
 09 10 26  0 22 30.0000000  0  9G02G04G05G10G13G25G29G16G07
  -4518630.93448  -3495786.17646
                  21395035.6024                                   21395029.5314
                                                                        49.7504
        38.5004
   4406564.05547   3438266.12543
                  24364423.2114                                   24364420.2274
                                                                        43.5004
        23.2504
 -22377691.48848 -17375158.51647
                  20920641.3364                                   20920637.4104
                                                                        51.0004
        42.5004
 -20241371.21948 -15714549.23446
                  20403122.5004                                   20403119.5704
                                                                        52.5004
        41.5004
  -5903037.30147  -4567639.18445
                  21948456.7424                                   21948452.6414
                                                                        46.7504
        31.5004
 -17914183.04347 -13908438.31645
                  22386127.9534                                   22386124.3984
                                                                        45.0004
        32.2504
 -15346876.71148 -11909348.52346
                  21862454.7734                                   21862451.4924
                                                                        49.0004
        37.7504
  -9152758.99647  -7094177.16844
                  23454365.3674                                   23454361.2114
                                                                        42.5004
        24.2504
 -10876745.84847  -8463454.71545
                  23018507.5474                                   23018503.1024
                                                                        44.2504
        30.2504
 09 10 26  0 23  0.0000000  0  9G02G04G05G10G13G25G29G16G07
  -4530323.34048  -3504897.17646
                  21392810.2974                                   21392804.5124
                                                                        50.5004
        39.2504
   4433379.25447   3459161.03143
                  24369525.6954                                   24369522.9614
                                                                        43.5004
        22.7504
 -22522446.52348 -17487954.64846
                  20893095.6334                                   20893091.7154
                                                                        50.2504
        41.7504
 -20363989.39848 -15810095.86747
                  20379789.2734                                   20379786.1564
                                                                        52.5004
        42.2504
  -5919571.30147  -4580522.82045
                  21945309.8594                                   21945306.2664
                                                                        46.0004
        30.5004
 -18018379.34047 -13989630.21545
                  22366299.4774                                   22366295.8984
                                                                        44.0004
        31.2504
 -15428741.55148 -11973139.30546
                  21846876.2664                                   21846873.0864
                                                                        48.2504
        38.5004
  -9261533.94147  -7178936.85243
                  23433665.6804                                   23433662.3054
                                                                        42.0004
        22.7504
 -11036458.98047  -8587906.48445
                  22988115.0164                                   22988111.1914
                                                                        44.0004
        30.0004
 09 10 26  0 23 30.0000000  0  9G02G04G05G10G13G25G29G16G07
  -2966127.04748  -2286042.93446
                  21690466.8524                                   21690461.7034
                                                                        50.0004
        39.5004
   6035732.56347   4707748.03543
                  24674442.6024                                   24674440.1094
                                                                        42.5004
        22.7504
 -21091282.50848 -16372761.90647
                  21165436.8674                                   21165433.2854
                                                                        51.5004
        42.5004
 -18910605.72748 -14677589.11346
                  20656358.6644                                   20656355.9024
                                                                        52.5004
        41.0004
  -4360172.19547  -3365406.64145
                  22242053.8834                                   22242050.0084
                                                                        45.5004
        31.2504
 -16546544.27047 -12842745.74645
                  22646380.7504                                   22646377.0434
                                                                        45.0004
        31.5004
 -13934547.48848 -10808832.22746
                  22131211.7584                                   22131208.7504
                                                                        49.0004
        38.5004
  -7794257.01247  -6035604.19143
                  23712879.7114                                   23712875.4614
                                                                        42.0004
        22.5004
  -9620255.59847  -7484371.36344
                  23257609.3134                                   23257605.7704
                                                                        42.0004
        29.5004
 09 10 26  0 24  0.0000000  0  9G02G04G05G10G13G25G29G16G07
  -2976887.64548  -2294427.84046
                  21688419.2584                                   21688413.9804
                                                                        49.5004
        39.2504
   6062780.87146   4728824.67643
                  24679589.8284                                   24679587.1174
                                                                        40.2504
        21.5004
 -21235050.93448 -16484789.25447
                  21138078.9454                                   21138075.0864
                                                                        51.5004
        42.2504
 -19032069.82848 -14772236.48046
                  20633244.9384                                   20633241.7344
                                                                        52.5004
        41.5004
  -4375686.43047  -3377495.64145
                  22239102.0164                                   22239097.9654
                                                                        46.2504
        30.7504
 -16649527.03947 -12922992.05545
                  22626783.8914                                   22626779.8324
                                                                        44.5004
        31.5004
 -14015142.59048 -10871633.62546
                  22115874.9384                                   22115871.9454
                                                                        49.2504
        38.2504
  -7901777.41447  -6119386.31644
                  23692418.8594                                   23692414.5664
                                                                        43.0004
        24.0004
  -9778986.68747  -7608057.90245
                  23227403.6174                                   23227400.4414
                                                                        42.5004
        31.0004
 09 10 26  0 24 30.0000000  0  9G02G04G05G10G13G25G29G16G07
  -2987183.80948  -2302450.84446
                  21686460.0084                                   21686454.8484
                                                                        50.0004
        39.2504
   6089944.01246   4749990.67643
                  24684757.8134                                   24684756.4614
                                                                        39.0004
        20.7504
 -21378323.13748 -16596429.93447
                  21110815.0634                                   21110811.6804
                                                                        51.5004
        42.2504
 -19152954.28148 -14866432.14846
                  20610241.6804                                   20610238.2854
                                                                        52.5004
        41.5004
  -4390693.07847  -3389189.13345
                  22236246.0394                                   22236241.8914
                                                                        47.0004
        31.7504
 -16751900.62147 -13002763.70345
                  22607303.0314                                   22607299.0634
                                                                        45.7504
        31.5004
 -14095102.07848 -10933939.74646
                  22100659.5314                                   22100656.4734
                                                                        49.0004
        38.0004
  -8008668.31646  -6202677.94143
                  23672078.8204                                   23672074.2704
                                                                        41.5004
        22.7504
  -9937221.99247  -7731358.09845
                  23197292.4534                                   23197288.9804
                                                                        43.5004
        31.0004
 09 10 26  0 25  0.0000000  0  9G02G04G05G10G13G25G29G16G07
  -2997018.99648  -2310114.64846
                  21684588.2734                                   21684583.1174
                                                                        50.0004
        39.0004
   6117218.42646   4771243.25043
                  24689949.3284                                   24689947.1484
                                                                        39.7504
        22.5004
 -21521099.14548 -16707683.97347
                  21083645.4614                                   21083642.1524
                                                                        52.0004
        42.5004
 -19273259.65248 -14960176.60246
                  20587348.2114                                   20587344.8634
                                                                        53.0004
        41.0004
  -4405195.93447  -3400490.05545
                  22233486.1564                                   22233482.5084
                                                                        46.0004
        31.7504
 -16853666.18447 -13082061.60945
                  22587937.4534                                   22587933.8164
                                                                        44.5004
        31.2504
 -14174426.88348 -10995751.32446
                  22085564.8914                                   22085561.5314
                                                                        49.5004
        38.2504
  -8114930.06247  -6285479.32444
                  23651857.5864                                   23651853.1884
                                                                        42.0004
        24.0004
 -10094959.77347  -7854270.63345
                  23167276.6334                                   23167272.4144
                                                                        44.0004
        31.0004
 09 10 26  0 25 30.0000000  0  9G02G04G05G10G13G25G29G16G07
  -3006394.10548  -2317419.93746
                  21682803.9304                                   21682799.1054
                                                                        49.5004
        38.7504
   6144603.68447   4792582.31644
                  24695160.6174                                   24695158.8674
                                                                        42.2504
        26.2504
 -21663376.00448 -16818549.05947
                  21056571.0004                                   21056567.5474
                                                                        51.5004
        42.5004
 -19392983.98848 -15053468.28946
                  20564565.3284                                   20564562.1334
                                                                        52.5004
        41.0004
  -4419196.48847  -3411399.56645
                  22230822.2034                                   22230818.5704
                                                                        46.0004
        30.5004
 -16954822.15647 -13160884.49245
                  22568688.0634                                   22568684.7154
                                                                        45.7504
        31.2504
 -14253116.62948 -11057067.95346
                  22070590.3914                                   22070587.4884
                                                                        49.5004
        38.7504
  -8220560.91447  -6367789.06643
                  23631756.7504                                   23631752.7774
                                                                        42.7504
        22.2504
 -10252196.83247  -7976792.99645
                  23137354.8284                                   23137351.2074
                                                                        44.2504
        30.7504
 09 10 26  0 26  0.0000000  0  9G02G04G05G10G13G25G29G16G07
  -3015309.33648  -2324366.87546
                  21681107.4774                                   21681101.9304
                                                                        49.5004
        38.5004
   6172099.42647   4814007.58244
                  24700392.8524                                   24700391.2894
                                                                        43.0004
        26.5004
 -21805150.85948 -16929022.97747
                  21029592.4694                                   21029588.9024
                                                                        51.7504
        42.2504
 -19512125.01648 -15146305.45746
                  20541893.4454                                   20541890.2894
                                                                        52.5004
        41.7504
  -4432695.04747  -3421917.93045
                  22228253.2974                                   22228249.5554
                                                                        46.2504
        31.0004
 -17055365.83647 -13239230.23045
                  22549555.5394                                   22549551.7384
                                                                        46.0004
        31.5004
 -14331169.77748 -11117888.58646
                  22055737.6024                                   22055734.2544
                                                                        50.5004
        38.5004
  -8325558.22747  -6449605.18444
                  23611776.6724                                   23611772.3134
                                                                        43.0004
        25.2504
 -10408928.77747  -8098921.78545
                  23107529.9614                                   23107526.3444
                                                                        43.7504
        31.2504
 09 10 26  0 26 30.0000000  0  9G02G04G05G10G13G25G29G16G07
  -3023769.56648  -2330959.27346
                  21679498.0784                                   21679492.5944
                                                                        50.5004
        39.2504
   6199700.56347   4835514.75843
                  24705645.4384                                   24705643.1954
                                                                        42.0004
        22.7504
 -21946425.27348 -17039106.93746
                  21002708.7344                                   21002705.4344
                                                                        52.0004
        41.7504
 -19630684.52348 -15238689.49646
                  20519332.6334                                   20519329.1564
                                                                        52.5004
        41.5004
  -4445697.58647  -3432049.78945
                  22225779.0634                                   22225774.8404
                                                                        46.0004
        30.5004
 -17155300.10547 -13317101.09045
                  22530538.3284                                   22530534.6454
                                                                        45.5004
        31.0004
 -14408590.04748 -11178216.15246
                  22041005.1094                                   22041001.6844
                                                                        49.7504
        38.2504
  -8429924.69147  -6530929.70744
                  23591916.0314                                   23591912.1134
                                                                        42.7504
        25.2504
 -10565156.13347  -8220657.37945
                  23077801.1094                                   23077797.2464
                                                                        45.0004
        31.5004
 09 10 26  0 27  0.0000000  0  8G02G05G10G13G25G29G16G07
  -3031774.46948  -2337196.87146
                  21677974.5474                                   21677969.4454
                                                                        49.5004
        38.5004
 -22087195.66048 -17148798.14547
                  20975920.9144                                   20975917.4534
                                                                        51.7504
        42.0004
 -19748659.67648 -15330618.18746
                  20496882.3444                                   20496879.1604
                                                                        52.7504
        41.5004
  -4458204.08647  -3441795.10945
                  22223398.9924                                   22223394.9654
                                                                        46.0004
        30.7504
 -17254622.20347 -13394494.91845
                  22511637.9304                                   22511633.9844
                                                                        46.2504
        31.2504
 -14485374.89848 -11238048.47346
                  22026392.8594                                   22026389.9384
                                                                        50.0004
        38.2504
  -8533657.28947  -6611760.31244
                  23572177.0084                                   23572172.4024
                                                                        42.2504
        25.2504
 -10720874.42647  -8341996.29345
                  23048168.5164                                   23048165.0704
                                                                        44.0004
        32.0004
 09 10 26  0 27 30.0000000  0  8G02G05G10G13G25G29G16G07
  -3039325.13348  -2343080.50446
                  21676537.5784                                   21676532.3404
                                                                        49.7504
        38.7504
 -22227459.92648 -17258094.97747
                  20949229.7194                                   20949226.1024
                                                                        52.0004
        42.5004
 -19866048.96148 -15422090.35547
                  20474543.8754                                   20474540.8014
                                                                        52.5004
        42.0004
  -4470215.90647  -3451154.95345
                  22221113.2344                                   22221109.1214
                                                                        45.0004
        30.0004
 -17353330.87547 -13471410.75445
                  22492854.3444                                   22492850.6994
                                                                        46.7504
        31.5004
 -14561524.09448 -11297385.57046
                  22011902.5314                                   22011899.6294
                                                                        49.5004
        38.5004
  -8636754.59847  -6692095.89544
                  23552557.7974                                   23552553.4534
                                                                        42.0004
        24.2504
 -10876079.85947  -8462935.57845
                  23018633.9454                                   23018629.8754
                                                                        44.7504
        30.2504
 09 10 26  0 28  0.0000000  0  8G02G05G10G13G25G29G16G07
  -3046425.04348  -2348612.91446
                  21675186.6254                                   21675181.3754
                                                                        49.0004
        38.5004
 -22367217.83648 -17366997.24247
                  20922634.5084                                   20922631.3204
                                                                        52.2504
        42.5004
 -19982852.97348 -15513106.47346
                  20452317.0634                                   20452313.9264
                                                                        52.7504
        41.0004
  -4481737.33247  -3460132.68445
                  22218920.7894                                   22218916.9884
                                                                        44.5004
        30.5004
 -17451427.10947 -13547849.38745
                  22474187.4844                                   22474183.9494
                                                                        46.0004
        31.0004
 -14637039.22348 -11356228.55146
                  21997532.5944                                   21997529.0904
                                                                        50.0004
        38.2504
  -8739217.34447  -6771937.01644
                  23533059.9064                                   23533055.6484
                                                                        42.5004
        24.5004
 -11030772.04747  -8583474.98845
                  22989197.2344                                   22989192.8914
                                                                        43.5004
        31.0004
 09 10 26  0 28 30.0000000  0  8G02G05G10G13G25G29G16G07
  -3053070.98048  -2353791.57446
                  21673922.1954                                   21673916.7464
                                                                        49.5004
        38.5004
 -22506462.97348 -17475499.94547
                  20896137.1644                                   20896133.5354
                                                                        52.0004
        42.5004
 -20099065.77348 -15603661.89146
                  20430202.4614                                   20430199.0664
                                                                        52.5004
        41.7504
  -4492765.40247  -3468725.96945
                  22216822.3914                                   22216818.4384
                                                                        45.0004
        30.5004
 -17548905.31247 -13623806.43445
                  22455637.7424                                   22455633.9844
                                                                        45.5004
        31.0004
 -14711915.70348 -11414573.78146
                  21983283.4454                                   21983280.7424
                                                                        49.0004
        38.0004
  -8841039.72747  -6851279.12944
                  23513683.7194                                   23513679.6724
                                                                        42.7504
        24.5004
 -11184942.74247  -8703607.96544
                  22959859.3444                                   22959855.0354
                                                                        44.0004
        29.5004
 09 10 26  0 29  0.0000000  0  8G02G05G10G13G25G29G16G07
  -3059265.96148  -2358618.83246
                  21672743.2504                                   21672737.9494
                                                                        49.0004
        38.2504
 -22645195.09048 -17583602.89547
                  20869737.1564                                   20869733.7074
                                                                        52.5004
        42.7504
 -20214687.60248 -15693756.82446
                  20408200.6254                                   20408197.3834
                                                                        52.2504
        41.7504
  -4503303.47747  -3476937.44545
                  22214816.9774                                   22214813.4574
                                                                        45.7504
        30.5004
 -17645765.98447 -13699282.27745
                  22437205.5634                                   22437201.9804
                                                                        46.0004
        31.5004
 -14786154.92248 -11472422.52346
                  21969156.4454                                   21969153.7774
                                                                        49.7504
        38.5004
  -8942222.37947  -6930122.80143
                  23494429.2114                                   23494425.0354
                                                                        42.2504
        23.7504
 -11338590.69147  -8823333.61745
                  22930621.4694                                   22930616.8204
                                                                        44.0004
        31.0004
 09 10 26  0 29 30.0000000  0  8G02G05G10G13G25G29G16G07
  -3065011.02748  -2363095.50446
                  21671649.8754                                   21671644.4264
                                                                        48.5004
        38.0004
 -22783412.15648 -17691304.50047
                  20843435.3674                                   20843431.8794
                                                                        52.2504
        42.5004
 -20329716.85948 -15783390.00446
                  20386311.1334                                   20386307.8834
                                                                        53.0004
        41.5004
  -4513353.46147  -3484768.61745
                  22212904.3134                                   22212900.8164
                                                                        44.0004
        30.7504
 -17742008.24247 -13774276.24245
                  22418891.5554                                   22418887.7774
                                                                        46.5004
        30.5004
 -14859756.14848 -11529774.08646
                  21955150.5634                                   21955147.4494
                                                                        49.2504
        38.5004
  -9042763.90247  -7008466.87944
                  23475297.4924                                   23475292.8054
                                                                        42.5004
        25.7504
 -11491712.84447  -8942649.57845
                  22901482.9144                                   22901478.8984
                                                                        44.2504
        30.7504
 09 10 26  0 30  0.0000000  0  8G02G05G10G13G25G29G16G07
  -3070321.46548  -2367233.51246
                  21670639.4224                                   21670634.1644
                                                                        49.5004
        38.7504
 -22921125.55548 -17798613.64147
                  20817229.5004                                   20817226.1524
                                                                        51.7504
        42.5004
 -20444166.38748 -15872571.45746
                  20364531.8674                                   20364528.9414
                                                                        52.5004
        41.5004
  -4522930.84047  -3492231.51645
                  22211082.0474                                   22211078.5434
                                                                        45.5004
        30.0004
 -17837644.57847 -13848798.05545
                  22400692.5704                                   22400688.6844
                                                                        46.0004
        31.7504
 -14932733.46948 -11586639.56246
                  21941263.2504                                   21941260.6764
                                                                        49.7504
        38.5004
  -9142676.64547  -7086320.97344
                  23456284.2814                                   23456280.3014
                                                                        42.0004
        25.2504
 -11644320.05147  -9061564.27045
                  22872442.8444                                   22872438.8714
                                                                        43.5004
        30.0004
 09 10 26  0 30 30.0000000  0  8G02G05G10G13G25G29G16G07
  -3075198.98048  -2371034.18746
                  21669711.1334                                   21669706.0234
                                                                        49.5004
        39.0004
 -23058334.21148 -17905529.48447
                  20791119.4384                                   20791115.7734
                                                                        52.2504
        43.0004
 -20558034.84048 -15961300.12147
                  20342863.4304                                   20342860.3914
                                                                        52.7504
        42.0004
  -4532037.89547  -3499327.93445
                  22209349.1644                                   22209345.0554
                                                                        45.0004
        30.7504
 -17932674.83247 -13922847.59445
                  22382608.7814                                   22382605.2544
                                                                        46.0004
        31.0004
 -15005086.89848 -11643018.89846
                  21927495.1414                                   21927491.8164
                                                                        50.0004
        38.0004
  -9241960.20747  -7163684.81244
                  23437391.1804                                   23437386.6254
                                                                        43.0004
        24.2504
 -11796409.16047  -9180075.24645
                  22843501.4064                                   22843497.4304
                                                                        44.5004
        31.7504
 09 10 26  0 31  0.0000000  0  8G02G05G10G13G25G29G16G07
  -3079645.54748  -2374499.05946
                  21668864.9924                                   21668859.6884
                                                                        49.0004
        38.5004
 -23195036.59848 -18012050.83647
                  20765106.1414                                   20765102.7194
                                                                        52.0004
        42.5004
 -20671321.44948 -16049575.39546
                  20321305.9224                                   20321302.6764
                                                                        52.7504
        41.5004
  -4540677.11347  -3506059.78145
                  22207704.6724                                   22207700.9734
                                                                        44.7504
        30.0004
 -18027098.34447 -13996424.34845
                  22364640.7344                                   22364636.6994
                                                                        45.5004
        31.2504
 -15076817.12148 -11698912.57846
                  21913845.3754                                   21913842.0084
                                                                        50.2504
        38.2504
  -9340614.04347  -7240557.93444
                  23418618.2664                                   23418613.9844
                                                                        43.2504
        25.5004
 -11947977.92247  -9298180.78545
                  22814658.3674                                   22814654.5634
                                                                        44.5004
        31.0004
 09 10 26  0 31 30.0000000  0  8G02G05G10G13G25G29G16G07
  -3083663.21548  -2377629.71146
                  21668100.2194                                   21668094.6214
                                                                        49.0004
        37.7504
 -23331231.16848 -18118176.47747
                  20739189.0634                                   20739185.1484
                                                                        52.5004
        42.5004
 -20784025.87548 -16137397.02346
                  20299858.8594                                   20299855.9534
                                                                        52.7504
        41.7504
  -4548850.93447  -3512428.99645
                  22206149.6334                                   22206145.6844
                                                                        45.0004
        30.0004
 -18120914.89847 -14069528.13745
                  22346787.9844                                   22346783.9844
                                                                        46.0004
        31.0004
 -15147923.93748 -11754320.46546
                  21900314.0634                                   21900311.1884
                                                                        50.5004
        38.0004
  -9438637.55147  -7316939.91844
                  23399965.2114                                   23399960.4384
                                                                        43.5004
        25.0004
 -12099024.00847  -9415879.01645
                  22785915.5704                                   22785911.3284
                                                                        44.5004
        31.2504
 09 10 26  0 32  0.0000000  0  8G02G05G10G13G25G29G16G07
  -3087256.16048  -2380429.41846
                  21667417.0314                                   21667411.4264
                                                                        48.2504
        37.7504
 -23466918.77048 -18223907.07847
                  20713368.1884                                   20713365.0824
                                                                        52.7504
        42.7504
 -20896149.05148 -16224765.74646
                  20278522.3594                                   20278519.2344
                                                                        52.7504
        41.5004
  -4556564.10247  -3518439.25445
                  22204681.7424                                   22204678.1724
                                                                        45.0004
        30.7504
 -18214126.43747 -14142160.51245
                  22329050.4384                                   22329046.4534
                                                                        46.2504
        31.0004
 -15218409.86748 -11809244.53146
                  21886900.8914                                   21886897.9224
                                                                        50.5004
        38.0004
  -9536032.30947  -7392831.93444
                  23381431.2664                                   23381427.0204
                                                                        43.2504
        25.0004
 -12249547.10947  -9533169.72345
                  22757271.7344                                   22757268.0204
                                                                        45.0004
        31.7504
 09 10 26  0 32 30.0000000  0  8G02G05G10G13G25G29G16G07
  -1515006.52748  -1155299.84046
                  21966605.9454                                   21966600.7154
                                                                        49.0004
        37.7504
 -22026674.46948 -17101638.78547
                  20987437.8754                                   20987434.2854
                                                                        52.2504
        42.5004
 -19432267.67648 -15084078.96947
                  20557090.0164                                   20557086.8524
                                                                        52.5004
        42.2504
  -2988399.23847  -2296492.60945
                  22503093.3984                                   22503089.8094
                                                                        44.5004
        30.0004
 -16731309.93447 -12986719.08645
                  22611221.0554                                   22611217.4654
                                                                        44.5004
        31.5004
 -13712854.79748 -10636084.75846
                  22173398.8984                                   22173395.7584
                                                                        50.5004
        38.2504
  -8057375.49247  -6240631.82844
                  23662810.5474                                   23662805.9844
                                                                        42.2504
        24.0004
 -10824120.28547  -8422447.51245
                  23028521.7194                                   23028517.6024
                                                                        43.7504
        31.7504
 09 10 26  0 33  0.0000000  0  8G02G05G10G13G25G29G16G07
  -1517749.91048  -1157437.55146
                  21966083.7344                                   21966078.3364
                                                                        48.7504
        38.5004
 -22161339.07048 -17206572.24247
                  20961811.9924                                   20961808.1994
                                                                        52.7504
        42.7504
 -19543221.76648 -15170536.69946
                  20535976.0634                                   20535972.8284
                                                                        52.5004
        41.7504
  -2995192.94947  -2301786.42244
                  22501800.6094                                   22501797.2934
                                                                        44.7504
        29.5004
 -16823305.14547 -13058403.67645
                  22593714.5084                                   22593711.1214
                                                                        44.5004
        31.5004
 -13782096.70748 -10690039.47746
                  22160222.5234                                   22160219.0474
                                                                        49.5004
        38.0004
  -8153506.43447  -6315539.08244
                  23644517.2894                                   23644512.7034
                                                                        42.0004
        25.2504
 -10973585.51647  -8538913.92245
                  23000079.1644                                   23000075.3164
                                                                        45.0004
        31.5004
 09 10 26  0 33 30.0000000  0  8G02G05G10G13G25G29G16G07
  -1520072.08648  -1159247.05146
                  21965642.0164                                   21965636.8094
                                                                        48.7504
        38.0004
 -22295490.78148 -17311106.05147
                  20936283.6724                                   20936280.1804
                                                                        51.7504
        42.5004
 -19653590.58248 -15256538.36746
                  20514973.6564                                   20514970.5594
                                                                        52.5004
        41.2504
  -3001530.70347  -2306724.94144
                  22500595.1174                                   22500590.9414
                                                                        45.5004
        29.5004
 -16914692.17247 -13129614.34845
                  22576324.2034                                   22576321.1254
                                                                        45.0004
        32.0004
 -13850717.68048 -10743510.39846
                  22147164.2424                                   22147161.3484
                                                                        49.2504
        38.0004
  -8249005.29347  -6389953.80944
                  23626345.0944                                   23626339.9414
                                                                        42.2504
        26.7504
 -11122518.02347  -8654965.20745
                  22971738.2034                                   22971734.3634
                                                                        45.0004
        31.5004
 09 10 26  0 34  0.0000000  0  8G02G05G10G13G25G29G16G07
  -1521976.73848  -1160731.19546
                  21965279.2114                                   21965274.1024
                                                                        48.5004
        38.0004
 -22429129.56648 -17415240.16847
                  20910853.1094                                   20910849.5554
                                                                        52.7504
        42.7504
 -19763375.04348 -15342084.69547
                  20494082.2734                                   20494079.2704
                                                                        52.2504
        42.0004
  -3007416.53147  -2311311.30144
                  22499475.1954                                   22499471.0084
                                                                        45.5004
        29.5004
 -17005472.19147 -13200352.03145
                  22559049.4454                                   22559045.7974
                                                                        45.7504
        30.5004
 -13918719.55148 -10796498.88746
                  22134224.0004                                   22134220.8954
                                                                        49.7504
        38.0004
  -8343872.90647  -6463876.64144
                  23608292.1884                                   23608287.0634
                                                                        43.0004
        25.5004
 -11270917.23847  -8770600.94945
                  22943498.9924                                   22943495.3244
                                                                        45.0004
        32.2504
 09 10 26  0 34 30.0000000  0  8G02G05G10G13G25G29G16G07
  -1523466.66048  -1161892.19146
                  21964996.1884                                   21964990.5824
                                                                        49.0004
        37.7504
 -22562255.28148 -17518974.48447
                  20885520.0394                                   20885516.7734
                                                                        52.5004
        43.0004
 -19872575.44548 -15427175.92647
                  20473302.1254                                   20473298.9654
                                                                        52.2504
        42.0004
  -3012854.33247  -2315548.54744
                  22498440.2114                                   22498436.0984
                                                                        45.0004
        28.7504
 -17095646.21947 -13270617.50845
                  22541890.0864                                   22541886.4804
                                                                        44.5004
        31.7504
 -13986104.14548 -10849006.35546
                  22121400.7974                                   22121398.0904
                                                                        49.0004
        38.0004
  -8438110.21147  -6537308.30944
                  23590359.2194                                   23590354.7154
                                                                        42.5004
        27.0004
 -11418782.00047  -8885820.24245
                  22915361.2194                                   22915357.1454
                                                                        44.5004
        32.0004
 09 10 26  0 35  0.0000000  0  8G02G05G10G13G25G29G16G07
  -1524544.02347  -1162731.70746
                  21964791.0944                                   21964786.0234
                                                                        46.7504
        38.2504
 -22694866.34448 -17622307.77347
                  20860285.2664                                   20860281.7774
                                                                        53.0004
        43.2504
 -19981191.39848 -15511811.73846
                  20452633.5394                                   20452630.2274
                                                                        52.5004
        41.5004
  -3017846.30547  -2319438.39844
                  22497490.1644                                   22497486.5594
                                                                        43.5004
        29.5004
 -17185213.93047 -13340410.52345
                  22524845.8284                                   22524842.1884
                                                                        44.0004
        32.0004
 -14052871.28948 -10901032.65246
                  22108695.8134                                   22108692.6954
                                                                        49.5004
        38.5004
  -8531716.86347  -6610248.57844
                  23572547.0234                                   23572542.7504
                                                                        42.0004
        26.7504
 -11566109.63747  -9000621.00445
                  22887325.4924                                   22887321.7464
                                                                        45.2504
        31.7504
 09 10 26  0 35 30.0000000  0  8G02G05G10G13G25G29G16G07
  -1525211.29747  -1163251.68446
                  21964663.7274                                   21964658.9924
                                                                        47.2504
        38.0004
 -22826962.37148 -17725239.73847
                  20835148.1414                                   20835144.8284
                                                                        52.5004
        43.2504
 -20089222.82848 -15595992.07446
                  20432075.5554                                   20432072.0744
                                                                        52.7504
        41.5004
  -3022395.40647  -2322983.16444
                  22496624.2504                                   22496620.6994
                                                                        43.5004
        29.0004
 -17274175.86747 -13409731.52345
                  22507917.1024                                   22507913.2774
                                                                        45.5004
        31.5004
 -14119023.03948 -10952579.55146
                  22096107.9144                                   22096104.4774
                                                                        49.7504
        37.7504
  -8624693.23047  -6682697.72344
                  23554853.9224                                   23554849.6684
                                                                        42.0004
        26.7504
 -11712898.60247  -9115002.01645
                  22859392.6804                                   22859388.7544
                                                                        46.0004
        31.7504
 09 10 26  0 36  0.0000000  0  8G02G05G10G13G25G29G16G07
  -1525470.74648  -1163453.87946
                  21964614.5084                                   21964609.3444
                                                                        48.7504
        37.5004
 -22958542.63748 -17827769.81647
                  20810109.0474                                   20810105.2344
                                                                        52.5004
        43.0004
 -20196669.73048 -15679716.94146
                  20411628.9694                                   20411625.6684
                                                                        52.7504
        41.7504
  -3026504.80547  -2326185.32444
                  22495842.2734                                   22495838.9104
                                                                        43.5004
        28.7504
 -17362532.35547 -13478580.73845
                  22491103.6484                                   22491099.7734
                                                                        44.7504
        31.2504
 -14184560.46148 -11003647.62946
                  22083636.4614                                   22083633.1764
                                                                        49.2504
        38.0004
  -8717039.27047  -6754655.68744
                  23537280.6954                                   23537276.5234
                                                                        43.7504
        26.5004
 -11859147.42647  -9228962.14145
                  22831562.2664                                   22831557.9264
                                                                        45.0004
        31.7504
 09 10 26  0 36 30.0000000  0  8G02G05G10G13G25G29G16G07
  -1525325.68448  -1163340.84446
                  21964642.2504                                   21964637.2274
                                                                        48.2504
        37.0004
 -23089606.40248 -17929897.42647
                  20785168.8054                                   20785164.8984
                                                                        52.5004
        44.0004
 -20303531.87148 -15762986.14146
                  20391293.6724                                   20391290.3954
                                                                        52.0004
        41.7504
  -3030177.70747  -2329047.33644
                  22495143.5784                                   22495140.0004
                                                                        44.5004
        28.2504
 -17450284.11747 -13546958.74245
                  22474404.5704                                   22474401.0594
                                                                        45.7504
        31.2504
 -14249484.64548 -11054237.88346
                  22071281.6174                                   22071278.1454
                                                                        49.5004
        37.5004
  -8808755.54747  -6826122.92244
                  23519827.6414                                   23519823.1844
                                                                        43.0004
        26.2504
 -12004854.51647  -9342500.13745
                  22803835.8134                                   22803831.7934
                                                                        46.5004
        33.2504
 09 10 26  0 37  0.0000000  0  8G02G05G10G13G25G29G16G07
  -1524775.66048  -1162912.28146
                  21964746.8914                                   21964741.5824
                                                                        48.0004
        36.7504
 -23220150.20748 -18031619.87147
                  20760326.9224                                   20760323.0084
                                                                        53.0004
        43.2504
 -20409806.64848 -15845797.65246
                  20371070.5704                                   20371067.5084
                                                                        52.7504
        41.5004
  -3033414.09047  -2331569.20344
                  22494527.9454                                   22494523.8244
                                                                        43.2504
        28.5004
 -17537428.44147 -13614863.41845
                  22457821.5314                                   22457818.2704
                                                                        45.7504
        32.0004
 -14313794.13348 -11104349.22746
                  22059043.6804                                   22059040.7344
                                                                        48.5004
        37.7504
  -8899839.29347  -6897097.28144
                  23502494.9304                                   23502491.0474
                                                                        42.7504
        25.0004
 -12150014.60947  -9455611.89145
                  22776212.7974                                   22776208.6764
                                                                        47.5004
        32.0004
 09 10 26  0 37 30.0000000  0  8G02G05G10G13G25G29G16G07
  -1523823.98848  -1162170.74646
                  21964927.8284                                   21964922.5204
                                                                        48.2504
        37.5004
 -23350174.42248 -18132937.44947
                  20735584.0864                                   20735580.7934
                                                                        52.5004
        43.5004
 -20515495.13748 -15928152.32446
                  20350958.5084                                   20350955.5124
                                                                        52.5004
        41.7504
  -3036218.34047  -2333754.33644
                  22493993.8054                                   22493990.3364
                                                                        44.2504
        29.2504
 -17623967.20747 -13682296.22745
                  22441354.0634                                   22441350.2034
                                                                        45.0004
        31.7504
 -14377490.89548 -11153983.04346
                  22046922.6564                                   22046919.6024
                                                                        49.5004
        38.0004
  -8990292.19547  -6967580.06644
                  23485282.6254                                   23485278.2274
                                                                        43.5004
        26.5004
 -12294627.69947  -9568297.41445
                  22748692.7814                                   22748689.5704
                                                                        46.2504
        32.0004
 09 10 26  0 38  0.0000000  0  8G02G05G10G13G25G29G16G07
  -1522472.99248  -1161118.04346
                  21965185.3444                                   21965179.8914
                                                                        48.0004
        37.0004
 -23479677.90648 -18233849.24247
                  20710940.3134                                   20710936.8634
                                                                        52.5004
        43.0004
 -20620596.84848 -16010049.75447
                  20330958.5634                                   20330955.1214
                                                                        52.5004
        42.5004
  -3038593.01647  -2335604.74644
                  22493542.2194                                   22493538.0664
                                                                        43.0004
        28.5004
 -17709900.32447 -13749257.09445
                  22425001.4384                                   22424997.9924
                                                                        45.0004
        31.5004
 -14440576.30948 -11203140.48846
                  22034917.9454                                   22034914.9884
                                                                        48.0004
        38.5004
  -9080114.03547  -7037571.11344
                  23468189.3054                                   23468185.8554
                                                                        42.7504
        25.7504
 -12438691.64547  -9680555.02345
                  22721278.6414                                   22721274.8754
                                                                        46.0004
        32.2504
 09 10 26  0 38 30.0000000  0  8G02G05G10G13G25G29G16G07
  -1520725.29748  -1159756.21146
                  21965518.0234                                   21965512.4534
                                                                        48.5004
        37.0004
 -23608660.18448 -18334354.93047
                  20686396.1254                                   20686392.6294
                                                                        53.0004
        43.5004
 -20725112.23848 -16091490.30946
                  20311069.7114                                   20311066.2704
                                                                        52.5004
        41.7504
  -3040540.91847  -2337122.59044
                  22493171.6414                                   22493167.7274
                                                                        44.0004
        27.2504
 -17795228.30947 -13815746.44145
                  22408763.8594                                   22408760.4144
                                                                        45.2504
        31.2504
 -14503051.87948 -11251822.80546
                  22023029.7734                                   22023026.4844
                                                                        49.0004
        38.0004
  -9169305.22347  -7107070.75844
                  23451217.5474                                   23451213.2544
                                                                        42.7504
        26.0004
 -12582204.75047  -9792383.39845
                  22693969.1174                                   22693965.5234
                                                                        46.0004
        31.7504
 09 10 26  0 39  0.0000000  0  8G02G05G10G13G25G29G16G07
  -1518581.98447  -1158086.10246
                  21965925.7814                                   21965920.3954
                                                                        47.5004
        36.7504
 -23737118.83648 -18434452.58647
                  20661951.2584                                   20661947.5664
                                                                        52.5004
        43.0004
 -20829039.62548 -16172472.68446
                  20291293.0864                                   20291289.3554
                                                                        52.5004
        41.5004
  -3042063.64847  -2338309.13744
                  22492881.7664                                   22492878.0084
                                                                        43.0004
        28.5004
 -17879950.27347 -13881763.56645
                  22392642.2734                                   22392638.3204
                                                                        46.0004
        31.5004
 -14564916.79347 -11300029.18746
                  22011256.8134                                   22011253.6524
                                                                        47.7504
        38.0004
  -9257864.84047  -7176078.26244
                  23434365.2504                                   23434360.9104
                                                                        42.2504
        27.0004
 -12725163.64147  -9903779.93745
                  22666765.0164                                   22666760.7704
                                                                        46.5004
        32.0004
 09 10 26  0 39 30.0000000  0  8G02G05G10G13G25G29G16G07
  -1516046.48448  -1156110.41046
                  21966408.1724                                   21966402.8754
                                                                        48.0004
        36.7504
 -23865054.22348 -18534142.50047
                  20637605.7734                                   20637602.2504
                                                                        53.0004
        43.0004
 -20932379.80948 -16252997.50446
                  20271628.2664                                   20271624.7074
                                                                        52.2504
        41.5004
  -3043165.44147  -2339167.68744
                  22492672.4534                                   22492668.0664
                                                                        45.5004
        27.0004
 -17964067.59447 -13947309.53545
                  22376635.3984                                   22376631.4654
                                                                        46.5004
        30.7504
 -14626173.31648 -11347761.46946
                  21999599.9224                                   21999596.5864
                                                                        49.0004
        38.0004
  -9345794.08647  -7244594.56644
                  23417632.1954                                   23417628.7304
                                                                        42.0004
        27.2504
 -12867567.66047 -10014744.09445
                  22639666.3134                                   22639662.2114
                                                                        46.2504
        32.0004
 09 10 26  0 40  0.0000000  0  8G02G05G10G13G25G29G16G07
  -1513119.32848  -1153829.52346
                  21966965.2584                                   21966960.0124
                                                                        49.2504
        37.2504
 -23992463.82448 -18633422.71147
                  20613360.7504                                   20613357.1374
                                                                        53.0004
        43.2504
 -21035131.20348 -16333063.51246
                  20252075.0314                                   20252071.8984
                                                                        52.5004
        41.7504
  -3043847.19947  -2339698.94544
                  22492542.5314                                   22492538.3794
                                                                        44.7504
        28.0004
 -18047578.89147 -14012383.28545
                  22360743.4924                                   22360739.7814
                                                                        45.2504
        31.2504
 -14686821.34048 -11395019.67646
                  21988058.8914                                   21988055.8094
                                                                        48.5004
        38.2504
  -9433091.47747  -7312618.49244
                  23401020.4694                                   23401016.4534
                                                                        42.7504
        25.5004
 -13009413.10947 -10125272.99645
                  22612674.1954                                   22612670.2194
                                                                        46.0004
        31.5004
 09 10 26  0 40 30.0000000  0  8G02G05G10G13G25G29G16G07
  -1509806.85248  -1151248.37946
                  21967595.7584                                   21967590.4774
                                                                        49.0004
        37.2504
 -24119350.44548 -18732295.41447
                  20589214.8524                                   20589211.0124
                                                                        53.0004
        43.7504
 -21137297.37148 -16412673.52046
                  20232633.6414                                   20232630.2384
                                                                        52.5004
        41.7504
  -3044115.64847  -2339908.12944
                  22492491.6804                                   22492487.3594
                                                                        44.7504
        28.7504
 -18130488.34047 -14076988.06245
                  22344966.1644                                   22344962.7194
                                                                        46.5004
        31.5004
 -14746865.22747 -11441807.13346
                  21976633.0474                                   21976630.0084
                                                                        47.7504
        38.0004
  -9519760.86347  -7380153.07844
                  23384527.8364                                   23384524.2384
                                                                        42.0004
        27.7504
 -13150701.87147 -10235368.12545
                  22585788.0314                                   22585783.7034
                                                                        47.0004
        33.0004
 09 10 26  0 41  0.0000000  0  8G02G05G10G13G25G29G16G07
  -1506109.55948  -1148367.41046
                  21968299.0314                                   21968293.8524
                                                                        48.5004
        36.7504
 -24245711.30948 -18830758.42247
                  20565169.2194                                   20565165.6844
                                                                        52.7504
        43.2504
 -21238875.96148 -16491825.66446
                  20213303.9844                                   20213300.3164
                                                                        52.2504
        41.2504
  -3043971.19947  -2339795.56644
                  22492518.8984                                   22492514.6954
                                                                        45.7504
        28.5004
 -18212794.22747 -14141122.53545
                  22329303.7034                                   22329300.3204
                                                                        46.5004
        31.2504
 -14806304.21548 -11488123.18446
                  21965322.0864                                   21965319.2154
                                                                        48.2504
        38.0004
  -9605800.45347  -7447196.91044
                  23368155.2344                                   23368151.6524
                                                                        43.0004
        25.7504
 -13291430.30147 -10345026.64845
                  22559008.6884                                   22559004.1684
                                                                        47.2504
        32.5004
 09 10 26  0 41 30.0000000  0  8G02G05G10G13G25G29G16G07
     73392.50448     82413.36346
                  22268868.5554                                   22268863.1604
                                                                        48.0004
        36.5004
 -22796118.69948 -17701205.75047
                  20841017.3284                                   20841013.9024
                                                                        52.0004
        43.0004
 -19764440.76648 -15342915.12146
                  20493879.6174                                   20493876.1884
                                                                        52.2504
        41.7504
  -1467994.60547  -1111761.87144
                  22792416.9534                                   22792413.6214
                                                                        44.2504
        28.0004
 -16719071.97747 -12977183.12545
                  22613549.8984                                   22613546.3094
                                                                        46.0004
        31.5004
 -13289715.12947 -10306365.42646
                  22253919.4694                                   22253916.1954
                                                                        47.7504
        38.0004
  -8115785.17646  -6286146.05944
                  23651695.3984                                   23651691.9694
                                                                        41.7504
        27.5004
 -11856169.54347  -9226641.64145
                  22832129.2584                                   22832124.9884
                                                                        46.0004
        32.7504
 09 10 26  0 42  0.0000000  0  8G02G05G10G13G25G29G16G07
     77854.50047     85890.19145
                  22269717.7034                                   22269712.0204
                                                                        47.5004
        35.5004
 -22921423.37948 -17798845.75047
                  20817172.8134                                   20817169.2664
                                                                        51.7504
        43.5004
 -19864842.07448 -15421149.91847
                  20474773.9614                                   20474770.4344
                                                                        53.0004
        42.0004
  -1467031.18047  -1111011.17244
                  22792600.3524                                   22792596.7234
                                                                        43.0004
        28.5004
 -16800170.00047 -13040376.39145
                  22598117.3984                                   22598114.2344
                                                                        46.5004
        31.2504
 -13347946.57847 -10351740.60546
                  22242838.3204                                   22242835.1174
                                                                        47.0004
        37.5004
  -8200564.00847  -6352207.47344
                  23635562.7894                                   23635559.2074
                                                                        43.0004
        26.2504
 -11995769.96947  -9335421.19945
                  22805564.0004                                   22805560.1294
                                                                        46.5004
        33.2504
 09 10 26  0 42 30.0000000  0  8G02G05G10G13G25G29G16G07
     82700.20747     89666.03546
                  22270639.7814                                   22270634.5824
                                                                        47.5004
        36.0004
 -23046194.04348 -17896069.64147
                  20793429.7584                                   20793425.9184
                                                                        52.7504
        43.7504
 -19964650.25048 -15498922.53946
                  20455781.1174                                   20455777.6214
                                                                        52.5004
        41.7504
  -1465658.02747  -1109941.20744
                  22792861.7424                                   22792857.8524
                                                                        43.7504
        27.7504
 -16880660.10947 -13103095.95745
                  22582800.6954                                   22582797.1914
                                                                        47.2504
        30.5004
 -13405571.12547 -10396642.89846
                  22231873.0634                                   22231869.6564
                                                                        47.7504
        37.5004
  -8284708.47747  -6417774.58244
                  23619550.3984                                   23619547.0044
                                                                        42.2504
        26.0004
 -12134798.66447  -9443755.26645
                  22779107.7734                                   22779103.5784
                                                                        47.0004
        33.5004
 09 10 26  0 43  0.0000000  0  8G02G05G10G13G25G29G16G07
     87919.27347     93732.83246
                  22271632.9144                                   22271627.5904
                                                                        47.2504
        36.2504
 -23170437.77348 -17992882.93747
                  20769787.2194                                   20769783.5984
                                                                        52.5004
        43.5004
 -20063872.71548 -15576238.74646
                  20436899.5864                                   20436895.9304
                                                                        52.5004
        41.7504
  -1463885.57847  -1108560.07844
                  22793198.9614                                   22793195.4924
                                                                        44.5004
        27.2504
 -16960550.67647 -13165348.35545
                  22567598.0784                                   22567594.6054
                                                                        46.2504
        31.2504
 -13462597.59847 -10441079.09446
                  22221021.1954                                   22221018.1214
                                                                        47.2504
        38.0004
  -8368226.81647  -6482853.77744
                  23603657.3204                                   23603654.0234
                                                                        42.2504
        26.7504
 -12273262.26247  -9551649.00445
                  22752759.0394                                   22752754.5984
                                                                        46.5004
        32.2504
 09 10 26  0 43 30.0000000  0  8G02G05G10G13G25G29G16G07
     93514.03948     98092.35946
                  22272697.6024                                   22272692.4454
                                                                        48.7504
        36.7504
 -23294149.01248 -18089281.30947
                  20746245.5394                                   20746241.9344
                                                                        52.0004
        43.2504
 -20162504.77048 -15653094.89146
                  20418130.5314                                   20418126.9884
                                                                        52.5004
        41.7504
  -1461711.75447  -1106866.18444
                  22793613.1484                                   22793608.4614
                                                                        45.0004
        27.5004
 -17039837.19947 -13227130.04745
                  22552510.3984                                   22552506.5944
                                                                        45.7504
        30.7504
 -13519023.09847 -10485047.04346
                  22210283.6254                                   22210280.8674
                                                                        47.7504
        38.5004
  -8451114.23846  -6547441.39544
                  23587884.0784                                   23587880.7544
                                                                        41.5004
        26.5004
 -12411153.59047  -9659096.77745
                  22726519.3594                                   22726514.8984
                                                                        47.0004
        32.5004
 09 10 26  0 44  0.0000000  0  8G02G05G10G13G25G29G16G07
     99480.89147    102741.80946
                  22273833.5784                                   22273828.2814
                                                                        47.5004
        36.7504
 -23417327.68748 -18185264.68747
                  20722805.2274                                   20722801.6214
                                                                        52.7504
        43.5004
 -20260547.59048 -15729491.89546
                  20399473.4694                                   20399470.4184
                                                                        52.2504
        41.0004
  -1459140.60547  -1104862.67644
                  22794101.9224                                   22794098.2664
                                                                        44.0004
        26.7504
 -17118521.40647 -13288442.41445
                  22537537.3364                                   22537533.7304
                                                                        46.0004
        30.7504
 -13574849.54347 -10528548.16846
                  22199660.3834                                   22199657.4614
                                                                        47.0004
        39.0004
  -8533372.56646  -6611538.81244
                  23572231.2194                                   23572227.2544
                                                                        41.0004
        25.5004
 -12548472.36747  -9766098.41845
                  22700388.0234                                   22700384.1134
                                                                        46.5004
        33.0004
 09 10 26  0 44 30.0000000  0  8G02G05G10G13G25G29G16G07
    105818.14847    107679.89145
                  22275038.7734                                   22275033.6094
                                                                        47.7504
        35.2504
 -23539972.99248 -18280832.45347
                  20699466.9454                                   20699463.1524
                                                                        52.5004
        43.5004
 -20358000.30148 -15805429.06646
                  20380929.1334                                   20380925.3164
                                                                        52.5004
        41.0004
  -1456174.20747  -1102551.18044
                  22794666.9694                                   22794662.6884
                                                                        42.7504
        28.0004
 -17196603.25047 -13349285.40645
                  22522678.6334                                   22522675.2894
                                                                        46.2504
        31.7504
 -13630077.52048 -10571582.94146
                  22189150.8364                                   22189147.9694
                                                                        48.7504
        38.5004
  -8615001.58646  -6675145.85544
                  23556697.5944                                   23556694.0664
                                                                        41.2504
        25.2504
 -12685216.21947  -9872652.05545
                  22674366.7734                                   22674362.6214
                                                                        46.2504
        31.7504
 09 10 26  0 45  0.0000000  0  8G02G05G10G13G25G29G16G07
    112522.98848    112904.43046
                  22276315.0554                                   22276309.6884
                                                                        48.5004
        36.2504
 -23662084.27048 -18375984.10947
                  20676229.5164                                   20676226.0594
                                                                        52.0004
        43.5004
 -20454863.50048 -15880906.89846
                  20362496.2194                                   20362493.1134
                                                                        52.5004
        41.2504
  -1452816.05947  -1099934.43444
                  22795305.9454                                   22795302.1214
                                                                        44.7504
        27.0004
 -17274083.52047 -13409659.64545
                  22507934.6884                                   22507931.2504
                                                                        46.5004
        31.0004
 -13684708.91048 -10614152.82846
                  22178755.0474                                   22178751.9144
                                                                        49.5004
        38.7504
  -8696001.75446  -6738262.86344
                  23541284.1334                                   23541280.5004
                                                                        41.5004
        25.5004
 -12821383.77747  -9978756.64545
                  22648455.2034                                   22648450.6954
                                                                        47.2504
        32.0004
 09 10 26  0 45 30.0000000  0  8G02G05G10G13G25G29G16G07
    119591.42248    118412.25446
                  22277660.5474                                   22277655.1454
                                                                        48.5004
        36.5004
 -23783662.46548 -18470720.36347
                  20653094.0704                                   20653090.5004
                                                                        51.5004
        43.0004
 -20551138.75848 -15955926.59846
                  20344175.7974                                   20344172.5664
                                                                        52.0004
        41.5004
  -1449070.54747  -1097015.83244
                  22796017.6884                                   22796014.2734
                                                                        43.2504
        26.7504
 -17350964.39847 -13469566.81645
                  22493304.5234                                   22493301.2504
                                                                        45.2504
        30.5004
 -13738746.94548 -10656260.41846
                  22168471.9844                                   22168468.4454
                                                                        48.5004
        38.2504
  -8776375.33646  -6800891.63344
                  23525989.2424                                   23525985.4924
                                                                        41.5004
        25.7504
 -12956975.25047 -10084412.30945
                  22622652.8204                                   22622648.7034
                                                                        46.0004
        33.0004
 09 10 26  0 46  0.0000000  0  8G02G05G10G13G25G29G16G07
    127023.05548    124203.12545
                  22279074.4144                                   22279068.7304
                                                                        48.0004
        35.5004
 -23904705.22348 -18565039.38347
                  20630060.3364                                   20630056.7424
                                                                        52.2504
        43.5004
 -20646824.04748 -16030486.59846
                  20325967.6334                                   20325964.5234
                                                                        52.5004
        41.5004
  -1444938.61747  -1093796.14544
                  22796804.2274                                   22796800.4884
                                                                        42.2504
        26.7504
 -17427244.83647 -13529006.11745
                  22478788.9224                                   22478785.2304
                                                                        46.7504
        32.0004
 -13792191.08248 -10697905.21146
                  22158301.5314                                   22158298.8444
                                                                        48.7504
        38.0004
  -8856121.23046  -6863031.27344
                  23510814.0314                                   23510810.2234
                                                                        41.7504
        25.5004
 -13091986.94547 -10189616.23845
                  22596960.7344                                   22596956.6374
                                                                        47.0004
        32.5004
 09 10 26  0 46 30.0000000  0  8G02G05G10G13G25G29G16G07
    134817.27047    130276.50445
                  22280557.2894                                   22280552.0744
                                                                        47.7504
        35.2504
 -24025209.48048 -18658938.80147
                  20607129.5004                                   20607125.8164
                                                                        52.0004
        43.2504
 -20741917.69948 -16104585.55146
                  20307872.0474                                   20307868.6764
                                                                        52.2504
        41.7504
  -1440421.09447  -1090276.00044
                  22797664.1644                                   22797660.8444
                                                                        42.0004
        27.7504
 -17502923.25047 -13587976.29745
                  22464387.7114                                   22464384.1564
                                                                        46.5004
        31.2504
 -13845040.19948 -10739086.34446
                  22148245.0004                                   22148241.5554
                                                                        48.7504
        38.0004
  -8935237.66446  -6924680.45744
                  23495758.6804                                   23495754.8594
                                                                        40.7504
        24.0004
 -13226414.94547 -10294365.30945
                  22571380.2814                                   22571376.0744
                                                                        47.0004
        32.7504
 09 10 26  0 47  0.0000000  0  8G02G05G10G13G25G29G16G07
    142970.56648    136629.70346
                  22282109.1484                                   22282103.8954
                                                                        48.7504
        36.0004
 -24145175.64148 -18752418.93047
                  20584300.5314                                   20584296.8874
                                                                        52.0004
        44.0004
 -20836421.03948 -16178224.50847
                  20289888.4534                                   20289885.2814
                                                                        52.0004
        42.0004
  -1435521.81247  -1086458.37944
                  22798596.9534                                   22798593.2274
                                                                        44.2504
        27.5004
 -17578001.30147 -13646478.67245
                  22450100.7974                                   22450097.5984
                                                                        46.5004
        31.0004
 -13897297.25048 -10779806.11746
                  22138300.4534                                   22138297.1484
                                                                        49.2504
        37.7504
  -9013726.51246  -6985840.58644
                  23480822.7034                                   23480818.8324
                                                                        41.5004
        26.0004
 -13360258.84847 -10398659.24245
                  22545910.4924                                   22545906.7274
                                                                        47.5004
        32.5004
 09 10 26  0 47 30.0000000  0  8G02G05G10G13G25G29G16G07
    151482.41048    143262.30546
                  22283728.6024                                   22283723.3914
                                                                        49.2504
        36.7504
 -24264601.31248 -18845477.89847
                  20561574.5084                                   20561570.7464
                                                                        52.0004
        43.7504
 -20930332.03548 -16251401.89847
                  20272018.0554                                   20272014.6764
                                                                        52.2504
        42.0004
  -1430241.63747  -1082343.94544
                  22799601.5944                                   22799597.7234
                                                                        43.5004
        27.0004
 -17652477.94547 -13704512.41845
                  22435928.3204                                   22435924.7974
                                                                        47.0004
        30.7504
 -13948961.52348 -10820063.97346
                  22128469.3364                                   22128466.4384
                                                                        49.0004
        38.0004
  -9091586.19947  -7046510.48044
                  23466007.2814                                   23466002.5824
                                                                        42.0004
        26.0004
 -13493515.91047 -10502495.91045
                  22520552.1884                                   22520548.1174
                                                                        46.7504
        32.5004
 09 10 26  0 48  0.0000000  0  8G02G05G10G13G25G29G16G07
    160350.14148    150172.20745
                  22285415.8054                                   22285410.6884
                                                                        49.0004
        35.5004
 -24383486.00048 -18938115.32847
                  20538951.7584                                   20538948.1094
                                                                        52.0004
        43.0004
 -21023650.89848 -16324117.89847
                  20254259.8674                                   20254256.5434
                                                                        52.2504
        42.0004
  -1424584.09847  -1077935.46944
                  22800678.2344                                   22800674.0904
                                                                        43.5004
        26.2504
 -17726354.11347 -13762078.25045
                  22421870.4224                                   22421866.8324
                                                                        45.5004
        30.5004
 -14000035.19148 -10859861.63346
                  22118749.9384                                   22118747.2544
                                                                        49.2504
        37.2504
  -9168817.81646  -7106690.93744
                  23451309.7734                                   23451305.6454
                                                                        40.7504
        26.0004
 -13626184.21947 -10605873.80945
                  22495306.3364                                   22495302.1884
                                                                        46.0004
        33.0004
 09 10 26  0 48 30.0000000  0  8G02G05G10G13G25G29G16G07
    169572.66848    157358.59045
                  22287171.2894                                   22287166.1294
                                                                        48.7504
        35.5004
 -24501827.47748 -19030329.46547
                  20516431.8204                                   20516428.6214
                                                                        52.0004
        43.5004
 -21116376.60948 -16396371.71146
                  20236614.5864                                   20236611.3674
                                                                        52.5004
        41.5004
  -1418550.00847  -1073233.56644
                  22801826.0704                                   22801822.4964
                                                                        43.7504
        26.0004
 -17799629.02347 -13819175.59045
                  22407926.6644                                   22407923.0084
                                                                        46.5004
        31.2504
 -14050517.76248 -10899198.70746
                  22109143.5314                                   22109140.5634
                                                                        50.0004
        37.7504
  -9245420.21947  -7166381.10944
                  23436732.8674                                   23436729.1024
                                                                        42.5004
        25.2504
 -13758260.49247 -10708790.37945
                  22470172.9064                                   22470168.8204
                                                                        46.5004
        32.5004
 09 10 26  0 49  0.0000000  0  8G02G05G10G13G25G29G16G07
    179147.02048    164819.11345
                  22288993.1954                                   22288988.0354
                                                                        48.5004
        35.2504
 -24619625.73048 -19122120.31247
                  20494015.7424                                   20494012.2774
                                                                        51.5004
        44.0004
 -21208509.81248 -16468163.81246
                  20219081.9844                                   20219079.0864
                                                                        52.0004
        41.5004
  -1412142.68747  -1068240.82044
                  22803044.3594                                   22803041.2734
                                                                        43.0004
        26.0004
 -17872303.91447 -13875805.35245
                  22394096.9224                                   22394093.4224
                                                                        47.0004
        31.2504
 -14100411.30948 -10938076.78946
                  22099649.2274                                   22099646.1804
                                                                        49.2504
        37.7504
  -9321394.80947  -7225582.07844
                  23422275.6254                                   23422271.6134
                                                                        42.7504
        25.0004
 -13889743.94147 -10811245.01245
                  22445152.7194                                   22445149.2034
                                                                        47.0004
        33.5004
 09 10 26  0 49 30.0000000  0  8G02G05G10G13G25G29G16G07
    189067.73847    172549.50045
                  22290881.0554                                   22290876.0394
                                                                        47.2504
        35.2504
 -24736883.14148 -19213489.72347
                  20471702.2504                                   20471699.0514
                                                                        51.0004
        43.7504
 -21300053.70748 -16539496.72346
                  20201662.1414                                   20201658.7384
                                                                        51.2504
        41.7504
  -1405368.40647  -1062962.16844
                  22804334.5234                                   22804330.1884
                                                                        43.5004
        25.5004
 -17944382.39547 -13931970.39845
                  22380380.8134                                   22380377.7114
                                                                        46.0004
        30.5004
 -14149720.62948 -10976499.64846
                  22090265.8594                                   22090262.4734
                                                                        49.2504
        38.0004
  -9396745.24247  -7284296.68744
                  23407936.4454                                   23407932.8634
                                                                        43.0004
        25.7504
 -14020636.16047 -10913238.93745
                  22420244.6644                                   22420240.5704
                                                                        47.0004
        34.0004
 09 10 26  0 50  0.0000000  0  8G02G05G10G13G25G29G16G07
    199335.96547    180550.68845
                  22292835.2894                                   22292829.7464
                                                                        46.0004
        34.7504
 -24853595.53548 -19304434.44947
                  20449492.6954                                   20449488.7304
                                                                        51.0004
        43.7504
 -21391004.32448 -16610367.33646
                  20184354.8524                                   20184351.4534
                                                                        51.5004
        41.7504
  -1398226.94946  -1057397.39544
                  22805694.1414                                   22805689.4924
                                                                        41.5004
        26.0004
 -18015862.12147 -13987668.88345
                  22366779.0004                                   22366775.2774
                                                                        46.2504
        31.0004
 -14198443.35948 -11014465.41046
                  22080994.2504                                   22080991.2854
                                                                        49.5004
        38.0004
  -9471468.62147  -7342522.68044
                  23393717.5084                                   23393713.3284
                                                                        43.5004
        26.5004
 -14150932.60547 -11014768.63345
                  22395450.1414                                   22395446.1414
                                                                        47.2504
        33.5004
 09 10 26  0 50 30.0000000  0  8G02G05G10G13G25G29G16G07
   1785370.96547   1416422.13745
                  22594647.6254                                   22594642.3014
                                                                        47.0004
        35.5004
 -23394336.32048 -18167349.34447
                  20727180.2664                                   20727176.7544
                                                                        51.0004
        43.5004
 -19905937.09048 -15453172.07846
                  20466953.8204                                   20466950.5904
                                                                        51.2504
        41.5004
    184701.43047    176053.27744
                  23106914.7584                                   23106910.8284
                                                                        43.0004
        26.2504
 -16511318.95747 -12815297.59045
                  22653083.5554                                   22653080.4264
                                                                        45.5004
        30.5004
 -12671157.53948  -9824372.55546
                  22371626.8834                                   22371623.6094
                                                                        48.7504
        37.5004
  -7970141.03147  -6172657.02344
                  23679410.3914                                   23679406.8954
                                                                        42.5004
        26.0004
 -12705204.21147  -9888227.01645
                  22670563.0554                                   22670558.7814
                                                                        47.2504
        33.5004
 09 10 26  0 51  0.0000000  0  8G02G05G10G13G25G29G16G07
   1796330.51647   1424962.04345
                  22596732.9694                                   22596727.5704
                                                                        46.2504
        34.7504
 -23509953.12548 -18257440.35547
                  20705179.2734                                   20705175.8794
                                                                        52.2504
        43.7504
 -19995699.16848 -15523116.55947
                  20449872.5394                                   20449868.9614
                                                                        52.0004
        42.0004
    192573.61747    182187.45344
                  23108413.2664                                   23108409.3324
                                                                        42.5004
        26.2504
 -16581599.15647 -12870061.37945
                  22639710.1024                                   22639706.7464
                                                                        45.7504
        31.0004
 -12718708.75448  -9861425.44146
                  22362578.5234                                   22362574.9844
                                                                        49.2504
        37.0004
  -8043608.91047  -6229904.71544
                  23665430.0554                                   23665426.3874
                                                                        42.7504
        25.7504
 -12834299.84447  -9988821.01245
                  22645996.6254                                   22645993.1254
                                                                        47.5004
        33.2504
 09 10 26  0 51 30.0000000  0  9G02G21G05G10G13G25G29G16G07
   1807628.70347   1433765.81645
                  22598883.0554                                   22598877.9414
                                                                        46.5004
        35.7504
   9203089.05156   7216601.46153
                  24885343.1644                                   24885338.5474
                                                                        39.5004
        20.0004
 -23625024.62948 -18347106.47747
                  20683281.8984                                   20683278.0664
                                                                        52.0004
        43.5004
 -20084870.71148 -15592600.87547
                  20432903.7034                                   20432900.5314
                                                                        51.5004
        42.0004
    200803.50447    188600.34444
                  23109978.5004                                   23109974.9884
                                                                        43.7504
        26.0004
 -16651283.99247 -12924361.25045
                  22626449.4304                                   22626446.2154
                                                                        46.5004
        31.0004
 -12765679.71548  -9898026.20346
                  22353640.2894                                   22353637.1414
                                                                        49.5004
        37.0004
  -8116453.14147  -6286666.44544
                  23651567.9064                                   23651564.3134
                                                                        42.7504
        26.5004
 -12962796.10547 -10088947.97345
                  22621544.9384                                   22621541.0394
                                                                        47.2504
        33.5004
 09 10 26  0 52  0.0000000  0  9G02G21G05G10G13G25G29G16G07
   1819262.31647   1442830.94945
                  22601096.4844                                   22601091.6174
                                                                        46.0004
        35.5004
   9009237.14546   7065548.05943
                  24848454.4844                                   24848449.8984
                                                                        40.0004
        22.0004
 -23739550.64148 -18436347.54347
                  20661488.2274                                   20661484.9534
                                                                        51.7504
        43.2504
 -20173452.34848 -15661625.53146
                  20416047.2034                                   20416043.9024
                                                                        51.7504
        41.5004
    209388.02047    195289.50844
                  23111612.6094                                   23111609.1094
                                                                        43.2504
        26.7504
 -16720375.16447 -12978198.54745
                  22613301.6174                                   22613298.1524
                                                                        45.7504
        31.2504
 -12812072.56648  -9934176.48846
                  22344812.0164                                   22344808.9924
                                                                        48.2504
        37.5004
  -8188675.35247  -6342943.48044
                  23637825.3134                                   23637820.9064
                                                                        43.5004
        25.7504
 -13090692.00847 -10188607.12145
                  22597206.8594                                   22597203.1414
                                                                        46.5004
        33.7504
 09 10 26  0 52 30.0000000  0  9G02G21G05G10G13G25G29G16G07
   1831224.12547   1452151.77045
                  22603373.1094                                   22603368.5354
                                                                        45.7504
        35.0004
   8815513.97746   6914594.97743
                  24811590.4694                                   24811585.7114
                                                                        40.0004
        22.2504
 -23853535.48848 -18525166.91047
                  20639797.7034                                   20639794.1844
                                                                        52.0004
        43.5004
 -20261449.15648 -15730194.47747
                  20399302.0084                                   20399298.7304
                                                                        52.2504
        42.2504
    218318.98846    202248.68044
                  23113311.9534                                   23113308.3054
                                                                        40.2504
        25.2504
 -16788878.18747 -13031577.55145
                  22600266.0634                                   22600262.9144
                                                                        47.0004
        31.5004
 -12857893.77348  -9969881.30946
                  22336092.7194                                   22336089.3134
                                                                        49.0004
        38.0004
  -8260281.15247  -6398740.17644
                  23624198.9774                                   23624194.7114
                                                                        44.0004
        26.7504
 -13217991.04347 -10287801.17245
                  22572982.8914                                   22572978.9884
                                                                        46.7504
        33.2504
 09 10 26  0 53  0.0000000  0  9G02G21G05G10G13G25G29G16G07
   1843514.76247   1461728.84845
                  22605712.0634                                   22605707.2774
                                                                        46.5004
        34.0004
   8621924.16846   6763745.78943
                  24774751.2274                                   24774747.0744
                                                                        39.7504
        22.0004
 -23966975.89548 -18613562.03947
                  20618210.9614                                   20618207.2774
                                                                        51.5004
        43.5004
 -20348858.60948 -15798305.74647
                  20382668.6094                                   20382665.2504
                                                                        51.5004
        42.2504
    227597.11747    209478.37544
                  23115077.4534                                   23115073.5514
                                                                        42.5004
        25.5004
 -16856791.19147 -13084496.78145
                  22587342.6804                                   22587339.5044
                                                                        47.2504
        31.7504
 -12903142.01648 -10005139.66846
                  22327481.9614                                   22327478.7384
                                                                        49.2504
        37.0004
  -8331268.49647  -6454054.99244
                  23610690.0084                                   23610686.3404
                                                                        44.5004
        25.0004
 -13344689.37147 -10386527.14545
                  22548872.8674                                   22548869.1414
                                                                        47.5004
        33.7504
 09 10 26  0 53 30.0000000  0  9G02G21G05G10G13G25G29G16G07
   1856135.90247   1471563.44545
                  22608113.8204                                   22608108.2624
                                                                        47.0004
        34.2504
   8428474.03546   6613005.45743
                  24737938.1484                                   24737934.4344
                                                                        38.7504
        21.0004
 -24079866.98448 -18701529.12547
                  20596728.2664                                   20596724.7774
                                                                        51.2504
        44.0004
 -20435676.60948 -15865956.13746
                  20366147.2424                                   20366144.2814
                                                                        51.2504
        41.7504
    237223.35246    216979.35244
                  23116909.1724                                   23116905.3674
                                                                        41.0004
        25.7504
 -16924110.76247 -13136953.59045
                  22574532.3444                                   22574528.6254
                                                                        47.0004
        31.5004
 -12947814.84448 -10039949.65646
                  22318980.9304                                   22318977.8754
                                                                        49.5004
        37.5004
  -8401633.98847  -6508885.26644
                  23597300.2274                                   23597295.7974
                                                                        43.2504
        24.5004
 -13470781.12147 -10484780.44945
                  22524878.5554                                   22524874.5984
                                                                        47.0004
        33.5004
 09 10 26  0 54  0.0000000  0  9G02G21G05G10G13G25G29G16G07
   1869086.41847   1481654.72345
                  22610578.2424                                   22610572.7504
                                                                        45.2504
        34.2504
   8235166.43446   6462376.13743
                  24701154.1564                                   24701149.3054
                                                                        40.5004
        20.5004
 -24192206.98448 -18789066.78947
                  20575350.6954                                   20575347.4414
                                                                        50.0004
        44.0004
 -20521902.36748 -15933145.04747
                  20349739.4144                                   20349736.1804
                                                                        50.0004
        42.0004
    247196.71946    224750.82044
                  23118807.3444                                   23118803.7234
                                                                        41.2504
        24.7504
 -16990836.55547 -13188947.72345
                  22561834.9924                                   22561831.6684
                                                                        46.2504
        31.7504
 -12991912.73048 -10074311.64146
                  22310589.4064                                   22310586.2734
                                                                        48.0004
        37.2504
  -8471377.33247  -6563230.72744
                  23584028.6484                                   23584024.2034
                                                                        42.5004
        25.2504
 -13596263.87147 -10582559.21145
                  22500999.9614                                   22500996.0354
                                                                        47.2504
        33.0004
 09 10 26  0 54 30.0000000  0  9G02G21G05G10G13G25G29G16G07
   1882365.99247   1492002.45345
                  22613105.3364                                   22613100.0084
                                                                        46.7504
        34.0004
   8042006.21546   6311861.71143
                  24664395.5944                                   24664391.9844
                                                                        41.2504
        21.7504
 -24303993.01648 -18876172.79747
                  20554078.4384                                   20554074.9844
                                                                        51.0004
        44.0004
 -20607534.23048 -15999871.18047
                  20333444.2974                                   20333440.8484
                                                                        51.0004
        42.0004
    257515.00447    232791.03944
                  23120770.9694                                   23120766.9024
                                                                        44.0004
        26.0004
 -17056967.43447 -13240478.27345
                  22549250.3364                                   22549247.3094
                                                                        47.0004
        32.5004
 -13035435.03548 -10108225.13346
                  22302307.5394                                   22302304.1604
                                                                        48.5004
        37.5004
  -8540497.14547  -6617090.32844
                  23570875.2344                                   23570871.6414
                                                                        43.2504
        26.5004
 -13721134.27047 -10679860.80945
                  22477238.2664                                   22477234.1954
                                                                        47.5004
        33.5004
 09 10 26  0 55  0.0000000  0  9G02G21G05G10G13G25G29G16G07
   1895974.14547   1502606.15645
                  22615694.9144                                   22615689.5004
                                                                        45.2504
        34.0004
   7848997.09047   6161464.98843
                  24627667.9144                                   24627663.9494
                                                                        42.5004
        22.7504
 -24415222.52348 -18962845.14847
                  20532912.5634                                   20532908.9224
                                                                        52.5004
        44.0004
 -20692570.01648 -16066132.83246
                  20317262.3914                                   20317258.6564
                                                                        52.2504
        41.5004
    268179.06647    241100.71144
                  23122799.8754                                   23122796.3364
                                                                        42.0004
        26.2504
 -17122501.86347 -13291544.07045
                  22536779.4694                                   22536776.1454
                                                                        45.7504
        31.5004
 -13078381.60548 -10141689.98846
                  22294134.4694                                   22294132.3324
                                                                        48.5004
        37.5004
  -8608991.91847  -6670462.85944
                  23557841.1884                                   23557837.1094
                                                                        43.7504
        27.5004
 -13845388.49247 -10776682.27345
                  22453593.2974                                   22453588.9734
                                                                        47.2504
        34.0004
 09 10 26  0 55 30.0000000  0  9G02G21G05G10G13G25G29G16G07
   1909907.88747   1513463.59445
                  22618345.9774                                   22618341.4774
                                                                        46.2504
        34.0004
   7656140.44547   6011187.09443
                  24590968.7114                                   24590964.4264
                                                                        42.2504
        21.5004
 -24525895.52048 -19049083.85947
                  20511851.9534                                   20511848.5594
                                                                        51.5004
        44.0004
 -20777010.54348 -16131930.64847
                  20301194.0554                                   20301190.7384
                                                                        51.5004
        42.0004
    279184.85546    249676.64144
                  23124894.4454                                   23124890.7304
                                                                        41.2504
        25.0004
 -17187441.57847 -13342146.44945
                  22524422.1724                                   22524418.4104
                                                                        46.0004
        30.2504
 -13120754.19948 -10174707.59846
                  22286071.8834                                   22286068.9734
                                                                        48.5004
        37.5004
  -8676863.30947  -6723349.64144
                  23544925.4304                                   23544921.1724
                                                                        43.5004
        26.2504
 -13969026.11747 -10873023.28545
                  22430065.8834                                   22430061.6764
                                                                        47.0004
        32.7504
 09 10 26  0 56  0.0000000  0  9G02G21G05G10G13G25G29G16G07
   1924164.48447   1524572.57445
                  22621059.4774                                   22621054.2734
                                                                        47.2504
        34.5004
   7463437.68846   5861029.10943
                  24554298.3444                                   24554293.7304
                                                                        41.0004
        20.5004
 -24636012.10248 -19134888.99247
                  20490897.4454                                   20490894.0204
                                                                        51.0004
        43.7504
 -20860856.51648 -16197265.17247
                  20285238.8054                                   20285235.3094
                                                                        51.7504
        42.0004
    290529.83247    258516.87143
                  23127053.4924                                   23127049.7934
                                                                        42.5004
        23.0004
 -17251788.07047 -13392286.59445
                  22512177.1644                                   22512173.9574
                                                                        46.5004
        30.0004
 -13162555.32448 -10207279.89846
                  22278117.3914                                   22278114.2464
                                                                        49.0004
        37.5004
  -8744112.84447  -6775751.87544
                  23532128.3914                                   23532124.1804
                                                                        44.5004
        25.2504
 -14092046.10247 -10968883.02345
                  22406656.1024                                   22406651.6884
                                                                        47.5004
        33.7504
 09 10 26  0 56 30.0000000  0  9G02G21G05G10G13G25G29G16G07
   1938742.70347   1535932.21145
                  22623833.3754                                   22623828.3484
                                                                        46.2504
        34.2504
   7270892.47746   5710993.87143
                  24517658.0314                                   24517653.3754
                                                                        41.0004
        20.7504
 -24745570.35248 -19220259.05547
                  20470049.1884                                   20470045.8794
                                                                        50.5004
        43.7504
 -20944107.34848 -16262135.94547
                  20269396.5164                                   20269393.0594
                                                                        50.7504
        42.0004
    302212.28147    267620.09844
                  23129276.5084                                   23129272.9024
                                                                        42.7504
        24.2504
 -17315540.93447 -13441964.14845
                  22500045.8054                                   22500042.2704
                                                                        46.7504
        31.5004
 -13203785.40248 -10239407.22746
                  22270271.2274                                   22270268.1334
                                                                        49.2504
        37.7504
  -8810739.97747  -6827669.09044
                  23519449.5474                                   23519445.2814
                                                                        43.7504
        25.0004
 -14214445.64147 -11064259.29345
                  22383363.6724                                   22383359.6884
                                                                        46.5004
        33.2504
 09 10 26  0 57  0.0000000  0  9G02G21G05G10G13G25G29G16G07
   1953640.36747   1547540.72345
                  22626668.6174                                   22626663.6174
                                                                        46.2504
        34.5004
   7078507.12146   5561083.21143
                  24481048.0784                                   24481044.0824
                                                                        40.2504
        21.5004
 -24854569.56248 -19305193.50847
                  20449307.0704                                   20449304.1134
                                                                        50.0004
        44.0004
 -21026762.96948 -16326542.92246
                  20253667.7034                                   20253664.4734
                                                                        51.5004
        41.2504
    314228.82447    276983.64144
                  23131562.8204                                   23131559.4734
                                                                        42.5004
        26.2504
 -17378700.81647 -13491179.64845
                  22488026.7734                                   22488023.6524
                                                                        46.2504
        31.0004
 -13244445.68448 -10271090.55146
                  22262533.9774                                   22262530.9414
                                                                        48.2504
        37.0004
  -8876745.55547  -6879102.00844
                  23506889.2424                                   23506884.8524
                                                                        43.7504
        24.5004
 -14336223.45747 -11159151.10245
                  22360190.4694                                   22360186.2704
                                                                        46.5004
        33.2504
 09 10 26  0 57 30.0000000  0  9G02G21G05G10G13G25G29G16G07
   1968853.30947   1559394.98045
                  22629563.3524                                   22629558.2114
                                                                        46.2504
        34.0004
   6886281.52746   5411297.08643
                  24444469.1174                                   24444464.8714
                                                                        40.5004
        22.5004
 -24963010.80548 -19389693.19147
                  20428671.6954                                   20428668.3984
                                                                        51.2504
        44.0004
 -21108825.16848 -16390487.49246
                  20238051.7814                                   20238048.5474
                                                                        50.2504
        41.7504
    326575.77046    286604.66444
                  23133913.0234                                   23133908.8364
                                                                        40.7504
        24.5004
 -17441270.39147 -13539935.15645
                  22476120.3204                                   22476116.9844
                                                                        46.5004
        30.5004
 -13284539.69948 -10302332.66446
                  22254904.2894                                   22254901.5514
                                                                        48.5004
        36.7504
  -8942132.14547  -6930052.58644
                  23494446.2894                                   23494442.5824
                                                                        44.2504
        26.0004
 -14457380.00047 -11253558.79745
                  22337134.9454                                   22337131.2194
                                                                        47.5004
        33.0004
 09 10 26  0 58  0.0000000  0  9G02G21G05G10G13G25G29G16G07
   1984379.39547   1571493.20345
                  22632517.8754                                   22632512.3914
                                                                        45.7504
        33.7504
   6694218.25446   5261637.44943
                  24407920.8984                                   24407916.3954
                                                                        40.0004
        23.7504
 -25070893.57048 -19473757.69947
                  20408142.0944                                   20408138.7384
                                                                        51.7504
        43.5004
 -21190294.05948 -16453969.73846
                  20222548.7664                                   20222545.1764
                                                                        52.0004
        41.2504
    339251.19946    296481.64543
                  23136324.2974                                   23136320.5594
                                                                        40.5004
        22.7504
 -17503250.48447 -13588231.33245
                  22464325.5314                                   22464322.4964
                                                                        46.0004
        30.5004
 -13324068.80948 -10333134.52346
                  22247382.2584                                   22247379.0274
                                                                        48.5004
        37.7504
  -9006900.37947  -6980521.31244
                  23482121.6414                                   23482117.3874
                                                                        43.2504
        25.0004
 -14577913.55147 -11347481.03945
                  22314197.9694                                   22314194.1804
                                                                        47.0004
        33.5004
 09 10 26  0 58 30.0000000  0  9G02G21G05G10G13G25G29G16G07
   2000217.13747   1583834.21945
                  22635531.7504                                   22635526.6334
                                                                        47.0004
        34.0004
   6502320.17246   5112106.50443
                  24371403.4774                                   24371399.1604
                                                                        40.5004
        22.0004
 -25178216.29348 -19557385.78147
                  20387719.4774                                   20387715.9654
                                                                        50.7504
        43.7504
 -21271169.39548 -16516989.48446
                  20207158.6484                                   20207155.3524
                                                                        50.5004
        41.0004
    352251.54347    306611.79743
                  23138798.7034                                   23138794.0354
                                                                        43.0004
        22.5004
 -17564641.16447 -13636068.22745
                  22452643.7194                                   22452640.0204
                                                                        46.0004
        31.5004
 -13363034.07848 -10363497.04346
                  22239967.1414                                   22239964.3954
                                                                        48.5004
        36.5004
  -9071050.30947  -7030508.27044
                  23469914.4694                                   23469910.3524
                                                                        43.2504
        25.2504
 -14697822.52747 -11440916.60545
                  22291380.4384                                   22291376.2234
                                                                        47.5004
        33.2504
 09 10 26  0 59  0.0000000  0  9G02G21G05G10G13G25G29G16G07
   3591783.69547   2824015.96145
                  22938396.8594                                   22938392.0124
                                                                        45.2504
        33.0004
   7886015.66446   6190310.79344
                  24634712.0864                                   24634708.0744
                                                                        39.7504
        24.5004
 -23709554.90648 -18412974.31247
                  20667196.2344                                   20667192.7034
                                                                        51.5004
        43.7504
 -19776029.00848 -15351945.01246
                  20491674.1804                                   20491671.2584
                                                                        51.0004
        41.5004
   1940995.28546   1544593.98843
                  23441126.8914                                   23441122.1884
                                                                        40.5004
        22.7504
 -16050021.55947 -12455845.15645
                  22740865.4144                                   22740862.7704
                                                                        46.5004
        31.2504
 -11826016.08648  -9165820.68046
                  22532452.3444                                   22532449.1294
                                                                        48.5004
        37.0004
  -7559161.18747  -5852412.82044
                  23757617.7664                                   23757613.0434
                                                                        43.5004
        25.0004
 -13241681.12947 -10306260.98045
                  22568474.4774                                   22568470.9144
                                                                        46.7504
        33.2504
 09 10 26  0 59 30.0000000  0  9G02G21G05G10G13G25G29G16G07
   3608236.00847   2836835.72345
                  22941528.1724                                   22941522.9614
                                                                        46.0004
        32.5004
   7694452.82446   6041041.04743
                  24598258.8674                                   24598254.3524
                                                                        40.5004
        22.5004
 -23815757.33648 -18495729.45747
                  20646986.9224                                   20646983.3164
                                                                        50.7504
        44.0004
 -19855719.65248 -15414041.60947
                  20476509.7664                                   20476506.7584
                                                                        51.2504
        42.0004
   1954639.22746   1555225.62944
                  23443722.5164                                   23443718.4384
                                                                        40.5004
        24.5004
 -16110237.83247 -12502766.91045
                  22729407.1024                                   22729404.2934
                                                                        46.5004
        31.5004
 -11863860.18448  -9195309.57446
                  22525250.5084                                   22525247.3674
                                                                        48.5004
        37.2504
  -7622079.10247  -5901439.75844
                  23745644.6414                                   23745640.2664
                                                                        43.5004
        24.5004
 -13360337.53547 -10398720.52345
                  22545895.2664                                   22545891.6414
                                                                        47.0004
        33.5004
 09 10 26  1  0  0.0000000  0  9G02G21G05G10G13G25G29G16G07
   3624992.70747   2849892.93045
                  22944716.6804                                   22944711.3594
                                                                        45.7504
        33.5004
   7503060.81646   5891904.39543
                  24561838.0084                                   24561833.7934
                                                                        40.7504
        19.7504
 -23921398.93048 -18578047.58247
                  20626883.8204                                   20626880.4304
                                                                        51.0004
        43.5004
 -19934817.93448 -15475676.63346
                  20461458.1094                                   20461454.6764
                                                                        51.2504
        41.5004
   1968599.69946   1566103.89143
                  23446378.7424                                   23446375.7274
                                                                        41.7504
        22.5004
 -16169868.41447 -12549232.30945
                  22718060.0944                                   22718056.9534
                                                                        45.0004
        31.2504
 -11901146.19948  -9224363.58246
                  22518155.2034                                   22518152.2584
                                                                        49.0004
        36.5004
  -7684382.59446  -5949987.92243
                  23733788.7274                                   23733783.9614
                                                                        41.2504
        23.5004
 -13478365.89547 -10490690.66445
                  22523435.5634                                   22523431.1764
                                                                        46.5004
        34.0004
 09 10 26  1  0 30.0000000  0  9G02G21G05G10G13G25G29G16G07
   3642052.68047   2863186.25845
                  22947962.9144                                   22947957.7734
                                                                        46.5004
        33.0004
   7311844.67247   5742904.81343
                  24525451.1644                                   24525446.5944
                                                                        42.2504
        22.7504
 -24026476.94548 -18659926.56247
                  20606888.3134                                   20606884.7664
                                                                        50.5004
        43.5004
 -20013322.71948 -15536849.19546
                  20446518.8834                                   20446515.6684
                                                                        50.5004
        41.5004
   1982876.96546   1577229.01643
                  23449096.1724                                   23449092.2854
                                                                        40.5004
        22.0004
 -16228912.10247 -12595240.39545
                  22706824.1804                                   22706820.6484
                                                                        46.7504
        31.0004
 -11937873.70748  -9252982.40646
                  22511166.3134                                   22511163.1454
                                                                        49.0004
        36.5004
  -7746070.07847  -5998056.09043
                  23722049.8524                                   23722044.7734
                                                                        43.7504
        23.0004
 -13595762.89147 -10582168.84845
                  22501095.5784                                   22501091.2274
                                                                        47.2504
        34.2504
 09 10 26  1  1  0.0000000  0  9G02G21G05G10G13G25G29G16G07
   3659409.85947   2876711.15645
                  22951266.0634                                   22951260.7194
                                                                        46.5004
        33.0004
   7120801.47347   5594039.96944
                  24489097.2894                                   24489092.4184
                                                                        42.5004
        25.5004
 -24130994.96148 -18741369.16847
                  20586999.1094                                   20586995.2814
                                                                        48.7504
        44.2504
 -20091238.28548 -15597562.62947
                  20431692.0944                                   20431689.0664
                                                                        48.5004
        42.0004
   1997464.44947   1588595.86744
                  23451872.2894                                   23451868.4104
                                                                        42.5004
        26.0004
 -16287374.10247 -12640795.22345
                  22695698.7734                                   22695695.9844
                                                                        45.0004
        30.7504
 -11974048.67248  -9281170.69146
                  22504282.7814                                   22504279.3484
                                                                        49.2504
        37.0004
  -7807147.24247  -6045648.67243
                  23710427.1954                                   23710422.7304
                                                                        43.2504
        22.7504
 -13712531.56647 -10673157.41845
                  22478874.8054                                   22478871.0204
                                                                        47.2504
        33.5004
 09 10 26  1  1 30.0000000  0  9G02G21G05G10G13G25G29G16G07
   3677063.40247   2890467.22745
                  22954625.0864                                   22954619.7664
                                                                        45.5004
        31.0004
   6929934.76246   5445312.66044
                  24452776.7664                                   24452772.0004
                                                                        41.5004
        24.2504
 -24234951.40248 -18822374.17647
                  20567216.8054                                   20567213.2464
                                                                        51.2504
        44.0004
 -20168563.77048 -15657816.25846
                  20416977.5084                                   20416974.4304
                                                                        51.5004
        41.7504
   2012360.66846   1600203.31343
                  23454706.8594                                   23454703.2234
                                                                        40.0004
        22.5004
 -16345254.14547 -12685896.56645
                  22684684.9384                                   22684681.7424
                                                                        45.5004
        30.7504
 -12009671.77048  -9308928.93046
                  22497503.7894                                   22497500.5124
                                                                        49.5004
        37.0004
  -7867613.57847  -6092765.29744
                  23698920.8914                                   23698916.3054
                                                                        44.2504
        24.0004
 -13828669.28947 -10763654.33245
                  22456774.3754                                   22456770.6994
                                                                        47.0004
        34.0004
 09 10 26  1  2  0.0000000  0  9G02G21G05G10G13G25G29G16G07
   3695008.56647   2904450.29745
                  22958040.3674                                   22958035.5594
                                                                        46.2504
        32.5004
   6739245.24646   5296723.47743
                  24416488.3524                                   24416484.8364
                                                                        41.0004
        22.7504
 -24338347.67648 -18902942.69947
                  20547541.0864                                   20547537.5904
                                                                        50.5004
        43.7504
 -20245301.43048 -15717611.84046
                  20402375.2034                                   20402371.7384
                                                                        51.0004
        41.7504
   2027560.84846   1612047.60543
                  23457598.9454                                   23457595.4104
                                                                        40.2504
        23.0004
 -16402555.24647 -12730546.77345
                  22673780.7194                                   22673777.9574
                                                                        46.0004
        30.7504
 -12044746.72348  -9336260.05146
                  22490829.0394                                   22490826.1334
                                                                        48.7504
        37.0004
  -7927472.10947  -6139408.29744
                  23687529.5234                                   23687525.7074
                                                                        44.0004
        24.2504
 -13944176.85947 -10853660.21945
                  22434794.3364                                   22434790.5124
                                                                        47.5004
        34.2504
 09 10 26  1  2 30.0000000  0  9G02G21G05G10G13G25G29G16G07
   3713243.64547   2918659.47745
                  22961510.4454                                   22961505.6024
                                                                        46.0004
        33.2504
   6548734.91446   5148273.92243
                  24380235.4924                                   24380231.2344
                                                                        40.0004
        22.5004
 -24441183.43048 -18983074.45347
                  20527972.2734                                   20527968.4494
                                                                        51.5004
        43.5004
 -20321451.85248 -15776949.84446
                  20387883.8834                                   20387881.0164
                                                                        51.7504
        41.0004
   2043062.21546   1624126.58643
                  23460548.8914                                   23460545.3674
                                                                        40.5004
        22.7504
 -16459278.71947 -12774746.88745
                  22662987.3444                                   22662983.4924
                                                                        45.2504
        31.0004
 -12079275.21948  -9363165.35546
                  22484258.3054                                   22484255.3284
                                                                        48.5004
        37.0004
  -7986723.90646  -6185578.51244
                  23676254.1094                                   23676250.6844
                                                                        41.2504
        26.0004
 -14059053.37147 -10943174.37945
                  22412933.8054                                   22412929.9454
                                                                        47.0004
        34.2504
 09 10 26  1  3  0.0000000  0  9G02G21G05G10G13G25G29G16G07
   3731765.23847   2933091.99245
                  22965034.7504                                   22965029.8364
                                                                        46.2504
        34.0004
   6358405.44946   4999965.25443
                  24344017.8984                                   24344013.2774
                                                                        41.0004
        22.5004
 -24543458.78548 -19062769.53947
                  20508509.8284                                   20508505.9774
                                                                        49.5004
        43.5004
 -20397016.16848 -15835831.11746
                  20373504.3984                                   20373501.1414
                                                                        49.7504
        41.5004
   2058861.56646   1636437.77743
                  23463555.2194                                   23463551.6294
                                                                        39.2504
        22.5004
 -16515425.95747 -12818497.96545
                  22652302.6174                                   22652298.7384
                                                                        45.0004
        30.7504
 -12113259.65248  -9389646.73046
                  22477791.3834                                   22477788.2344
                                                                        48.2504
        36.0004
  -8045370.68746  -6231277.30143
                  23665094.6174                                   23665090.4414
                                                                        41.2504
        23.5004
 -14173298.52047 -11032196.56245
                  22391193.5554                                   22391190.4224
                                                                        46.5004
        33.5004
 09 10 26  1  3 30.0000000  0  9G02G21G05G10G13G25G29G16G07
   3750570.97347   2947745.87145
                  22968613.6174                                   22968608.6884
                                                                        47.0004
        33.7504
   6168258.70746   4851798.93843
                  24307833.8674                                   24307829.3524
                                                                        41.2504
        22.5004
 -24645173.13748 -19142027.45747
                  20489154.1564                                   20489150.7704
                                                                        50.5004
        43.7504
 -20471994.68048 -15894255.93446
                  20359236.4384                                   20359233.3244
                                                                        50.5004
        41.7504
   2074956.39146   1648979.21143
                  23466618.4224                                   23466614.3794
                                                                        40.2504
        22.7504
 -16570998.19547 -12861801.00445
                  22641727.1644                                   22641723.5434
                                                                        45.5004
        30.0004
 -12146701.60947  -9415705.39146
                  22471427.2894                                   22471424.6134
                                                                        47.7504
        37.0004
  -8103413.62546  -6276505.56243
                  23654048.7814                                   23654045.0274
                                                                        41.2504
        23.5004
 -14286910.76247 -11120725.57045
                  22369574.0164                                   22369570.4224
                                                                        47.2504
        33.7504
 09 10 26  1  4  0.0000000  0  9G02G21G05G10G13G25G29G16G07
   3769657.62947   2962618.67245
                  22972245.3984                                   22972240.4024
                                                                        46.2504
        32.7504
   5978296.24646   4703776.27743
                  24271685.0554                                   24271680.1914
                                                                        41.5004
        22.0004
 -24746327.18748 -19220848.79347
                  20469905.3594                                   20469901.6484
                                                                        50.2504
        44.0004
 -20546388.48848 -15952225.13746
                  20345079.6094                                   20345076.6524
                                                                        49.5004
        41.5004
   2091343.41846   1661748.29743
                  23469736.8204                                   23469733.2234
                                                                        40.5004
        22.7504
 -16625997.50447 -12904657.59045
                  22631261.1804                                   22631257.3014
                                                                        46.0004
        30.2504
 -12179604.37948  -9441343.91446
                  22465166.3594                                   22465163.8754
                                                                        48.2504
        36.5004
  -8160854.74647  -6321264.86744
                  23643118.6954                                   23643114.4304
                                                                        42.0004
        25.0004
 -14399890.03547 -11208761.36745
                  22348075.2814                                   22348071.6254
                                                                        47.5004
        34.0004
 09 10 26  1  4 30.0000000  0  9G02G21G05G10G13G25G29G16G07
   3789024.32047   2977709.49245
                  22975930.4694                                   22975925.7704
                                                                        44.2504
        31.5004
   5788521.69547   4555900.00043
                  24235572.5084                                   24235568.1524
                                                                        43.0004
        23.7504
 -24846918.56648 -19299231.69147
                  20450763.1954                                   20450759.5824
                                                                        51.5004
        43.5004
 -20620196.09448 -16009737.55946
                  20331034.5864                                   20331031.5164
                                                                        51.0004
        41.0004
   2108021.29346   1674744.03543
                  23472910.1334                                   23472906.8874
                                                                        41.2504
        22.5004
 -16680423.30947 -12947067.30945
                  22620904.8444                                   22620901.1174
                                                                        46.2504
        31.0004
 -12211967.83247  -9466562.19146
                  22459007.7734                                   22459004.8874
                                                                        47.5004
        36.7504
  -8217693.76647  -6365555.01243
                  23632302.9534                                   23632298.8954
                                                                        42.5004
        22.5004
 -14512233.58647 -11296301.80145
                  22326696.8204                                   22326692.9104
                                                                        47.0004
        34.5004
 09 10 26  1  5  0.0000000  0  9G02G21G05G10G13G25G29G16G07
   3808668.68847   2993016.80545
                  22979668.4064                                   22979663.7344
                                                                        43.5004
        30.2504
   5598936.95347   4408171.60943
                  24199495.4694                                   24199490.9384
                                                                        42.2504
        22.7504
 -24946947.72348 -19377176.48847
                  20431728.3524                                   20431725.1684
                                                                        50.7504
        43.7504
 -20693419.27048 -16066794.57846
                  20317100.8054                                   20317097.7114
                                                                        50.5004
        41.7504
   2124987.57046   1687964.50444
                  23476139.0084                                   23476135.6414
                                                                        40.0004
        24.5004
 -16734277.47347 -12989031.58645
                  22610656.6724                                   22610652.8164
                                                                        46.5004
        30.5004
 -12243794.80948  -9491362.42646
                  22452951.7114                                   22452948.6644
                                                                        48.2504
        36.7504
  -8273932.33647  -6409377.28944
                  23621600.6094                                   23621596.9414
                                                                        43.0004
        25.0004
 -14623941.23447 -11383346.71945
                  22305439.6724                                   22305435.9184
                                                                        47.5004
        34.2504
 09 10 26  1  5 30.0000000  0  9G02G21G05G10G13G25G29G16G07
   3828584.02747   3008535.05145
                  22983458.7894                                   22983453.7304
                                                                        44.5004
        31.7504
   5409541.14847   4260590.44944
                  24163454.3204                                   24163450.1994
                                                                        43.5004
        26.5004
 -25046417.34848 -19454685.27347
                  20412799.5864                                   20412796.2074
                                                                        49.5004
        43.5004
 -20766061.61748 -16123398.99646
                  20303277.5234                                   20303274.2894
                                                                        50.0004
        41.2504
   2142235.45346   1701404.42643
                  23479421.4064                                   23479417.3164
                                                                        41.0004
        23.2504
 -16787564.54347 -13030553.97744
                  22600516.2034                                   22600512.6334
                                                                        44.5004
        29.5004
 -12275090.27047  -9515748.49246
                  22446995.9694                                   22446993.2274
                                                                        47.7504
        37.0004
  -8329574.98847  -6452735.21144
                  23611012.4694                                   23611008.3834
                                                                        42.5004
        25.2504
 -14735015.36747 -11469897.98845
                  22284302.7814                                   22284299.2114
                                                                        47.0004
        34.5004
 09 10 26  1  6  0.0000000  0  9G02G21G05G10G13G25G29G16G07
   3848772.03147   3024266.07845
                  22987301.0864                                   22987295.7274
                                                                        44.0004
        32.0004
   5220339.05947   4113160.25844
                  24127450.9454                                   24127446.8754
                                                                        42.0004
        25.5004
 -25145324.68748 -19531755.93047
                  20393978.4144                                   20393974.8404
                                                                        50.5004
        44.0004
 -20838120.57848 -16179548.82446
                  20289565.1564                                   20289561.8134
                                                                        49.7504
        41.2504
   2159765.19947   1715063.96943
                  23482757.0554                                   23482753.1644
                                                                        42.0004
        22.0004
 -16840282.71947 -13071633.07845
                  22590484.1484                                   22590480.4494
                                                                        45.7504
        30.2504
 -12305852.97347  -9539719.42646
                  22441142.0864                                   22441139.2774
                                                                        47.7504
        36.2504
  -8384619.93047  -6495627.38744
                  23600537.5394                                   23600533.7814
                                                                        43.7504
        25.0004
 -14845451.87947 -11555952.40245
                  22263287.1724                                   22263283.5124
                                                                        47.5004
        34.0004
 09 10 26  1  6 30.0000000  0 10G02G21G05G10G13G15G25G29G16G07
   3869228.53947   3040206.08645
                  22991193.3204                                   22991188.3834
                                                                        44.0004
        31.2504
   5031332.05146   3965882.09843
                  24091483.6024                                   24091479.4884
                                                                        40.7504
        23.2504
 -25243670.05548 -19608388.68047
                  20375264.0634                                   20375260.4654
                                                                        50.0004
        43.7504
 -20909598.20348 -16235245.69546
                  20275963.2894                                   20275959.9654
                                                                        50.2504
        41.5004
   2177573.50046   1728940.56643
                  23486146.2504                                   23486141.8594
                                                                        41.0004
        22.0004
  10765404.36357   8408783.55554
                  24290562.5554                                   24290559.6024
                                                                        42.5004
        27.0004
 -16892434.27047 -13112270.66045
                  22580560.1094                                   22580556.6454
                                                                        46.2504
        30.0004
 -12336086.57048  -9563278.08246
                  22435388.8444                                   22435385.8634
                                                                        48.0004
        36.0004
  -8439069.84847  -6538055.89144
                  23590176.0864                                   23590172.3444
                                                                        43.7504
        26.0004
 -14955250.78548 -11641509.98445
                  22242393.5234                                   22242389.5864
                                                                        48.0004
        35.2504
 09 10 26  1  7  0.0000000  0 10G02G21G05G10G13G15G25G29G16G07
   3889950.30947   3056353.09045
                  22995136.2664                                   22995131.4024
                                                                        44.7504
        30.7504
   4842520.34446   3818756.14543
                  24055554.4694                                   24055550.0204
                                                                        40.5004
        23.5004
 -25341454.98848 -19684584.72747
                  20356656.0084                                   20356652.3594
                                                                        49.5004
        43.5004
 -20980496.57848 -16290491.19946
                  20262471.9304                                   20262468.6484
                                                                        49.5004
        41.5004
   2195656.07846   1743030.91843
                  23489586.7504                                   23489582.4774
                                                                        41.2504
        21.7504
  10561442.28547   8249852.19944
                  24251748.9844                                   24251747.0594
                                                                        42.0004
        27.2504
 -16944022.17247 -13152469.02745
                  22570743.5164                                   22570739.8204
                                                                        45.5004
        30.5004
 -12365794.20748  -9586426.88346
                  22429735.6254                                   22429732.2344
                                                                        48.0004
        36.5004
  -8492927.35247  -6580022.78944
                  23579927.9304                                   23579923.7544
                                                                        44.0004
        25.5004
 -15064413.22747 -11726571.62945
                  22221620.2114                                   22221616.4654
                                                                        47.7504
        34.5004
 09 10 26  1  7 30.0000000  0 10G02G21G05G10G13G15G25G29G16G07
   3910930.52047   3072701.22745
                  22999128.8204                                   22999124.0354
                                                                        43.0004
        31.0004
   4653902.59446   3671781.29744
                  24019661.0784                                   24019657.1294
                                                                        40.5004
        24.5004
 -25438682.64848 -19760346.52747
                  20338154.5944                                   20338150.7114
                                                                        50.7504
        43.5004
 -21050819.32048 -16345288.13746
                  20249090.0164                                   20249086.7194
                                                                        50.5004
        41.5004
   2214006.88346   1757330.29343
                  23493078.2584                                   23493074.4534
                                                                        41.5004
        21.0004
  10357616.03947   8091026.77344
                  24212962.8054                                   24212960.1174
                                                                        43.2504
        26.7504
 -16995051.00847 -13192231.76245
                  22561032.7114                                   22561029.6644
                                                                        45.5004
        30.0004
 -12394981.67648  -9609170.36346
                  22424181.8524                                   22424178.4884
                                                                        48.2504
        37.0004
  -8546197.12147  -6621531.67644
                  23569790.2894                                   23569786.7774
                                                                        44.2504
        24.2504
 -15172941.06247 -11811138.77345
                  22200968.2114                                   22200964.5274
                                                                        47.7504
        33.7504
 09 10 26  1  8  0.0000000  0 10G02G21G05G10G13G15G25G29G16G07
   5507590.18447   4316851.62945
                  23302963.4224                                   23302957.9614
                                                                        45.5004
        31.2504
   6040911.44146   4752567.41443
                  24283600.3834                                   24283595.4414
                                                                        41.0004
        22.7504
 -23959925.86748 -18608068.52047
                  20619552.3054                                   20619548.7854
                                                                        51.0004
        43.7504
 -19545141.30948 -15172032.55146
                  20535610.8594                                   20535607.9304
                                                                        51.2504
        41.7504
   3808046.18046   2999438.82043
                  23796414.7894                                   23796410.3594
                                                                        41.2504
        22.0004
  11729358.09047   9159916.78944
                  24473996.8444                                   24473993.2034
                                                                        45.0004
        28.2504
 -15470096.96547 -12003955.88345
                  22851221.6414                                   22851218.1994
                                                                        45.0004
        30.0004
 -10848225.52348  -8403905.83245
                  22718519.6174                                   22718515.9494
                                                                        48.0004
        35.5004
  -7023455.31247  -5434979.60944
                  23859558.7344                                   23859555.1174
                                                                        44.5004
        25.7504
 -13705406.94148 -10667605.69145
                  22480230.8674                                   22480226.8364
                                                                        48.0004
        34.7504
 09 10 26  1  8 30.0000000  0 10G02G21G05G10G13G15G25G29G16G07
   5529088.15247   4333603.36745
                  23307053.8054                                   23307048.9964
                                                                        44.5004
        30.5004
   5852696.23447   4605906.21943
                  24247784.3594                                   24247779.1024
                                                                        42.5004
        22.5004
 -24056031.09848 -18682955.71547
                  20601264.0944                                   20601260.6134
                                                                        50.2504
        43.5004
 -19614308.05948 -15225928.72347
                  20522448.9844                                   20522445.6334
                                                                        50.7504
        42.0004
   3826932.28146   3014155.28943
                  23800008.2814                                   23800004.7894
                                                                        41.2504
        22.7504
  11525817.25447   9001313.69144
                  24435263.8984                                   24435260.4734
                                                                        45.5004
        25.0004
 -15520004.91847 -12042845.21144
                  22841724.3674                                   22841720.9804
                                                                        45.5004
        29.2504
 -10876370.81647  -8425837.21945
                  22713163.3284                                   22713160.6684
                                                                        47.5004
        35.2504
  -7075547.01247  -5475570.53544
                  23849646.3444                                   23849641.8164
                                                                        44.2504
        26.7504
 -13812657.48448 -10751177.54345
                  22459821.8134                                   22459817.9344
                                                                        48.0004
        34.0004
 09 10 26  1  9  0.0000000  0 10G02G21G05G10G13G15G25G29G16G07
   5550846.50047   4350557.74645
                  23311194.2114                                   23311189.1254
                                                                        45.0004
        31.5004
   5664690.65647   4459408.34844
                  24212007.6884                                   24212003.0984
                                                                        43.0004
        24.2504
 -24151569.11348 -18757400.93047
                  20583083.8984                                   20583080.7384
                                                                        51.0004
        43.7504
 -19682892.62548 -15279371.24646
                  20509397.7894                                   20509394.4734
                                                                        51.7504
        41.2504
   3846087.75446   3029081.59043
                  23803653.3674                                   23803649.8244
                                                                        40.5004
        22.2504
  11322427.87147   8842828.52744
                  24396560.0004                                   24396556.0084
                                                                        44.7504
        25.5004
 -15569348.92247 -12081295.07844
                  22832334.7194                                   22832330.9844
                                                                        45.5004
        28.7504
 -10903992.79747  -8447360.84845
                  22707907.0314                                   22707904.1684
                                                                        47.2504
        35.7504
  -7127046.24647  -5515699.77344
                  23839846.1024                                   23839841.7274
                                                                        44.5004
        25.5004
 -13919262.48048 -10834246.38745
                  22439535.4844                                   22439531.4264
                                                                        48.0004
        34.5004
 09 10 26  1  9 30.0000000  0 10G02G21G05G10G13G15G25G29G16G07
   5572864.11747   4367714.38345
                  23315384.5704                                   23315379.7464
                                                                        45.5004
        31.7504
   5476897.49246   4313076.00844
                  24176271.8674                                   24176267.4384
                                                                        41.2504
        24.5004
 -24246539.32848 -18831403.70347
                  20565011.6644                                   20565008.1524
                                                                        50.7504
        43.7504
 -19750894.61748 -15332359.80946
                  20496457.4384                                   20496454.3524
                                                                        51.0004
        41.2504
   3865510.10546   3044215.87943
                  23807349.0164                                   23807345.3754
                                                                        38.5004
        21.7504
  11119192.27047   8684463.13744
                  24357885.2274                                   24357882.1884
                                                                        42.0004
        26.2504
 -15618129.91047 -12119306.22344
                  22823052.0864                                   22823048.5394
                                                                        46.2504
        29.2504
 -10931093.25047  -8468478.10246
                  22702750.0164                                   22702747.2114
                                                                        47.5004
        36.0004
  -7177953.97747  -5555368.12144
                  23830158.7664                                   23830154.6094
                                                                        44.7504
        26.0004
 -14025220.51248 -10916811.08245
                  22419371.9614                                   22419368.3164
                                                                        48.2504
        34.5004
 09 10 26  1 10  0.0000000  0 10G02G21G05G10G13G15G25G29G16G07
   5595141.13347   4385073.17245
                  23319623.7344                                   23319618.3014
                                                                        45.0004
        30.5004
   5289322.32446   4166913.55544
                  24140578.0704                                   24140573.4104
                                                                        41.7504
        24.5004
 -24340938.50448 -18904961.51647
                  20547048.1484                                   20547044.7664
                                                                        50.7504
        44.0004
 -19818312.28548 -15384893.06247
                  20483628.1564                                   20483625.1764
                                                                        51.0004
        42.0004
   3885199.89546   3059558.55943
                  23811095.8364                                   23811092.1094
                                                                        40.5004
        20.7504
  10916115.67646   8526221.48444
                  24319240.9304                                   24319238.7704
                                                                        40.5004
        27.5004
 -15666346.21147 -12156877.35944
                  22813876.8754                                   22813873.9614
                                                                        45.0004
        29.5004
 -10957671.20747  -8489188.19545
                  22697692.8754                                   22697689.7074
                                                                        47.0004
        35.5004
  -7228268.77747  -5594574.42244
                  23820583.7894                                   23820579.9654
                                                                        44.5004
        24.7504
 -14130527.68748 -10998868.62145
                  22399333.0474                                   22399329.1684
                                                                        48.5004
        34.7504
 09 10 26  1 10 30.0000000  0 10G02G21G05G10G13G15G25G29G16G07
   5617673.83247   4402630.89844
                  23323911.2034                                   23323906.2774
                                                                        44.5004
        29.2504
   5101966.21547   4020921.81644
                  24104925.0864                                   24104921.1764
                                                                        42.7504
        26.5004
 -24434767.40648 -18978074.94947
                  20529193.1174                                   20529189.6454
                                                                        50.7504
        44.0004
 -19885146.83648 -15436971.93046
                  20470910.2814                                   20470907.0514
                                                                        50.7504
        41.2504
   3905153.94546   3075107.15243
                  23814893.4224                                   23814889.0084
                                                                        41.5004
        21.5004
  10713200.96147   8368106.48044
                  24280627.6564                                   24280625.4494
                                                                        42.0004
        29.5004
 -15714000.02047 -12194010.19945
                  22804808.6414                                   22804804.9924
                                                                        44.5004
        30.2504
 -10983729.25447  -8509493.16845
                  22692733.8754                                   22692731.1564
                                                                        47.0004
        35.5004
  -7277993.01647  -5633320.58644
                  23811121.8914                                   23811117.1054
                                                                        42.5004
        25.5004
 -14235184.56648 -11080419.43745
                  22379417.6174                                   22379413.7034
                                                                        49.0004
        34.5004
 09 10 26  1 11  0.0000000  0 10G02G21G05G10G13G15G25G29G16G07
   5640460.06647   4420386.39145
                  23328247.2894                                   23328242.4494
                                                                        44.5004
        30.0004
   4914830.73847   3875102.00444
                  24069314.5784                                   24069310.4064
                                                                        43.0004
        26.5004
 -24528026.41848 -19050744.31247
                  20511446.2734                                   20511443.0234
                                                                        51.0004
        43.7504
 -19951399.41848 -15488597.32046
                  20458302.5314                                   20458299.5004
                                                                        50.0004
        41.7504
   3925368.89846   3090859.06343
                  23818740.6254                                   23818736.2114
                                                                        41.0004
        21.0004
  10510448.66447   8210117.94545
                  24242045.1414                                   24242042.4184
                                                                        43.0004
        30.5004
 -15761093.38747 -12230706.33245
                  22795847.0164                                   22795843.5044
                                                                        44.7504
        30.2504
 -11009270.27747  -8529395.27345
                  22687873.4064                                   22687870.8204
                                                                        47.0004
        35.7504
  -7327128.59847  -5671608.02744
                  23801771.4064                                   23801767.3244
                                                                        44.0004
        25.5004
 -14339190.87148 -11161463.30145
                  22359625.7664                                   22359621.8954
                                                                        48.2504
        34.0004
 09 10 26  1 11 30.0000000  0 10G02G21G05G10G13G15G25G29G16G07
   5663498.86347   4438338.60544
                  23332631.6174                                   23332626.8794
                                                                        43.7504
        29.5004
   4727920.13347   3729457.38744
                  24033746.6254                                   24033742.2504
                                                                        44.2504
        26.5004
 -24620713.41048 -19122967.94547
                  20493808.7194                                   20493805.6884
                                                                        51.0004
        44.0004
 -20017069.22748 -15539768.59846
                  20445805.8594                                   20445802.9454
                                                                        50.0004
        41.7504
   3945843.68046   3106813.46943
                  23822636.1724                                   23822632.1254
                                                                        41.5004
        21.0004
  10307862.64547   8052258.80544
                  24203494.4144                                   24203491.2304
                                                                        44.0004
        28.7504
 -15807626.05147 -12266965.53145
                  22786992.3134                                   22786989.0984
                                                                        45.0004
        30.5004
 -11034294.59447  -8548894.73445
                  22683111.3054                                   22683108.7304
                                                                        46.7504
        35.7504
  -7375674.94547  -5709436.33244
                  23792533.6644                                   23792529.1484
                                                                        42.0004
        24.7504
 -14442544.42248 -11241998.53545
                  22339958.0394                                   22339954.1524
                                                                        48.0004
        34.7504
 09 10 26  1 12  0.0000000  0 10G02G21G05G10G13G15G25G29G16G07
   5686787.96147   4456486.02044
                  23337063.6094                                   23337058.3014
                                                                        43.7504
        29.7504
   4541236.47347   3583989.62544
                  23998221.7894                                   23998217.4654
                                                                        43.5004
        24.5004
 -24712828.39548 -19194745.85947
                  20476279.8834                                   20476276.3284
                                                                        49.5004
        44.0004
 -20082157.41448 -15590486.66046
                  20433420.0634                                   20433416.6804
                                                                        49.0004
        41.2504
   3966575.80546   3122968.39143
                  23826582.5004                                   23826577.7854
                                                                        40.7504
        21.5004
  10105444.60247   7894530.25844
                  24164975.2034                                   24164971.8164
                                                                        43.7504
        28.0004
 -15853599.50447 -12302788.99645
                  22778244.0784                                   22778240.6134
                                                                        46.5004
        30.5004
 -11058804.60947  -8567993.44146
                  22678447.6174                                   22678444.6954
                                                                        46.7504
        36.2504
  -7423634.06647  -5746807.06643
                  23783407.1094                                   23783402.7424
                                                                        44.2504
        23.7504
 -14545244.44548 -11322024.52745
                  22320414.7734                                   22320411.0824
                                                                        48.0004
        35.0004
 09 10 26  1 12 30.0000000  0 10G02G21G05G10G13G15G25G29G16G07
   5710321.79747   4474824.17245
                  23341541.9844                                   23341536.6294
                                                                        43.7504
        30.0004
   4354779.13347   3438698.20344
                  23962739.8984                                   23962735.6024
                                                                        42.2504
        25.0004
 -24804374.14848 -19266080.21147
                  20458859.2034                                   20458855.7934
                                                                        49.5004
        44.0004
 -20146666.98448 -15640753.85247
                  20421144.2424                                   20421141.0044
                                                                        49.5004
        42.0004
   3987559.61346   3139319.39543
                  23830574.0634                                   23830571.0944
                                                                        40.0004
        20.5004
   9903194.53547   7736932.62144
                  24126488.0634                                   24126484.3674
                                                                        42.2504
        25.0004
 -15899018.04347 -12338180.05545
                  22769600.7194                                   22769597.8444
                                                                        45.0004
        30.7504
 -11082805.39148  -8586695.36345
                  22673880.0864                                   22673876.9224
                                                                        48.0004
        35.2504
  -7471010.28947  -5783723.60944
                  23774392.3524                                   23774387.2074
                                                                        42.5004
        24.0004
 -14647293.09448 -11401542.94945
                  22300995.7114                                   22300992.0474
                                                                        48.2504
        34.5004
 09 10 26  1 13  0.0000000  0 10G02G21G05G10G13G15G25G29G16G07
   5734097.59447   4493350.47744
                  23346066.4924                                   23346061.0984
                                                                        42.5004
        28.7504
   4168550.44947   3293584.94944
                  23927301.9064                                   23927297.2384
                                                                        42.7504
        25.0004
 -24895350.64848 -19336970.98447
                  20441547.1954                                   20441543.6214
                                                                        51.5004
        44.5004
 -20210598.58248 -15690570.68046
                  20408978.6644                                   20408975.2464
                                                                        51.0004
        41.5004
   4008792.57846   3155864.52043
                  23834614.8204                                   23834611.5664
                                                                        38.5004
        21.7504
   9701115.55546   7579468.55944
                  24088033.4534                                   24088030.5434
                                                                        41.0004
        25.2504
 -15943882.93747 -12373139.71545
                  22761063.5784                                   22761060.1884
                                                                        46.7504
        30.5004
 -11106298.51647  -8605001.69945
                  22669409.8834                                   22669407.0124
                                                                        47.7504
        35.2504
  -7517804.88747  -5820186.92243
                  23765487.1804                                   23765482.3554
                                                                        44.5004
        23.0004
 -14748689.69948 -11480553.29345
                  22281700.5704                                   22281696.4264
                                                                        48.0004
        33.7504
 09 10 26  1 13 30.0000000  0 10G02G21G05G10G13G15G25G29G16G07
   5758113.89547   4512064.29345
                  23350636.7664                                   23350631.8984
                                                                        43.2504
        31.0004
   3982553.02347   3148651.89544
                  23891907.4304                                   23891903.5124
                                                                        43.5004
        26.0004
 -24985757.57448 -19407417.94547
                  20424343.1484                                   20424339.7814
                                                                        51.0004
        44.0004
 -20273953.11748 -15739937.85546
                  20396922.4774                                   20396919.4654
                                                                        50.5004
        41.5004
   4030272.53946   3172602.08643
                  23838702.1414                                   23838698.9804
                                                                        40.2504
        21.0004
   9499209.11747   7422138.86744
                  24049612.3834                                   24049609.8874
                                                                        43.0004
        27.5004
 -15988195.61747 -12407669.07444
                  22752630.8914                                   22752627.7344
                                                                        45.5004
        29.5004
 -11129286.29347  -8622914.26245
                  22665035.3984                                   22665032.3094
                                                                        47.0004
        35.2504
  -7564019.41847  -5856198.23443
                  23756692.5474                                   23756687.8674
                                                                        42.2504
        22.5004
 -14849433.59448 -11559055.01645
                  22262529.8754                                   22262525.6254
                                                                        48.2504
        34.7504
 09 10 26  1 14  0.0000000  0 10G02G21G05G10G13G15G25G29G16G07
   5782367.14147   4530963.03544
                  23355251.3444                                   23355247.3874
                                                                        44.5004
        29.5004
   3796787.46547   3003899.50844
                  23856558.0164                                   23856552.4804
                                                                        43.0004
        25.0004
 -25075596.28548 -19477422.13347
                  20407247.2974                                   20407244.1454
                                                                        50.0004
        43.7504
 -20336732.96948 -15788857.22746
                  20384975.8984                                   20384972.5944
                                                                        48.7504
        41.5004
   4051995.75847   3189529.26243
                  23842836.9534                                   23842832.8634
                                                                        42.2504
        21.0004
   9297476.34847   7264944.54345
                  24011224.0164                                   24011221.9144
                                                                        45.0004
        30.7504
 -16031959.15647 -12441770.53945
                  22744303.6564                                   22744299.3444
                                                                        46.2504
        30.0004
 -11151772.35547  -8640435.86345
                  22660756.5864                                   22660753.1024
                                                                        47.2504
        34.5004
  -7609656.96547  -5891759.94143
                  23748007.8364                                   23748003.7504
                                                                        43.0004
        22.2504
 -14949525.82848 -11637048.95745
                  22243482.5164                                   22243478.7504
                                                                        48.7504
        34.7504
 09 10 26  1 14 30.0000000  0 10G02G21G05G10G13G15G25G29G16G07
   5806852.43447   4550042.31645
                  23359910.8834                                   23359906.1684
                                                                        44.5004
        30.5004
   3611254.52347   2859328.38744
                  23821252.2664                                   23821247.2734
                                                                        43.0004
        25.2504
 -25164867.74248 -19546984.29347
                  20390259.6254                                   20390255.8204
                                                                        50.0004
        44.0004
 -20398940.27048 -15837330.44146
                  20373138.5634                                   20373135.0824
                                                                        49.2504
        41.5004
   4073957.78546   3206642.49243
                  23847015.8984                                   23847012.0864
                                                                        41.5004
        21.7504
   9095918.21547   7107886.32445
                  23972869.5164                                   23972866.6024
                                                                        45.2504
        31.0004
 -16075176.55547 -12475446.43444
                  22736079.4454                                   22736075.7544
                                                                        46.2504
        29.7504
 -11173760.45348  -8657569.44545
                  22656572.1484                                   22656568.6564
                                                                        48.0004
        34.7504
  -7654720.74247  -5926874.61343
                  23739432.4694                                   23739428.1524
                                                                        43.5004
        22.5004
 -15048967.16847 -11714535.70345
                  22224559.6254                                   22224555.5944
                                                                        47.7504
        35.0004
 09 10 26  1 15  0.0000000  0 10G02G21G05G10G13G15G25G29G16G07
   5831567.32847   4569300.07444
                  23364614.9774                                   23364609.8524
                                                                        44.5004
        29.2504
   3425956.74247   2714940.52044
                  23785990.8594                                   23785986.6374
                                                                        43.5004
        26.2504
 -25253571.71548 -19616104.27747
                  20373379.7974                                   20373376.1024
                                                                        51.0004
        44.0004
 -20460575.41048 -15885357.83246
                  20361409.5394                                   20361406.2154
                                                                        51.5004
        41.7504
   4096156.15646   3223939.95343
                  23851239.7814                                   23851236.1884
                                                                        40.2504
        19.5004
   8894536.82847   6950965.73445
                  23934547.0554                                   23934544.9304
                                                                        45.0004
        31.2504
 -16117848.93447 -12508697.64845
                  22727959.0164                                   22727955.5314
                                                                        44.5004
        30.0004
 -11195252.56647  -8674316.56645
                  22652482.5784                                   22652479.1414
                                                                        47.0004
        34.7504
  -7699211.91446  -5961543.07043
                  23730966.4304                                   23730962.4454
                                                                        40.2504
        22.5004
 -15147756.91848 -11791514.71945
                  22205760.5164                                   22205756.6484
                                                                        48.2504
        34.5004
 09 10 26  1 15 30.0000000  0 10G02G21G05G10G13G15G25G29G16G07
   5856512.65247   4588738.51644
                  23369361.0554                                   23369356.6684
                                                                        45.7504
        29.7504
   3240896.82047   2570737.98444
                  23750775.2424                                   23750771.0514
                                                                        43.5004
        27.5004
 -25341708.34448 -19684782.18047
                  20356607.6564                                   20356604.4024
                                                                        51.0004
        44.0004
 -20521638.93448 -15932939.80146
                  20349789.5084                                   20349786.2424
                                                                        51.0004
        41.7504
   4118588.73046   3241419.92643
                  23855508.4844                                   23855504.7304
                                                                        40.7504
        20.2504
   8693333.99647   6794183.83644
                  23896260.1804                                   23896257.6214
                                                                        44.0004
        29.5004
 -16159977.64147 -12541525.22745
                  22719941.7664                                   22719938.7194
                                                                        46.0004
        30.0004
 -11216250.48047  -8690678.57445
                  22648486.5784                                   22648483.2774
                                                                        47.0004
        35.0004
  -7743131.55147  -5995766.16844
                  23722608.6724                                   23722604.4344
                                                                        42.0004
        24.5004
 -15245894.37548 -11867985.46145
                  22187085.7974                                   22187082.0234
                                                                        48.0004
        34.0004
 09 10 26  1 16  0.0000000  0 10G02G21G05G10G13G15G25G29G16G07
   5881679.74647   4608348.91844
                  23374150.7814                                   23374146.0004
                                                                        44.5004
        29.0004
   3056074.16447   2426720.31644
                  23715604.6884                                   23715600.8634
                                                                        44.0004
        26.2504
 -25429280.11748 -19753019.92247
                  20339943.4224                                   20339940.0474
                                                                        49.7504
        43.5004
 -20582134.47748 -15980079.18446
                  20338277.7814                                   20338274.4414
                                                                        50.5004
        41.5004
   4141250.75846   3259078.63743
                  23859820.8984                                   23859817.2424
                                                                        39.0004
        18.5004
   8492311.20347   6637542.74644
                  23858006.7274                                   23858003.5204
                                                                        43.5004
        27.2504
 -16201566.87547 -12573932.41044
                  22712027.9224                                   22712024.4654
                                                                        45.2504
        29.0004
 -11236759.07447  -8706659.29745
                  22644583.9064                                   22644580.2734
                                                                        47.7504
        34.7504
  -7786484.44147  -6029547.63743
                  23714358.4924                                   23714354.8054
                                                                        42.7504
        22.5004
 -15343381.55148 -11943949.48845
                  22168534.6094                                   22168530.3794
                                                                        48.0004
        34.0004
 09 10 26  1 16 30.0000000  0 10G02G21G05G10G13G15G25G29G16G07
   5907071.17647   4628134.86744
                  23378982.4064                                   23378977.4104
                                                                        44.2504
        27.7504
   2871493.32447   2282891.14144
                  23680480.1334                                   23680475.7734
                                                                        44.2504
        26.0004
 -25516284.92248 -19820815.87547
                  20323387.1564                                   20323383.6024
                                                                        50.2504
        44.0004
 -20642061.01648 -16026775.18047
                  20326874.2424                                   20326870.6994
                                                                        51.0004
        42.0004
   4164140.64546   3276914.86743
                  23864176.5004                                   23864172.4844
                                                                        38.2504
        20.0004
   8291472.32047   6481045.14844
                  23819787.9304                                   23819784.7034
                                                                        42.7504
        27.7504
 -16242616.21147 -12605918.89844
                  22704215.7424                                   22704213.0234
                                                                        45.7504
        28.2504
 -11256778.73847  -8722259.05145
                  22640774.3284                                   22640771.5164
                                                                        47.5004
        35.0004
  -7829270.26647  -6062887.27744
                  23706217.0004                                   23706213.2664
                                                                        43.2504
        24.2504
 -15440215.93047 -12019404.84445
                  22150107.7584                                   22150103.4494
                                                                        47.7504
        34.5004
 09 10 26  1 17  0.0000000  0 10G02G21G05G10G13G15G25G29G16G07
   7508103.76247   5875692.68844
                  23683649.2734                                   23683644.2544
                                                                        45.0004
        29.2504
   4262584.88347   3366858.64844
                  23945195.9304                                   23945191.7114
                                                                        44.2504
        26.7504
 -24027297.52048 -18660565.94947
                  20606732.0634                                   20606728.3554
                                                                        49.5004
        43.7504
 -19125995.20748 -14845425.19946
                  20615371.5314                                   20615368.3874
                                                                        51.0004
        41.5004
   5762678.47746   4522528.73843
                  24168369.4534                                   24168365.2154
                                                                        40.7504
        21.0004
   9666247.72747   7552298.70344
                  24081399.5784                                   24081396.3244
                                                                        43.0004
        28.7504
 -14707703.52747 -11409883.02344
                  22996300.4614                                   22996297.0704
                                                                        45.7504
        27.5004
  -9700888.56247  -7509877.10945
                  22936850.4064                                   22936847.5234
                                                                        47.5004
        35.5004
  -6296066.91447  -4868183.39544
                  23997976.2034                                   23997972.2704
                                                                        43.2504
        24.0004
 -13960971.82047 -10866747.09845
                  22431598.2734                                   22431594.2814
                                                                        46.7504
        34.5004
