     2.11           OBSERVATION DATA    G (GPS)             RINEX VERSION / TYPE
teqc  2019Feb25                         20221121 12:28:26UTCPGM / RUN BY / DATE
OSX ker:10.11.6|Core i5|gcc 4.3 -m64|OSX ker:10.10+|=+      COMMENT
BIT 2 OF LLI FLAGS DATA COLLECTED UNDER A/S CONDITION       COMMENT
04712900                                                    MARKER NAME
2900                                                        MARKER NUMBER
-Unknown-           -Unknown-                               OBSERVER / AGENCY
0220400471          TRIMBLE R7          2.30                REC # / TYPE / VERS
-Unknown-           TRM39105.00     NONE                    ANT # / TYPE
  1449459.2553 -1709241.3753  5952440.1727                  APPROX POSITION XYZ
        0.0000        0.0000        0.0000                  ANTENNA: DELTA H/E/N
     1     1                                                WAVELENGTH FACT L1/2
    20    L1    L2    L5    L6    L7    L8    C1    P1    C2# / TYPES OF OBSERV
          P2    C5    C6    C7    C8    S1    S2    S5    S6# / TYPES OF OBSERV
          S7    S8                                          # / TYPES OF OBSERV
    30.0000                                                 INTERVAL
    15                                                      LEAP SECONDS
Forced Modulo Decimation to 30 seconds                      COMMENT
 SNR is mapped to RINEX snr flag value [0-9]                COMMENT
  L1 & L2: min(max(int(snr_dBHz/6), 0), 9)                  COMMENT
teqc edited: Beidou # 1 - 37 excluded                       COMMENT
  2009    10    17     0     0    0.0000000     GPS         TIME OF FIRST OBS
                                                            END OF HEADER
 09 10 17  0  0  0.0000000  0  8G02G04G10G05G13G29G23G25
  -9878275.48448  -7681220.77747
                  20518285.1254                                   20518279.0744
                                                                        52.5004
        43.0004
  -1586136.30548  -1229417.15246
                  22133275.6484                                   22133272.0274
                                                                        49.0004
        36.0004
 -18881612.51648 -14697437.25846
                  22111518.2584                                   22111514.7384
                                                                        48.0004
        36.5004
 -13312573.82448 -10332211.37945
                  22940948.0554                                   22940944.2384
                                                                        48.0004
        34.0004
 -11681069.83648  -9081130.13746
                  21261640.3444                                   21261635.6954
                                                                        48.7504
        37.2504
 -16519362.14547 -12858038.00445
                  22706758.4064                                   22706755.1254
                                                                        46.0004
        33.5004
  -3448448.44947  -2677259.33645
                  22812005.4064                                   22811998.9264
                                                                        45.7504
        30.0004
  -6406325.59046  -4956676.51643
                  23641939.1884                                   23641935.2814
                                                                        41.7504
        22.7504
 09 10 17  0  0 30.0000000  0  8G02G04G10G05G13G29G23G25
  -9942570.69948  -7731320.94147
                  20506050.2894                                   20506044.3634
                                                                        51.7504
        42.2504
  -1576147.75048  -1221633.88346
                  22135176.4774                                   22135172.7704
                                                                        48.5004
        36.5004
 -19052360.40247 -14830487.62546
                  22079025.8364                                   22079022.2894
                                                                        47.7504
        36.0004
 -13491807.79747 -10471874.25045
                  22906841.0554                                   22906836.7734
                                                                        47.0004
        34.0004
 -11759300.94148  -9142089.43046
                  21246753.3834                                   21246748.8914
                                                                        49.2504
        37.5004
 -16660109.99247 -12967711.65645
                  22679974.7344                                   22679971.5084
                                                                        46.7504
        34.0004
  -3451284.88347  -2679469.55545
                  22811465.4144                                   22811459.8634
                                                                        45.0004
        30.2504
  -6560628.16846  -5076912.24444
                  23612576.3284                                   23612572.7304
                                                                        41.5004
        24.0004
 09 10 17  0  1  0.0000000  0  8G02G04G10G05G13G29G23G25
 -10006255.66048  -7780945.57447
                  20493931.3284                                   20493925.4494
                                                                        52.2504
        42.5004
  -1565783.03548  -1213557.48045
                  22137148.4774                                   22137144.8054
                                                                        48.7504
        35.5004
 -19222719.58247 -14963235.18746
                  22046607.8984                                   22046604.2234
                                                                        47.2504
        36.0004
 -13670754.00047 -10611312.92245
                  22872788.6334                                   22872784.7114
                                                                        47.5004
        35.7504
 -11836835.74248  -9202506.14846
                  21231999.0554                                   21231994.5664
                                                                        49.0004
        37.0004
 -16800340.17647 -13076982.10545
                  22653290.5704                                   22653286.9654
                                                                        46.0004
        33.5004
  -3453640.41847  -2681305.04745
                  22811017.0634                                   22811010.8134
                                                                        45.5004
        30.0004
  -6714514.52347  -5196823.63744
                  23583292.3284                                   23583289.1094
                                                                        42.5004
        24.5004
 09 10 17  0  1 30.0000000  0  8G02G04G10G05G13G29G23G25
 -10069327.09048  -7830092.18747
                  20481929.3674                                   20481923.1524
                                                                        52.0004
        43.0004
  -1555040.91048  -1205186.99646
                  22139192.8524                                   22139189.3094
                                                                        49.0004
        36.5004
 -19392684.12548 -15095675.21146
                  22014264.6484                                   22014261.1024
                                                                        48.0004
        36.2504
 -13849407.53547 -10750523.49645
                  22838792.3834                                   22838788.5164
                                                                        47.0004
        35.0004
 -11913671.30148  -9262377.97346
                  21217377.8204                                   21217372.9344
                                                                        48.7504
        37.0004
 -16940046.40247 -13185843.96945
                  22626704.7734                                   22626701.6764
                                                                        46.2504
        34.0004
  -3455514.23447  -2682765.17645
                  22810661.1724                                   22810654.4694
                                                                        45.0004
        31.0004
  -6867978.94547  -5316406.34044
                  23554089.4694                                   23554085.7344
                                                                        43.5004
        25.2504
 09 10 17  0  2  0.0000000  0  8G02G04G10G05G13G29G23G25
 -10131788.59848  -7878763.44947
                  20470043.3674                                   20470036.7304
                                                                        51.0004
        42.7504
  -1543927.19548  -1196526.98446
                  22141307.9304                                   22141304.3954
                                                                        48.5004
        36.2504
 -19562255.07448 -15227808.55145
                  21981997.2194                                   21981992.8794
                                                                        48.2504
        35.5004
 -14027769.81647 -10889507.15645
                  22804851.1254                                   22804847.1174
                                                                        46.0004
        35.5004
 -11989811.35248  -9321707.87146
                  21202888.5784                                   21202883.7584
                                                                        49.5004
        37.2504
 -17079231.16847 -13294299.71545
                  22600218.9844                                   22600215.7584
                                                                        46.7504
        35.2504
  -3456912.03147  -2683854.33245
                  22810394.6414                                   22810388.4264
                                                                        45.0004
        31.0004
  -7021022.29347  -5435660.87544
                  23524966.5864                                   23524962.6054
                                                                        43.7504
        27.2504
 09 10 17  0  2 30.0000000  0  8G02G04G10G05G13G29G23G25
 -10193642.59048  -7926961.43047
                  20458273.1644                                   20458267.1134
                                                                        52.0004
        42.2504
  -1532445.17648  -1187579.97746
                  22143492.8054                                   22143489.6604
                                                                        48.7504
        36.0004
 -19731432.30148 -15359634.93046
                  21949803.5704                                   21949799.5314
                                                                        48.5004
        36.0004
 -14205840.89147 -11028264.05545
                  22770965.0394                                   22770961.4804
                                                                        46.5004
        35.5004
 -12065258.06248  -9380497.48046
                  21188531.4384                                   21188526.7734
                                                                        49.7504
        37.0004
 -17217893.98847 -13402348.68445
                  22573832.4534                                   22573828.8524
                                                                        47.5004
        34.0004
  -3457838.29347  -2684576.06244
                  22810218.3524                                   22810212.0274
                                                                        45.7504
        29.5004
  -7173643.83647  -5554586.74244
                  23495923.1254                                   23495919.5824
                                                                        43.0004
        28.0004
 09 10 17  0  3  0.0000000  0  8G02G04G10G05G13G29G23G25
 -10254892.19548  -7974688.41447
                  20446617.5164                                   20446611.4734
                                                                        51.7504
        42.5004
  -1520600.54348  -1178350.40646
                  22145746.5634                                   22145743.0864
                                                                        49.5004
        36.0004
 -19900217.57448 -15491155.96145
                  21917684.9144                                   21917680.7814
                                                                        48.2504
        35.7504
 -14383621.60247 -11166794.48845
                  22737134.7274                                   22737130.4224
                                                                        46.5004
        34.5004
 -12140014.30948  -9438749.07046
                  21174306.0084                                   21174301.2034
                                                                        49.7504
        36.5004
 -17356035.59047 -13509991.48845
                  22547544.8754                                   22547541.5434
                                                                        47.5004
        34.0004
  -3458298.50047  -2684934.67644
                  22810130.4924                                   22810124.4414
                                                                        45.0004
        29.2504
  -7325844.36347  -5673184.52744
                  23466960.6644                                   23466956.6134
                                                                        43.2504
        27.2504
 09 10 17  0  3 30.0000000  0  8G02G04G10G05G13G29G23G25
 -10315533.33248  -8021941.27347
                  20435077.5394                                   20435071.6134
                                                                        52.0004
        42.5004
  -1508390.68448  -1168836.24245
                  22148069.9844                                   22148066.7894
                                                                        49.5004
        35.5004
 -20068604.01648 -15622366.15645
                  21885641.4304                                   21885637.9104
                                                                        48.0004
        35.5004
 -14561106.15247 -11305094.28545
                  22703360.5314                                   22703356.7424
                                                                        46.7504
        35.5004
 -12214076.53148  -9496459.88346
                  21160212.2034                                   21160207.7074
                                                                        50.5004
        36.5004
 -17493650.19947 -13617223.53545
                  22521357.7974                                   22521354.2114
                                                                        46.5004
        34.0004
  -3458290.94947  -2684928.77344
                  22810132.1484                                   22810125.4224
                                                                        45.2504
        29.2504
  -7477616.87146  -5791448.84444
                  23438079.2814                                   23438075.8324
                                                                        41.5004
        26.0004
 09 10 17  0  4  0.0000000  0  8G02G04G10G05G13G29G23G25
 -10375567.87548  -8068721.39147
                  20423653.6024                                   20423647.6524
                                                                        51.7504
        42.5004
  -1495819.60948  -1159040.62945
                  22150462.4064                                   22150458.8714
                                                                        48.5004
        35.7504
 -20236590.61748 -15753264.52745
                  21853674.6804                                   21853670.6884
                                                                        49.5004
        35.5004
 -14738293.23847 -11443162.11346
                  22669643.0474                                   22669639.3404
                                                                        46.0004
        36.2504
 -12287446.61748  -9553631.37546
                  21146250.3834                                   21146245.7624
                                                                        50.5004
        37.0004
 -17630736.93747 -13724044.26245
                  22495270.6024                                   22495266.9614
                                                                        47.0004
        34.2504
  -3457819.85947  -2684561.67644
                  22810221.5944                                   22810215.3834
                                                                        44.7504
        29.0004
  -7628960.78947  -5909379.10944
                  23409278.5944                                   23409275.5984
                                                                        42.7504
        26.2504
 09 10 17  0  4 30.0000000  0  8G02G04G10G05G13G29G23G25
 -10434994.74248  -8115028.01647
                  20412345.2274                                   20412339.2544
                                                                        52.2504
        42.0004
  -1482887.73048  -1148963.85245
                  22152923.4144                                   22152919.9494
                                                                        49.5004
        34.5004
 -20404175.02048 -15883849.80146
                  21821784.4924                                   21821780.9344
                                                                        49.0004
        36.5004
 -14915179.80147 -11580995.58245
                  22635982.2504                                   22635978.4884
                                                                        46.5004
        35.2504
 -12360123.53548  -9610262.78146
                  21132420.5314                                   21132415.8094
                                                                        51.2504
        36.7504
 -17767292.85247 -13830451.44545
                  22469284.9694                                   22469281.4344
                                                                        47.5004
        34.2504
  -3456886.07047  -2683834.06644
                  22810399.7814                                   22810393.3134
                                                                        46.5004
        29.5004
  -7779872.03546  -6026972.19944
                  23380561.3054                                   23380558.0634
                                                                        41.5004
        24.5004
 09 10 17  0  5  0.0000000  0  8G02G04G10G05G13G29G23G25
 -10493815.71948  -8160862.58247
                  20401151.7034                                   20401145.8484
                                                                        51.7504
        42.5004
  -1469598.70348  -1138608.77045
                  22155452.0394                                   22155448.6684
                                                                        49.2504
        35.2504
 -20571355.82448 -16014120.40246
                  21789970.7504                                   21789967.1914
                                                                        48.0004
        36.2504
 -15091765.73447 -11718595.07445
                  22602379.2114                                   22602375.4884
                                                                        46.5004
        35.7504
 -12432109.10548  -9666355.41046
                  21118722.1174                                   21118717.2734
                                                                        50.5004
        36.7504
 -17903317.06247 -13936444.30545
                  22443399.9454                                   22443396.7774
                                                                        47.0004
        34.0004
  -3455493.18047  -2682748.69145
                  22810664.7114                                   22810658.1684
                                                                        45.2504
        30.0004
  -7930349.57046  -6144227.29744
                  23351926.6644                                   23351922.4614
                                                                        41.7504
        24.0004
 09 10 17  0  5 30.0000000  0  8G02G04G10G05G13G29G23G25
 -10552033.60548  -8206227.17647
                  20390073.2114                                   20390067.2274
                                                                        51.5004
        42.0004
  -1455957.13348  -1127978.97345
                  22158048.0784                                   22158044.4774
                                                                        49.7504
        34.7504
 -20738134.22348 -16144077.55146
                  21758233.8674                                   21758230.2154
                                                                        48.2504
        36.0004
 -15268052.04747 -11855961.12146
                  22568833.2584                                   22568829.6684
                                                                        46.5004
        36.0004
 -12503406.26248  -9721911.66846
                  21105154.7504                                   21105150.0704
                                                                        51.5004
        36.5004
 -18038810.61347 -14042023.66045
                  22417616.7584                                   22417613.4924
                                                                        47.0004
        33.7504
  -3453646.38347  -2681309.67244
                  22811016.6644                                   22811010.7974
                                                                        46.5004
        29.5004
  -8080393.82047  -6261144.85244
                  23323374.1254                                   23323370.2234
                                                                        42.0004
        24.5004
 09 10 17  0  6  0.0000000  0  8G02G04G10G05G13G29G23G25
 -10609646.71948  -8251120.51647
                  20379109.8914                                   20379103.9774
                                                                        51.0004
        42.2504
  -1441963.02348  -1117074.50045
                  22160711.1024                                   22160707.5474
                                                                        49.2504
        35.7504
 -20904505.80948 -16273717.69546
                  21726574.5554                                   21726570.9454
                                                                        48.5004
        37.0004
 -15444034.38747 -11993090.32445
                  22535344.7894                                   22535341.0084
                                                                        47.5004
        35.0004
 -12574012.89548  -9776929.80546
                  21091718.7504                                   21091713.9884
                                                                        50.7504
        36.2504
 -18173768.99247 -14147186.00445
                  22391935.0944                                   22391931.4414
                                                                        46.5004
        35.0004
  -3451346.62147  -2679517.64545
                  22811453.5704                                   22811447.8284
                                                                        46.5004
        30.2504
  -8230000.09447  -6377721.16044
                  23294905.3674                                   23294901.5944
                                                                        42.0004
        25.5004
 09 10 17  0  6 30.0000000  0  8G02G04G10G05G13G29G23G25
 -10666652.93448  -8295540.92647
                  20368261.8674                                   20368255.9654
                                                                        52.0004
        42.2504
  -1427615.75848  -1105894.85245
                  22163441.0784                                   22163437.5394
                                                                        49.0004
        35.5004
 -21070465.70748 -16403037.03546
                  21694993.1724                                   21694989.6844
                                                                        49.0004
        36.2504
 -15619707.51247 -12129978.36745
                  22501915.0084                                   22501911.6134
                                                                        46.7504
        35.7504
 -12643927.25848  -9831408.53146
                  21078414.4304                                   21078409.7774
                                                                        51.2504
        36.7504
 -18308188.11747 -14251928.15645
                  22366355.7664                                   22366352.2734
                                                                        47.2504
        34.5004
  -3448593.53547  -2677372.37144
                  22811977.2424                                   22811971.2974
                                                                        46.5004
        29.2504
  -8379163.39147  -6493952.25044
                  23266521.0234                                   23266516.7624
                                                                        42.7504
        26.0004
 09 10 17  0  7  0.0000000  0  8G02G04G10G05G13G29G23G25
  -9147633.91848  -7111889.72347
                  20657321.6414                                   20657315.6484
                                                                        52.7504
        43.0004
    162498.72348    133155.39845
                  22466030.2584                                   22466026.3554
                                                                        48.2504
        35.2504
 -19660589.93448 -15304432.50446
                  21963283.7344                                   21963279.8284
                                                                        48.2504
        36.5004
 -14219647.72348 -11039022.63346
                  22768338.5474                                   22768334.3714
                                                                        48.0004
        36.2504
 -11137730.49248  -8657748.68046
                  21365034.0704                                   21365029.5434
                                                                        51.5004
        37.2504
 -16866644.47747 -13128647.28145
                  22640672.2114                                   22640668.8094
                                                                        45.5004
        35.2504
  -1869972.59847  -1447278.10944
                  23112378.6564                                   23112372.5664
                                                                        45.5004
        27.2504
  -6952459.51647  -5382234.92244
                  23538013.0554                                   23538009.1054
                                                                        43.0004
        26.2504
 09 10 17  0  7 30.0000000  0  8G02G04G10G05G13G29G23G25
  -9203434.64148  -7155370.77747
                  20646703.0004                                   20646697.1954
                                                                        51.7504
        42.5004
    177538.71548    144874.88345
                  22468891.5864                                   22468888.5634
                                                                        49.5004
        35.2504
 -19825728.30148 -15433111.66446
                  21931859.0164                                   21931855.0274
                                                                        49.0004
        37.0004
 -14394705.35247 -11175431.29346
                  22735025.7584                                   22735021.8874
                                                                        47.5004
        36.0004
 -11206269.14148  -8711155.39146
                  21351991.6094                                   21351987.0434
                                                                        51.0004
        36.5004
 -16999986.30947 -13232549.94145
                  22615298.2034                                   22615295.1294
                                                                        46.2504
        35.5004
  -1866327.21947  -1444437.54744
                  23113072.4454                                   23113065.8794
                                                                        45.2504
        27.0004
  -7100737.10246  -5497775.89144
                  23509796.9924                                   23509792.9184
                                                                        40.7504
        27.0004
 09 10 17  0  8  0.0000000  0  8G02G04G10G05G13G29G23G25
  -9258632.75848  -7198382.30147
                  20636199.0554                                   20636193.0784
                                                                        52.5004
        42.2504
    192922.37948    156862.14545
                  22471819.5004                                   22471816.1914
                                                                        48.7504
        35.2504
 -19990452.56248 -15561468.15246
                  21900512.9064                                   21900509.1484
                                                                        48.5004
        36.7504
 -14569451.20347 -11311596.84046
                  22701772.5634                                   22701769.0314
                                                                        47.7504
        36.0004
 -11274120.16448  -8764026.29346
                  21339080.3444                                   21339075.8054
                                                                        50.7504
        36.5004
 -17132786.13347 -13336030.31645
                  22590027.5084                                   22590024.0124
                                                                        46.2504
        35.5004
  -1862239.06247  -1441251.97344
                  23113850.6804                                   23113844.1914
                                                                        44.5004
        27.2504
  -7248567.52046  -5612968.39144
                  23481664.8284                                   23481661.7814
                                                                        41.7504
        26.5004
 09 10 17  0  8 30.0000000  0  8G02G04G10G05G13G29G23G25
  -9313228.63348  -7240924.56247
                  20625810.0394                                   20625803.8484
                                                                        52.7504
        42.5004
    208648.05948    169115.89845
                  22474811.7504                                   22474808.5044
                                                                        48.0004
        35.2504
 -20154760.12948 -15689500.00046
                  21869246.2974                                   21869242.4964
                                                                        48.7504
        36.7504
 -14743883.38348 -11447517.91846
                  22668579.2274                                   22668575.2934
                                                                        48.5004
        36.0004
 -11341283.65248  -8816361.45346
                  21326299.2114                                   21326294.9224
                                                                        51.2504
        36.7504
 -17265041.82847 -13439086.67645
                  22564859.6954                                   22564856.4734
                                                                        46.5004
        34.5004
  -1857710.71147  -1437723.34044
                  23114712.9924                                   23114706.4694
                                                                        46.2504
        27.7504
  -7395948.33246  -5727810.57044
                  23453619.0864                                   23453615.9264
                                                                        41.2504
        25.5004
 09 10 17  0  9  0.0000000  0  8G02G04G10G05G13G29G23G25
  -9367225.27748  -7282999.89547
                  20615535.0474                                   20615529.0704
                                                                        52.0004
        43.0004
    224710.81647    181632.30945
                  22477868.5864                                   22477864.9964
                                                                        47.0004
        34.0004
 -20318651.62948 -15817207.54746
                  21838058.1334                                   21838054.6454
                                                                        48.7504
        37.0004
 -14918002.53948 -11583195.02746
                  22635445.1334                                   22635441.3134
                                                                        48.0004
        36.0004
 -11407762.67648  -8868163.29746
                  21313648.5474                                   21313643.9384
                                                                        51.7504
        36.0004
 -17396753.89847 -13541719.45745
                  22539795.5864                                   22539792.5044
                                                                        45.7504
        35.0004
  -1852746.59047  -1433855.17644
                  23115657.0634                                   23115650.4384
                                                                        45.0004
        29.2504
  -7542879.44546  -5842302.27344
                  23425658.9924                                   23425656.1764
                                                                        39.7504
        26.0004
 09 10 17  0  9 30.0000000  0  8G02G04G10G05G13G29G23G25
  -9420621.55148  -7324607.41846
                  20605374.2194                                   20605367.9454
                                                                        52.2504
        41.7504
    241110.15648    194410.98445
                  22480989.5634                                   22480985.7854
                                                                        48.0004
        34.0004
 -20482123.79348 -15944588.38346
                  21806950.6724                                   21806947.0434
                                                                        49.2504
        37.5004
 -15091805.34048 -11718625.68046
                  22602371.3594                                   22602367.8674
                                                                        48.0004
        36.0004
 -11473556.87548  -8919431.53946
                  21301128.5004                                   21301123.7894
                                                                        51.0004
        36.7504
 -17527919.64147 -13643926.59845
                  22514835.7814                                   22514832.6724
                                                                        47.0004
        35.0004
  -1847348.19947  -1429648.63745
                  23116684.4064                                   23116678.4884
                                                                        46.2504
        30.2504
  -7689357.46547  -5956440.96144
                  23397785.5634                                   23397782.2034
                                                                        42.0004
        27.2504
 09 10 17  0 10  0.0000000  0  8G02G04G10G05G13G29G23G25
  -9473417.35248  -7365747.01647
                  20595327.2034                                   20595321.3794
                                                                        52.2504
        42.5004
    257844.23848    207450.53145
                  22484173.7584                                   22484170.1954
                                                                        48.5004
        34.5004
 -20645174.23048 -16071640.64846
                  21775923.2584                                   21775919.2234
                                                                        49.5004
        37.5004
 -15265289.28948 -11853807.84046
                  22569358.3134                                   22569354.7234
                                                                        48.5004
        36.0004
 -11538666.42248  -8970166.28146
                  21288738.5234                                   21288733.9844
                                                                        51.0004
        36.5004
 -17658536.02047 -13745705.55945
                  22489980.5004                                   22489976.9924
                                                                        47.2504
        35.5004
  -1841517.98847  -1425105.64144
                  23117793.4304                                   23117787.4024
                                                                        44.2504
        27.5004
  -7835379.71947  -6070224.58244
                  23369998.8914                                   23369995.3134
                                                                        42.0004
        28.0004
 09 10 17  0 10 30.0000000  0  8G02G04G10G05G13G29G23G25
  -9525613.74648  -7406419.55947
                  20585394.4924                                   20585388.5124
                                                                        52.0004
        42.0004
    274910.97748    220749.26245
                  22487421.2814                                   22487417.9144
                                                                        48.7504
        34.2504
 -20807801.26648 -16198363.02346
                  21744976.3054                                   21744972.2584
                                                                        48.2504
        37.0004
 -15438452.83248 -11988740.33646
                  22536406.0234                                   22536402.5594
                                                                        48.2504
        36.2504
 -11603091.74248  -9020367.85946
                  21276478.8594                                   21276474.2664
                                                                        50.7504
        36.7504
 -17788601.87547 -13847055.53145
                  22465229.6024                                   22465225.9804
                                                                        47.0004
        35.5004
  -1835257.96947  -1420227.61744
                  23118984.6804                                   23118978.8794
                                                                        44.0004
        27.7504
  -7980943.81647  -6183651.17644
                  23342298.8914                                   23342295.1094
                                                                        43.5004
        28.0004
 09 10 17  0 11  0.0000000  0  8G02G04G10G05G13G29G23G25
  -9577211.76648  -7446625.80947
                  20575575.8594                                   20575569.6884
                                                                        51.2504
        42.0004
    292307.35948    234304.86745
                  22490731.5234                                   22490728.0434
                                                                        48.0004
        34.0004
 -20970003.40648 -16324754.30946
                  21714110.1884                                   21714106.2424
                                                                        49.0004
        37.2504
 -15611294.89847 -12123422.34846
                  22503515.4064                                   22503511.8954
                                                                        47.7504
        36.0004
 -11666834.48448  -9070037.61346
                  21264349.2034                                   21264344.5314
                                                                        50.0004
        36.5004
 -17918116.35547 -13947975.85945
                  22440583.8914                                   22440580.6334
                                                                        46.5004
        34.2504
  -1828572.02347  -1415017.74244
                  23120256.5164                                   23120250.7154
                                                                        43.2504
        28.0004
  -8126048.04347  -6296719.33244
                  23314686.6094                                   23314682.6844
                                                                        43.7504
        27.2504
 09 10 17  0 11 30.0000000  0  8G02G04G10G05G13G29G23G25
  -9628210.73048  -7486365.26247
                  20565870.9694                                   20565865.1334
                                                                        51.5004
        42.7504
    310032.92648    248116.96945
                  22494104.6484                                   22494101.3914
                                                                        48.5004
        33.5004
 -21131777.19548 -16450811.82446
                  21683325.4224                                   21683321.6604
                                                                        49.5004
        37.0004
 -15783812.14847 -12257851.28946
                  22470686.5784                                   22470682.5084
                                                                        47.7504
        36.5004
 -11729893.84048  -9119174.80146
                  21252349.2974                                   21252344.7344
                                                                        50.5004
        36.0004
 -18047075.79747 -14048463.62945
                  22416043.3674                                   22416040.3094
                                                                        47.7504
        35.5004
  -1821461.44947  -1409477.02044
                  23121610.2034                                   23121604.3554
                                                                        43.7504
        27.5004
  -8270689.07047  -6409426.64844
                  23287162.2734                                   23287158.0904
                                                                        43.0004
        27.2504
 09 10 17  0 12  0.0000000  0  8G02G04G10G05G13G29G23G25
  -9678612.14548  -7525639.08247
                  20556279.8594                                   20556274.1644
                                                                        51.5004
        42.2504
    328084.25448    262182.90645
                  22497539.6564                                   22497536.1954
                                                                        49.0004
        34.2504
 -21293121.78148 -16576534.86346
                  21652622.9924                                   21652619.3834
                                                                        49.2504
        37.2504
 -15956003.35247 -12392026.17646
                  22437919.7274                                   22437915.8014
                                                                        47.5004
        36.5004
 -11792271.85548  -9167781.06646
                  21240479.1954                                   21240474.7194
                                                                        51.0004
        36.2504
 -18175479.91448 -14148518.80145
                  22391609.2114                                   22391605.4064
                                                                        48.2504
        35.0004
  -1813929.77047  -1403608.21944
                  23123044.0864                                   23123037.1214
                                                                        44.5004
        28.5004
  -8414865.25847  -6521771.66844
                  23259726.3914                                   23259721.8364
                                                                        43.2504
        26.2504
 09 10 17  0 12 30.0000000  0  8G02G04G10G05G13G29G23G25
  -9728418.19548  -7564448.98847
                  20546802.1094                                   20546796.4454
                                                                        51.5004
        42.2504
    346458.01648    276500.07045
                  22501036.3984                                   22501032.6804
                                                                        48.5004
        34.5004
 -21454036.92648 -16701923.28946
                  21622001.5554                                   21621998.1644
                                                                        48.7504
        37.7504
 -16127867.85948 -12525946.45746
                  22405215.3364                                   22405210.6764
                                                                        48.2504
        37.0004
 -11853970.55948  -9215857.94546
                  21228738.2814                                   21228733.8054
                                                                        50.2504
        36.7504
 -18303328.02347 -14248140.66845
                  22367280.3984                                   22367276.6294
                                                                        47.2504
        35.7504
  -1805980.63347  -1397414.08644
                  23124556.5554                                   23124549.9414
                                                                        44.7504
        27.7504
  -8558576.23847  -6633754.23444
                  23232379.2974                                   23232374.6054
                                                                        42.5004
        25.5004
 09 10 17  0 13  0.0000000  0  8G02G04G10G05G13G29G23G25
  -9777632.19148  -7602797.54347
                  20537437.0004                                   20537431.3404
                                                                        50.5004
        42.0004
    365149.23848    291064.63745
                  22504593.5474                                   22504589.9024
                                                                        48.5004
        34.0004
 -21614523.24248 -16826977.55546
                  21591462.3834                                   21591458.5554
                                                                        49.2504
        37.5004
 -16299407.44947 -12659613.66046
                  22372571.7504                                   22372567.8404
                                                                        46.7504
        37.2504
 -11914993.26248  -9263408.13346
                  21217125.8134                                   21217121.4144
                                                                        50.7504
        36.2504
 -18430621.25847 -14347330.14545
                  22343057.4924                                   22343053.5784
                                                                        47.5004
        35.5004
  -1797619.42247  -1390898.84844
                  23126147.5704                                   23126140.7114
                                                                        44.0004
        27.7504
  -8701822.19547  -6745374.41044
                  23205119.5864                                   23205116.0554
                                                                        42.0004
        25.2504
 09 10 17  0 13 30.0000000  0  8G02G04G10G05G13G29G23G25
  -9826250.54748  -7640681.96547
                  20528185.0474                                   20528179.3164
                                                                        51.7504
        42.0004
    384159.96947    305878.13745
                  22508211.1954                                   22508207.4264
                                                                        47.5004
        34.0004
 -21774574.64848 -16951692.95746
                  21561005.2034                                   21561001.5984
                                                                        49.0004
        37.5004
 -16470615.44947 -12793022.51246
                  22339992.2974                                   22339988.1054
                                                                        47.5004
        37.0004
 -11975336.85948  -9310429.12946
                  21205643.0314                                   21205638.4064
                                                                        50.7504
        36.5004
 -18557354.07048 -14446082.95745
                  22318940.8674                                   22318937.7464
                                                                        48.0004
        35.5004
  -1788844.81247  -1384061.46144
                  23127817.5004                                   23127810.5274
                                                                        43.2504
        26.2504
  -8844596.75447  -6856627.28144
                  23177950.3284                                   23177947.2974
                                                                        42.2504
        27.0004
 09 10 17  0 14  0.0000000  0  8G02G04G10G05G13G29G23G25
  -9874276.24248  -7678104.57447
                  20519046.4064                                   20519040.3054
                                                                        51.5004
        42.0004
    403485.76647    320937.19145
                  22511888.1484                                   22511884.9844
                                                                        47.7504
        33.2504
 -21934191.28148 -17076069.54746
                  21530631.3054                                   21530627.5514
                                                                        49.2504
        37.5004
 -16641492.29747 -12926173.33646
                  22307475.1954                                   22307471.3594
                                                                        47.7504
        37.0004
 -12035004.24248  -9356923.12946
                  21194288.6724                                   21194284.2934
                                                                        51.0004
        36.0004
 -18683526.74648 -14544399.29345
                  22294930.6484                                   22294927.4654
                                                                        49.0004
        35.5004
  -1779661.78547  -1376905.82444
                  23129564.3054                                   23129558.3554
                                                                        44.0004
        26.0004
  -8986900.12547  -6967512.95744
                  23150871.5234                                   23150867.8984
                                                                        43.7504
        27.2504
 09 10 17  0 14 30.0000000  0  8G02G04G10G05G13G29G23G25
  -9921708.40648  -7715064.69946
                  20510020.0784                                   20510014.2704
                                                                        51.7504
        41.7504
    423126.25848    336241.45745
                  22515626.2194                                   22515622.6094
                                                                        48.2504
        33.5004
 -22093370.09448 -17200105.02046
                  21500340.8444                                   21500337.0274
                                                                        49.7504
        37.2504
 -16812034.27047 -13059063.17646
                  22275022.3754                                   22275018.3954
                                                                        47.5004
        36.5004
 -12093995.17648  -9402890.06645
                  21183062.9774                                   21183058.9924
                                                                        50.7504
        35.5004
 -18809136.03148 -14642276.65645
                  22271028.3674                                   22271024.6454
                                                                        48.5004
        35.5004
  -1770070.86747  -1369432.31244
                  23131389.7734                                   23131383.3094
                                                                        43.2504
        25.2504
  -9128728.29747  -7078028.37544
                  23123882.3594                                   23123878.6954
                                                                        45.0004
        27.7504
 09 10 17  0 15  0.0000000  0  9G02G04G10G05G13G29G23G16G25
  -9968550.27348  -7751564.86747
                  20501106.5474                                   20501100.6174
                                                                        51.5004
        42.2504
    443076.46148    351787.03945
                  22519422.2274                                   22519418.6724
                                                                        48.5004
        34.0004
 -22252111.51248 -17323799.60946
                  21470133.1644                                   21470129.8134
                                                                        50.0004
        37.2504
 -16982242.43748 -13191692.92646
                  22242632.7894                                   22242628.8164
                                                                        48.0004
        37.5004
 -12152312.89848  -9448332.43046
                  21171965.3984                                   21171960.9884
                                                                        50.7504
        36.7504
 -18934182.82848 -14739715.71145
                  22247232.8134                                   22247228.8874
                                                                        48.5004
        35.5004
  -1760077.73447  -1361645.44144
                  23133291.1414                                   23133285.2624
                                                                        43.2504
        26.2504
   1360770.58656   1090949.86353
                  24253442.6094                                   24253437.9804
                                                                        40.7504
        22.7504
  -9270081.78947  -7188173.91844
                  23096983.7894                                   23096980.1484
                                                                        45.0004
        29.7504
 09 10 17  0 15 30.0000000  0  9G02G04G10G05G13G29G23G16G25
 -10014804.41848  -7787607.06647
                  20492304.8594                                   20492298.4734
                                                                        52.5004
        42.5004
    463332.66048    367571.08645
                  22523277.5164                                   22523273.6294
                                                                        48.0004
        34.0004
 -22410415.43048 -17447153.28546
                  21440009.0164                                   21440005.5664
                                                                        49.2504
        38.0004
 -17152116.21948 -13324062.11746
                  22210307.4924                                   22210302.7544
                                                                        48.0004
        37.5004
 -12209960.22348  -9493252.40246
                  21160995.5864                                   21160991.2304
                                                                        51.0004
        36.5004
 -19058667.21948 -14836716.48445
                  22223544.1254                                   22223540.6564
                                                                        48.0004
        35.7504
  -1749686.77347  -1353548.57044
                  23135268.4774                                   23135262.2304
                                                                        44.5004
        27.5004
   1214362.02946    976865.30043
                  24225582.3054                                   24225577.4734
                                                                        41.0004
        21.5004
  -9410960.50447  -7297949.52344
                  23070175.9064                                   23070171.7234
                                                                        45.5004
        29.0004
 09 10 17  0 16  0.0000000  0  9G02G04G10G05G13G29G23G16G25
 -10060474.64148  -7823194.24646
                  20483613.9534                                   20483607.9494
                                                                        52.2504
        41.7504
    483889.33648    383589.22345
                  22527188.9454                                   22527185.2504
                                                                        48.0004
        33.7504
 -22568283.47348 -17570167.31646
                  21409967.3914                                   21409964.1484
                                                                        50.0004
        38.0004
 -17321657.45748 -13456172.12946
                  22178044.6724                                   22178040.0554
                                                                        49.0004
        36.7504
 -12266940.83248  -9537652.85946
                  21150152.3834                                   21150148.1174
                                                                        50.5004
        36.7504
 -19182591.02048 -14933280.47746
                  22199962.2424                                   22199958.9264
                                                                        49.0004
        36.2504
  -1738903.34847  -1345145.89144
                  23137320.8054                                   23137314.7034
                                                                        44.7504
        27.7504
   1068427.52046    863150.09443
                  24197810.6414                                   24197806.4844
                                                                        40.7504
        22.5004
  -9551365.04347  -7407355.78544
                  23043457.7584                                   23043453.1024
                                                                        45.2504
        28.2504
 09 10 17  0 16 30.0000000  0  9G02G04G10G05G13G29G23G16G25
 -10105558.85248  -7858324.78147
                  20475034.7344                                   20475028.6294
                                                                        52.7504
        42.5004
    504747.61748    399842.41445
                  22531158.1724                                   22531154.8134
                                                                        48.2504
        33.5004
 -22725710.56248 -17692837.75446
                  21380010.5004                                   21380006.4064
                                                                        50.2504
        38.7504
 -17490861.11748 -13588019.13746
                  22145845.7734                                   22145841.6024
                                                                        49.2504
        37.2504
 -12323253.43048  -9581532.80546
                  21139436.4844                                   21139432.1914
                                                                        51.2504
        37.0004
 -19305949.60548 -15029404.02746
                  22176487.6254                                   22176484.0864
                                                                        49.2504
        36.7504
  -1727727.58247  -1336437.47344
                  23139447.2504                                   23139441.1484
                                                                        44.5004
        27.0004
    922971.60546    749807.82443
                  24170132.6174                                   24170127.2234
                                                                        40.0004
        21.5004
  -9691290.69147  -7516388.79344
                  23016830.8134                                   23016826.2624
                                                                        45.7504
        27.7504
 09 10 17  0 17  0.0000000  0  9G02G04G10G05G13G29G23G16G25
  -8574635.53548  -6665397.52747
                  20766359.7274                                   20766353.6024
                                                                        52.0004
        42.2504
   2101325.30947   1643928.94145
                  22834976.6564                                   22834973.2704
                                                                        47.5004
        33.0004
 -21307268.44948 -16587558.17646
                  21649930.6334                                   21649927.0904
                                                                        49.7504
        37.7504
 -16084298.56648 -12491996.34846
                  22413505.9144                                   22413501.1724
                                                                        49.5004
        37.7504
 -10803475.54348  -8397290.30146
                  21428640.7664                                   21428636.4654
                                                                        50.7504
        37.0004
 -17853316.11348 -13897481.79746
                  22452914.9304                                   22452911.4024
                                                                        48.5004
        36.0004
   -140741.35247    -99824.82844
                  23441441.1174                                   23441434.1844
                                                                        44.5004
        26.5004
   2353423.10946   1864445.39143
                  24442337.4774                                   24442333.0784
                                                                        38.7504
        19.7504
  -8255309.28547  -6397442.24244
                  23290088.6414                                   23290084.2774
                                                                        44.0004
        27.0004
 09 10 17  0 17 30.0000000  0  9G02G04G10G05G13G29G23G16G25
  -8618544.18748  -6699612.14847
                  20758004.2894                                   20757998.1644
                                                                        52.0004
        42.2504
   2122785.86747   1660651.44145
                  22839060.6484                                   22839057.1914
                                                                        47.0004
        33.7504
 -21463802.09848 -16709532.44146
                  21620143.2114                                   21620139.5314
                                                                        49.7504
        38.2504
 -16252815.14148 -12623307.94546
                  22381438.5164                                   22381434.3634
                                                                        50.0004
        37.5004
 -10858448.16048  -8440126.05946
                  21418179.7274                                   21418175.0514
                                                                        50.7504
        36.0004
 -17975533.62547 -13992716.18745
                  22429657.6484                                   22429653.9184
                                                                        47.7504
        35.5004
   -128782.78947    -90506.43044
                  23443716.3444                                   23443709.3634
                                                                        45.0004
        26.0004
   2208938.20346   1751859.78143
                  24414842.7344                                   24414838.6884
                                                                        38.7504
        19.0004
  -8394264.07047  -6505718.68444
                  23263646.0394                                   23263642.4924
                                                                        44.2504
        26.7504
 09 10 17  0 18  0.0000000  0  9G02G04G10G05G13G29G23G16G25
  -8661861.49248  -6733365.84446
                  20749761.2344                                   20749754.9494
                                                                        52.7504
        41.7504
   2144548.84447   1677609.58645
                  22843201.5084                                   22843198.5354
                                                                        47.0004
        32.7504
 -21619881.47348 -16831152.74646
                  21590442.6254                                   21590438.6804
                                                                        49.5004
        38.7504
 -16420980.81648 -12754346.12146
                  22349437.1334                                   22349433.0004
                                                                        50.0004
        36.7504
 -10912748.12148  -8482437.69546
                  21407846.5864                                   21407842.1524
                                                                        50.5004
        36.2504
 -18097173.79347 -14087500.76645
                  22406510.2584                                   22406506.4344
                                                                        47.5004
        35.0004
   -116432.26247    -80882.58644
                  23446066.7974                                   23446059.9924
                                                                        45.2504
        25.5004
   2064946.99646   1639658.82043
                  24387442.6644                                   24387437.7034
                                                                        41.0004
        18.5004
  -8532726.01547  -6613611.13144
                  23237297.4534                                   23237293.9344
                                                                        44.0004
        25.5004
 09 10 17  0 18 30.0000000  0  9G02G04G10G05G13G29G23G16G25
  -8704591.41048  -6766661.89846
                  20741629.6724                                   20741623.9654
                                                                        52.2504
        41.5004
   2166609.26647   1694799.49645
                  22847400.2584                                   22847396.6454
                                                                        47.2504
        32.5004
 -21775507.59448 -16952419.83246
                  21560827.9144                                   21560823.9344
                                                                        50.0004
        38.0004
 -16588796.93448 -12885111.91446
                  22317503.2734                                   22317499.1024
                                                                        50.5004
        37.5004
 -10966379.06648  -8524228.04746
                  21397641.0704                                   21397636.4884
                                                                        50.5004
        36.0004
 -18218237.39548 -14181836.05945
                  22383472.1884                                   22383468.4694
                                                                        48.5004
        35.5004
   -103694.87147    -70957.30544
                  23448490.3054                                   23448483.0704
                                                                        45.0004
        26.5004
   1921449.03946   1527842.20743
                  24360135.7194                                   24360131.3164
                                                                        40.7504
        19.7504
  -8670695.65647  -6721119.96544
                  23211043.0634                                   23211038.9774
                                                                        44.7504
        27.5004
 09 10 17  0 19  0.0000000  0  9G02G04G10G05G13G29G23G16G25
  -8746729.88748  -6799497.03946
                  20733611.3524                                   20733605.3524
                                                                        52.7504
        41.0004
   2188969.82847   1712223.25845
                  22851654.9144                                   22851651.4774
                                                                        47.5004
        33.0004
 -21930674.58648 -17073329.16846
                  21531300.5704                                   21531296.5204
                                                                        50.0004
        38.2504
 -16756256.77048 -13015600.09046
                  22285636.6804                                   22285632.1604
                                                                        50.2504
        38.0004
 -11019337.50448  -8565494.37546
                  21387563.4694                                   21387558.9614
                                                                        51.5004
        36.7504
 -18338718.73848 -14275717.59445
                  22360545.7504                                   22360541.8164
                                                                        48.5004
        35.5004
    -90569.01647    -60729.32044
                  23450988.0004                                   23450981.1884
                                                                        44.5004
        25.7504
   1778450.74247   1416414.91443
                  24332924.2974                                   24332918.9304
                                                                        42.0004
        18.2504
  -8808166.13747  -6828239.78944
                  23184883.6954                                   23184879.3094
                                                                        45.0004
        27.5004
 09 10 17  0 19 30.0000000  0  9G02G04G10G05G13G29G23G16G25
  -8788277.08648  -6831871.52346
                  20725704.9774                                   20725699.2384
                                                                        52.5004
        41.7504
   2211629.07847   1729879.79345
                  22855966.7734                                   22855963.8094
                                                                        45.7504
        32.2504
 -22085378.82848 -17193877.93446
                  21501861.3204                                   21501857.6954
                                                                        50.7504
        38.2504
 -16923357.50448 -13145808.46146
                  22253838.1804                                   22253834.0164
                                                                        50.0004
        37.5004
 -11071623.79748  -8606236.96546
                  21377613.4224                                   21377609.1454
                                                                        51.2504
        36.0004
 -18458615.10548 -14369143.31646
                  22337729.7584                                   22337725.9614
                                                                        48.5004
        36.0004
    -77056.41447    -50200.02044
                  23453559.1334                                   23453553.2154
                                                                        44.5004
        27.0004
   1635955.65247   1305379.77343
                  24305808.6024                                   24305803.0984
                                                                        42.2504
        20.2504
  -8945134.59047  -6934968.41444
                  23158819.1724                                   23158815.3914
                                                                        45.5004
        28.2504
 09 10 17  0 20  0.0000000  0  9G02G04G10G05G13G29G23G16G25
  -8829236.93448  -6863788.32046
                  20717910.8594                                   20717904.6294
                                                                        51.7504
        41.5004
   2234581.81647   1747765.02745
                  22860334.6024                                   22860331.4884
                                                                        45.5004
        32.2504
 -22239622.54348 -17314067.85246
                  21472509.8134                                   21472506.3094
                                                                        50.5004
        38.5004
 -17090100.28948 -13275737.90646
                  22222108.1024                                   22222103.6684
                                                                        49.5004
        37.5004
 -11123241.98048  -8646458.94546
                  21367791.1414                                   21367786.8244
                                                                        51.0004
        36.2504
 -18577928.57448 -14462114.84045
                  22315025.3524                                   22315021.6724
                                                                        49.0004
        35.5004
    -63162.55947    -39373.66444
                  23456203.3674                                   23456197.5744
                                                                        43.7504
        26.2504
   1493962.94547   1194736.07843
                  24278788.3834                                   24278783.3444
                                                                        43.0004
        20.7504
  -9081602.07847  -7041306.66844
                  23132850.1804                                   23132846.4654
                                                                        46.0004
        29.0004
 09 10 17  0 20 30.0000000  0 10G02G04G10G05G13G29G23G16G07G25
  -8869611.27348  -6895248.85946
                  20710227.6254                                   20710221.6684
                                                                        51.5004
        41.7504
   2257824.98447   1765876.56645
                  22864758.1254                                   22864754.1054
                                                                        45.7504
        32.5004
 -22393404.29348 -17433897.78146
                  21443245.8674                                   21443242.4064
                                                                        50.5004
        38.2504
 -17256484.05548 -13405387.59846
                  22190446.4304                                   22190442.3794
                                                                        49.2504
        37.5004
 -11174194.23048  -8686162.01246
                  21358095.1804                                   21358090.7814
                                                                        50.2504
        36.2504
 -18696657.79348 -14554631.12546
                  22292432.1174                                   22292428.7544
                                                                        48.2504
        36.2504
    -48891.31247    -28253.22744
                  23458918.9924                                   23458912.8324
                                                                        44.5004
        28.2504
   1352473.85947   1084484.83643
                  24251863.6094                                   24251858.5514
                                                                        43.5004
        22.7504
   2892384.14856   2290637.18453
                  24462478.3834                                   24462474.5904
                                                                        39.0004
        20.2504
  -9217567.70347  -7147253.83644
                  23106977.0394                                   23106973.0824
                                                                        46.2504
        29.0004
 09 10 17  0 21  0.0000000  0 10G02G04G10G05G13G29G23G16G07G25
  -8909400.61748  -6926253.53546
                  20702656.0784                                   20702649.8954
                                                                        52.0004
        41.5004
   2281357.00047   1784213.17645
                  22869235.7034                                   22869232.2584
                                                                        45.7504
        32.2504
 -22546721.91448 -17553366.07846
                  21414070.8444                                   21414066.9574
                                                                        51.0004
        38.5004
 -17422506.85248 -13534755.99646
                  22158853.0554                                   22158849.3444
                                                                        49.5004
        38.5004
 -11224481.32048  -8725346.73845
                  21348525.9534                                   21348521.5004
                                                                        50.7504
        35.5004
 -18814801.78548 -14646691.39546
                  22269949.9304                                   22269946.3244
                                                                        48.5004
        36.0004
    -34244.73047    -16840.31644
                  23461706.5084                                   23461700.3134
                                                                        45.5004
        28.2504
   1211491.15647    974628.16443
                  24225035.4534                                   24225030.5664
                                                                        42.5004
        21.7504
   2715611.04346   2152891.93043
                  24428839.7734                                   24428835.6374
                                                                        41.7504
        22.5004
  -9353028.90247  -7252807.98044
                  23081199.2504                                   23081195.4924
                                                                        45.7504
        28.5004
 09 10 17  0 21 30.0000000  0 10G02G04G10G05G13G29G23G16G07G25
  -8948611.85548  -6956807.72746
                  20695194.3054                                   20695188.2624
                                                                        52.0004
        41.7504
   2305169.41847   1802768.28545
                  22873766.9384                                   22873763.8324
                                                                        46.0004
        31.5004
 -22699580.19548 -17672476.36746
                  21384982.8444                                   21384979.1334
                                                                        50.5004
        39.0004
 -17588172.84848 -13663846.37946
                  22127327.5704                                   22127324.1254
                                                                        49.0004
        38.5004
 -11274110.62548  -8764018.93046
                  21339081.7114                                   21339077.3954
                                                                        50.2504
        36.7504
 -18932365.20348 -14738299.30545
                  22247578.5944                                   22247575.1684
                                                                        48.0004
        35.7504
    -19232.05947     -5142.12144
                  23464563.1724                                   23464556.9384
                                                                        45.2504
        26.5004
   1071010.80146    865162.94543
                  24198302.7894                                   24198298.3954
                                                                        41.5004
        22.2504
   2539106.18447   2015355.71144
                  24395252.0944                                   24395248.3404
                                                                        43.5004
        25.2504
  -9487989.77747  -7357972.25844
                  23055517.2894                                   23055512.9804
                                                                        45.5004
        29.2504
 09 10 17  0 22  0.0000000  0 10G02G04G10G05G13G29G23G16G07G25
  -8987243.42648  -6986910.24246
                  20687843.2344                                   20687837.2814
                                                                        51.7504
        41.7504
   2329262.64547   1821542.18445
                  22878352.3444                                   22878348.7544
                                                                        45.7504
        32.5004
 -22851974.19148 -17791224.92246
                  21355982.9224                                   21355979.2304
                                                                        50.5004
        38.5004
 -17753477.74248 -13792655.37146
                  22095871.8524                                   22095867.2704
                                                                        49.0004
        37.7504
 -11323080.74648  -8802177.46145
                  21329763.0634                                   21329758.6414
                                                                        50.0004
        35.5004
 -19049343.58248 -14829451.29746
                  22225318.4144                                   22225314.8594
                                                                        48.5004
        37.0004
     -3853.16847      6841.42244
                  23467489.4454                                   23467482.6524
                                                                        44.7504
        25.2504
    931037.55146    756092.87943
                  24171667.1804                                   24171662.5004
                                                                        41.2504
        22.5004
   2362874.89847   1878032.68044
                  24361716.5394                                   24361712.5864
                                                                        43.7504
        27.7504
  -9622445.75847  -7462743.11344
                  23029931.1484                                   23029927.0004
                                                                        44.7504
        29.0004
 09 10 17  0 22 30.0000000  0 10G02G04G10G05G13G29G23G16G07G25
  -9025293.23448  -7016559.42646
                  20680602.1804                                   20680596.2344
                                                                        51.2504
        41.7504
   2353637.53147   1840535.57845
                  22882990.6644                                   22882987.2074
                                                                        46.5004
        32.5004
 -23003898.95348 -17909607.85546
                  21327072.6484                                   21327068.9804
                                                                        51.5004
        38.5004
 -17918416.37548 -13921178.95746
                  22064484.9064                                   22064480.8244
                                                                        48.7504
        38.5004
 -11371389.98048  -8839821.01646
                  21320569.8754                                   21320565.4654
                                                                        49.5004
        36.0004
 -19165732.27048 -14920143.73846
                  22203170.6484                                   22203166.9144
                                                                        49.2504
        37.0004
     11892.33247     19110.67643
                  23470486.2344                                   23470478.3594
                                                                        43.0004
        23.5004
    791576.85546    647422.21543
                  24145128.6804                                   24145124.2894
                                                                        39.7504
        22.0004
   2186923.25447   1740927.53544
                  24328234.3524                                   24328230.1644
                                                                        43.5004
        25.2504
  -9756391.84047  -7567116.66044
                  23004442.2814                                   23004438.1454
                                                                        44.2504
        28.5004
 09 10 17  0 23  0.0000000  0 10G02G04G10G05G13G29G23G16G07G25
  -9062760.29348  -7045754.53147
                  20673472.7274                                   20673466.4844
                                                                        51.2504
        42.0004
   2378294.41847   1859748.70345
                  22887682.5314                                   22887679.3954
                                                                        45.7504
        32.2504
 -23155350.91848 -18027622.41046
                  21298251.9694                                   21298248.5474
                                                                        50.7504
        38.5004
 -18082984.82848 -14049414.10546
                  22033168.6174                                   22033164.4184
                                                                        49.2504
        38.0004
 -11419036.99248  -8876948.54346
                  21311503.1414                                   21311498.6214
                                                                        49.7504
        36.7504
 -19281527.92648 -15010374.08646
                  22181134.7734                                   22181131.2304
                                                                        49.5004
        36.5004
     28004.52346     31665.62543
                  23473551.0554                                   23473544.7074
                                                                        41.5004
        21.7504
    652633.09446    539154.36743
                  24118687.3594                                   24118683.5274
                                                                        39.0004
        20.7504
   2011256.52347   1604044.42244
                  24294805.6414                                   24294801.6804
                                                                        42.7504
        26.0004
  -9889823.78147  -7671089.60244
                  22979050.4694                                   22979047.0664
                                                                        43.7504
        27.7504
 09 10 17  0 23 30.0000000  0 10G02G04G10G05G13G29G23G16G07G25
  -9099645.18048  -7074495.99647
                  20666453.5164                                   20666447.7304
                                                                        52.0004
        42.0004
   2403230.89847   1879179.70345
                  22892427.7664                                   22892424.3054
                                                                        45.2504
        31.5004
 -23306328.24248 -18145267.08646
                  21269522.4454                                   21269518.5314
                                                                        51.2504
        38.7504
 -18247181.33248 -14177359.40646
                  22001922.9614                                   22001918.6484
                                                                        49.0004
        38.2504
 -11466023.64148  -8913561.50846
                  21302561.9224                                   21302557.5164
                                                                        49.2504
        36.0004
 -19396729.75048 -15100141.77046
                  22159212.5004                                   22159209.2384
                                                                        50.0004
        36.7504
     44480.08647     44503.71144
                  23476687.1564                                   23476680.4184
                                                                        43.0004
        25.2504
    514207.89546    431290.58643
                  24092346.3134                                   24092342.4844
                                                                        39.0004
        20.0004
   1835877.33647   1467385.39543
                  24261431.6564                                   24261428.2624
                                                                        42.2504
        22.2504
 -10022739.77347  -7774660.44944
                  22953757.3674                                   22953753.4024
                                                                        44.5004
        28.5004
 09 10 17  0 24  0.0000000  0 10G02G04G10G05G13G29G23G16G07G25
  -9135947.30148  -7102783.34446
                  20659545.5554                                   20659539.6294
                                                                        52.5004
        41.2504
   2428446.93847   1898828.54745
                  22897225.9534                                   22897222.8164
                                                                        45.5004
        31.2504
 -23456827.20348 -18262539.02046
                  21240883.3054                                   21240879.6844
                                                                        50.7504
        38.5004
 -18411001.89148 -14305011.77046
                  21970748.5394                                   21970744.8714
                                                                        49.0004
        38.5004
 -11512348.66448  -8949658.93046
                  21293746.2814                                   21293742.0474
                                                                        49.5004
        36.0004
 -19511333.11348 -15189443.08246
                  22137404.7344                                   22137401.5664
                                                                        49.5004
        36.5004
     61318.85547     57624.81344
                  23479891.5554                                   23479885.1484
                                                                        44.2504
        26.0004
    376306.29346    323834.81643
                  24066104.6254                                   24066100.8984
                                                                        39.0004
        21.2504
   1660790.71146   1330954.28543
                  24228113.8674                                   24228109.8954
                                                                        41.2504
        22.2504
 -10155135.62947  -7877826.05144
                  22928562.9384                                   22928559.7774
                                                                        44.7504
        28.0004
 09 10 17  0 24 30.0000000  0 10G02G04G10G05G13G29G23G16G07G25
  -9171668.54348  -7130618.06246
                  20652748.1094                                   20652742.2544
                                                                        52.0004
        41.7504
   2453939.36747   1918692.75845
                  22902077.6724                                   22902073.7704
                                                                        46.7504
        30.7504
 -23606846.76648 -18379437.35546
                  21212335.5394                                   21212331.9344
                                                                        51.2504
        38.5004
 -18574445.77748 -14432370.65646
                  21939646.6024                                   21939642.4184
                                                                        48.7504
        38.2504
 -11558015.28148  -8985243.29346
                  21285056.3204                                   21285051.9804
                                                                        49.0004
        36.0004
 -19625339.27048 -15278278.99246
                  22115709.5784                                   22115706.3284
                                                                        49.5004
        36.5004
     78516.64547     71025.67644
                  23483164.0864                                   23483157.6564
                                                                        44.5004
        27.7504
    238928.85246    216787.47343
                  24039964.0084                                   24039958.6954
                                                                        41.7504
        22.5004
   1485998.79346   1194752.82043
                  24194852.1804                                   24194847.7934
                                                                        41.5004
        21.5004
 -10287010.68747  -7980585.80144
                  22903468.6334                                   22903464.6994
                                                                        44.0004
        28.0004
 09 10 17  0 25  0.0000000  0 10G02G04G10G05G13G29G23G16G07G25
  -9206811.87948  -7158002.45746
                  20646060.3284                                   20646054.4884
                                                                        52.5004
        41.5004
   2479704.05147   1938769.10945
                  22906980.1724                                   22906976.3244
                                                                        47.0004
        31.2504
 -23756387.25848 -18495962.39846
                  21183878.9844                                   21183875.2894
                                                                        51.0004
        39.0004
 -18737513.26248 -14559436.24646
                  21908615.8594                                   21908612.0044
                                                                        48.0004
        38.5004
 -11603026.23048  -9020316.74246
                  21276491.2974                                   21276486.6254
                                                                        48.5004
        36.0004
 -19738748.04348 -15366649.48446
                  22094128.7974                                   22094125.5274
                                                                        49.2504
        37.0004
     96069.03547     84702.86744
                  23486504.4614                                   23486498.1564
                                                                        44.7504
        27.7504
    102076.06347    110148.93043
                  24013921.3834                                   24013915.8554
                                                                        42.2504
        22.5004
   1311502.39846   1058781.59043
                  24161646.7344                                   24161641.9304
                                                                        41.5004
        23.2504
 -10418364.95347  -8082939.73044
                  22878472.7424                                   22878468.2584
                                                                        44.5004
        28.5004
 09 10 17  0 25 30.0000000  0 10G02G04G10G05G13G29G23G16G07G25
  -9241376.94948  -7184936.29346
                  20639483.0634                                   20639477.0824
                                                                        52.0004
        41.5004
   2505740.17647   1959056.95345
                  22911934.8834                                   22911931.4264
                                                                        47.5004
        32.0004
 -23905445.61748 -18612111.75046
                  21155513.8754                                   21155510.5204
                                                                        51.2504
        38.7504
 -18900200.91448 -14686205.85246
                  21877657.0704                                   21877653.1804
                                                                        49.0004
        38.2504
 -11647381.34048  -9054879.16845
                  21268050.2584                                   21268046.2624
                                                                        48.7504
        35.7504
 -19851556.62948 -15454552.27346
                  22072661.8594                                   22072658.3674
                                                                        49.0004
        36.7504
    113975.00047     98655.55944
                  23489912.2344                                   23489905.5824
                                                                        43.0004
        27.0004
    -34248.68747      3921.83243
                  23987979.0554                                   23987973.9964
                                                                        42.2504
        21.7504
   1137306.19547    923044.32844
                  24128497.9534                                   24128494.3914
                                                                        42.0004
        24.5004
 -10549195.07047  -8184885.25844
                  22853576.7974                                   22853572.0984
                                                                        44.5004
        28.2504
 09 10 17  0 26  0.0000000  0 10G02G04G10G05G13G29G23G16G07G25
  -9275364.93748  -7211420.43046
                  20633015.4844                                   20633009.4804
                                                                        52.5004
        41.5004
   2532045.93847   1979554.91845
                  22916940.6414                                   22916937.5124
                                                                        46.7504
        31.5004
 -24054020.60948 -18727884.46146
                  21127241.1094                                   21127237.3094
                                                                        51.0004
        38.0004
 -19062507.06248 -14812678.17246
                  21846771.7504                                   21846767.4964
                                                                        49.2504
        38.0004
 -11691082.07848  -9088931.69145
                  21259734.6024                                   21259730.0594
                                                                        49.0004
        35.5004
 -19963763.96148 -15541986.57845
                  22051309.6484                                   22051306.3244
                                                                        49.2504
        35.7504
    132231.48846    112881.35543
                  23493384.7584                                   23493379.6134
                                                                        40.7504
        22.7504
   -170043.26247   -101892.15243
                  23962138.1254                                   23962132.4774
                                                                        42.0004
        20.5004
    963412.84847    787543.05144
                  24095407.3364                                   24095403.3984
                                                                        42.5004
        25.5004
 -10679499.21947  -8286420.95744
                  22828780.4534                                   22828775.7774
                                                                        44.0004
        27.7504
 09 10 17  0 26 30.0000000  0 10G02G04G10G05G13G29G23G16G07G25
  -9308777.13348  -7237455.91046
                  20626657.1484                                   20626651.2034
                                                                        52.0004
        41.2504
   2558618.54347   2000260.80145
                  22921996.6644                                   22921993.9384
                                                                        46.0004
        31.0004
 -24202110.15248 -18843278.92246
                  21099060.8134                                   21099056.9804
                                                                        51.2504
        39.0004
 -19224429.78148 -14938851.70746
                  21815958.5234                                   21815954.4104
                                                                        49.5004
        39.0004
 -11734130.35948  -9122475.78945
                  21251542.8524                                   21251538.4184
                                                                        48.7504
        35.5004
 -20075368.75048 -15628951.35246
                  22030071.9064                                   22030068.5434
                                                                        49.5004
        36.7504
    150835.61746    127378.04743
                  23496925.0554                                   23496919.4804
                                                                        40.2504
        22.0004
   -305305.96946   -207291.68743
                  23936398.6024                                   23936393.6334
                                                                        41.0004
        20.5004
    789824.51247    652279.44944
                  24062374.9064                                   24062370.4414
                                                                        42.2504
        27.0004
 -10809275.85247  -8387545.60944
                  22804084.9224                                   22804080.4224
                                                                        45.0004
        29.5004
 09 10 17  0 27  0.0000000  0 10G02G04G10G05G13G29G23G16G07G25
  -9341618.90248  -7263046.85546
                  20620407.5784                                   20620401.6094
                                                                        52.2504
        41.5004
   2585451.59047   2021169.64545
                  22927103.4454                                   22927099.4184
                                                                        45.7504
        31.0004
 -24349717.12148 -18958297.33646
                  21070971.9064                                   21070968.4614
                                                                        51.0004
        39.2504
 -19385971.85548 -15064728.65246
                  21785218.3914                                   21785213.9224
                                                                        50.2504
        38.5004
 -11776532.19548  -9155516.16445
                  21243473.7194                                   21243469.2624
                                                                        49.5004
        35.7504
 -20186374.86748 -15715449.58646
                  22008948.2894                                   22008944.6214
                                                                        49.0004
        36.2504
    169780.24247    142140.08643
                  23500531.0234                                   23500523.7584
                                                                        42.5004
        22.2504
   -440039.40646   -312278.84843
                  23910760.2344                                   23910754.3754
                                                                        39.7504
        20.5004
    616540.50846    517253.00844
                  24029399.9304                                   24029395.7894
                                                                        40.5004
        26.2504
 -10938527.56647  -8488261.21944
                  22779488.7424                                   22779484.8204
                                                                        45.7504
        29.0004
 09 10 17  0 27 30.0000000  0 10G02G04G10G05G13G29G23G16G07G25
  -7798469.54348  -6060592.80546
                  20914059.2424                                   20914053.2854
                                                                        52.2504
        41.5004
   4187962.84047   3269879.69145
                  23232051.0394                                   23232047.7344
                                                                        46.7504
        30.5004
 -22921413.60548 -17845333.55946
                  21342769.2194                                   21342765.6174
                                                                        51.5004
        39.5004
 -17971705.19948 -13962702.65246
                  22054344.1884                                   22054340.5124
                                                                        49.5004
        39.5004
 -10242866.24248  -7960451.78145
                  21535320.7504                                   21535316.7854
                                                                        49.7504
        35.5004
 -18721355.69148 -14573876.19146
                  22287732.1804                                   22287728.5314
                                                                        49.5004
        36.7504
   1764483.42247   1384765.98844
                  23803993.0784                                   23803986.1454
                                                                        43.7504
        25.0004
   1001184.67646    810752.88343
                  24185015.9454                                   24185010.6684
                                                                        39.7504
        20.7504
   2018990.31346   1610071.09844
                  24296276.6484                                   24296273.3834
                                                                        40.2504
        25.7504
  -9491827.06647  -7360962.10544
                  23054787.1414                                   23054782.7894
                                                                        43.7504
        29.5004
 09 10 17  0 28  0.0000000  0 10G02G04G10G05G13G29G23G16G07G25
  -7830171.65248  -6085295.74246
                  20908026.6414                                   20908020.5784
                                                                        51.5004
        41.2504
   4215312.99647   3291191.47745
                  23237256.0474                                   23237252.2934
                                                                        46.0004
        31.2504
 -23068047.33248 -17959593.59446
                  21314865.6564                                   21314862.0784
                                                                        50.7504
        38.7504
 -18132477.99648 -14087980.14846
                  22023749.9614                                   22023746.0784
                                                                        50.5004
        39.2504
 -10283976.14548  -7992485.46545
                  21527498.0784                                   21527493.5204
                                                                        49.7504
        35.7504
 -18831157.10248 -14659435.69146
                  22266837.7734                                   22266833.8714
                                                                        49.0004
        36.5004
   1784104.20347   1400054.91844
                  23807727.0944                                   23807720.5124
                                                                        45.0004
        27.0004
    867519.32446    706598.05143
                  24159579.5234                                   24159574.5904
                                                                        39.5004
        20.2504
   1846326.28146   1475527.73844
                  24263420.4064                                   24263416.3094
                                                                        39.7504
        26.0004
  -9620020.44947  -7460853.03144
                  23030392.5784                                   23030388.5744
                                                                        44.5004
        29.5004
 09 10 17  0 28 30.0000000  0 10G02G04G10G05G13G29G23G16G07G25
  -7861306.10248  -6109556.34846
                  20902101.6644                                   20902095.6994
                                                                        51.7504
        41.5004
   4242917.89847   3312701.76645
                  23242508.6254                                   23242505.6764
                                                                        46.0004
        31.2504
 -23214192.77048 -18073473.12946
                  21287055.1094                                   21287051.4574
                                                                        51.2504
        39.5004
 -18292864.21948 -14212956.43446
                  21993229.6724                                   21993225.7114
                                                                        50.0004
        39.0004
 -10324443.09848  -8024018.14845
                  21519797.3594                                   21519792.9454
                                                                        49.7504
        35.5004
 -18940354.95348 -14744524.91446
                  22246058.0004                                   22246054.3324
                                                                        48.7504
        36.7504
   1804058.34047   1415603.59444
                  23811524.2814                                   23811517.9344
                                                                        44.5004
        27.0004
    734390.50046    602861.31643
                  24134246.5634                                   24134242.2384
                                                                        37.0004
        21.2504
   1673975.64547   1341228.58644
                  24230622.5004                                   24230618.7704
                                                                        43.0004
        24.5004
  -9747682.75047  -7560330.14844
                  23006098.5554                                   23006095.1884
                                                                        42.5004
        29.0004
 09 10 17  0 29  0.0000000  0 10G02G04G10G05G13G29G23G16G07G25
  -7891874.77048  -6133376.08246
                  20896284.6804                                   20896278.6024
                                                                        51.5004
        41.0004
   4270774.75047   3334408.36745
                  23247810.0944                                   23247806.5394
                                                                        45.7504
        31.2504
 -23359848.84048 -18186971.35946
                  21259337.7034                                   21259334.0704
                                                                        51.0004
        39.0004
 -18452862.17248 -14337630.16446
                  21962783.2734                                   21962778.9654
                                                                        50.5004
        39.0004
 -10364269.19548  -8055051.46145
                  21512218.7274                                   21512214.3164
                                                                        49.5004
        35.0004
 -19048948.70348 -14829143.38746
                  22225393.1644                                   22225389.8444
                                                                        49.2504
        36.5004
   1824342.60546   1431409.50044
                  23815383.8594                                   23815377.8444
                                                                        41.5004
        26.0004
    601799.80946    499543.88343
                  24109015.0554                                   24109010.9694
                                                                        38.0004
        21.5004
   1501940.78147   1207175.45343
                  24197885.6254                                   24197881.4454
                                                                        43.2504
        23.2504
  -9874812.69547  -7659392.41444
                  22981906.6954                                   22981903.0514
                                                                        43.0004
        29.2504
 09 10 17  0 29 30.0000000  0 10G02G04G10G05G13G29G23G16G07G25
  -7921879.66048  -6156756.52046
                  20890574.7114                                   20890568.9344
                                                                        52.0004
        41.0004
   4298880.67247   3356309.05545
                  23253158.1414                                   23253154.8094
                                                                        46.0004
        30.2504
 -23505015.00848 -18300087.87146
                  21231713.2114                                   21231709.8554
                                                                        51.0004
        39.5004
 -18612471.28548 -14462000.89546
                  21932410.6334                                   21932406.2894
                                                                        50.7504
        38.5004
 -10403456.72348  -8085587.18745
                  21504761.7734                                   21504756.9064
                                                                        49.7504
        35.2504
 -19156938.11748 -14913290.96946
                  22204843.3134                                   22204839.8094
                                                                        49.2504
        37.5004
   1844953.40246   1447469.83244
                  23819305.3134                                   23819299.9924
                                                                        40.7504
        24.7504
    469748.10946    396646.44543
                  24083886.1724                                   24083882.5004
                                                                        38.5004
        22.0004
   1330224.03147   1073370.21144
                  24165209.2194                                   24165204.4304
                                                                        42.2504
        25.0004
 -10001409.37147  -7758039.12944
                  22957816.5234                                   22957812.8204
                                                                        44.0004
        28.5004
 09 10 17  0 30  0.0000000  0 10G02G04G10G05G13G29G23G16G07G25
  -7951322.69948  -6179699.14146
                  20884971.8204                                   20884966.4304
                                                                        51.5004
        41.2504
   4327232.86747   3378401.63345
                  23258553.3284                                   23258550.6054
                                                                        44.2504
        30.2504
 -23649689.57048 -18412821.28946
                  21204182.6644                                   21204178.8594
                                                                        50.5004
        39.2504
 -18771690.44548 -14586067.75446
                  21902111.9774                                   21902107.8484
                                                                        50.5004
        39.7504
 -10442008.34448  -8115627.39845
                  21497425.6024                                   21497421.1454
                                                                        49.5004
        35.0004
 -19264322.69948 -14996967.25046
                  22184408.8054                                   22184405.4734
                                                                        48.5004
        37.2504
   1865887.27346   1463781.87143
                  23823288.4924                                   23823283.3364
                                                                        40.5004
        22.5004
    338236.62546    294169.98843
                  24058860.8594                                   24058856.3714
                                                                        40.5004
        22.7504
   1158827.61346    939814.54344
                  24132593.7664                                   24132588.6994
                                                                        41.2504
        25.2504
 -10127471.71547  -7856269.53144
                  22933827.6174                                   22933823.1604
                                                                        44.5004
        29.5004
 09 10 17  0 30 30.0000000  0 10G02G04G10G05G13G29G23G16G07G25
  -7980206.71148  -6202206.12546
                  20879475.7894                                   20879469.7584
                                                                        52.0004
        41.7504
   4355827.31347   3400682.97344
                  23263994.5704                                   23263991.4264
                                                                        45.5004
        29.5004
 -23793872.87548 -18525171.91446
                  21176745.6174                                   21176741.9534
                                                                        51.0004
        39.5004
 -18930519.09448 -14709830.34446
                  21871888.0004                                   21871883.6644
                                                                        50.0004
        39.0004
 -10479926.84448  -8145174.28145
                  21490209.8914                                   21490204.9534
                                                                        49.5004
        35.0004
 -19371103.20748 -15080172.83246
                  22164089.2274                                   22164085.8324
                                                                        49.5004
        37.0004
   1887139.95747   1480342.39843
                  23827333.4454                                   23827327.2344
                                                                        42.7504
        22.7504
    207265.83646    192114.82843
                  24033937.7114                                   24033933.2624
                                                                        40.7504
        22.5004
    987752.48046    806509.30944
                  24100038.4694                                   24100034.6334
                                                                        41.0004
        25.5004
 -10252999.78547  -7954083.59044
                  22909939.8914                                   22909936.2544
                                                                        43.7504
        29.7504
 09 10 17  0 31  0.0000000  0 10G02G04G10G05G13G29G23G16G07G25
  -8008534.66848  -6224279.84446
                  20874084.8914                                   20874079.0824
                                                                        52.0004
        41.0004
   4384660.10547   3423150.05145
                  23269481.7114                                   23269478.5084
                                                                        45.5004
        30.7504
 -23937565.24248 -18637139.99646
                  21149401.9144                                   21149398.1214
                                                                        50.7504
        39.0004
 -19088957.71148 -14833289.02346
                  21841738.0084                                   21841734.0314
                                                                        49.7504
        39.2504
 -10517215.76648  -8174230.57445
                  21483114.2814                                   21483109.7504
                                                                        48.7504
        35.2504
 -19477280.14548 -15162908.10946
                  22143884.3054                                   22143881.0664
                                                                        50.0004
        36.5004
   1908706.84447   1497147.80943
                  23831437.7424                                   23831430.0514
                                                                        44.0004
        22.7504
     76835.72746     90480.98043
                  24009117.8754                                   24009113.5594
                                                                        41.0004
        23.2504
    816999.81347    673455.34844
                  24067545.5864                                   24067542.1604
                                                                        42.5004
        27.0004
 -10377993.51647  -8051481.25844
                  22886154.7974                                   22886150.6294
                                                                        44.5004
        29.5004
 09 10 17  0 31 30.0000000  0 10G02G04G10G05G13G29G23G16G07G25
  -8036303.98448  -6245918.28946
                  20868800.9454                                   20868794.9344
                                                                        51.0004
        41.0004
   4413733.46547   3445804.59445
                  23275014.2584                                   23275010.8284
                                                                        46.5004
        30.5004
 -24080760.87948 -18748720.99246
                  21122152.5084                                   21122148.5944
                                                                        50.5004
        39.5004
 -19247000.66048 -14956439.36746
                  21811663.5864                                   21811659.3094
                                                                        49.7504
        39.2504
 -10553872.91048  -8202794.57845
                  21476138.1484                                   21476133.9534
                                                                        48.7504
        35.5004
 -19582848.61748 -15245169.20746
                  22123795.0234                                   22123791.7894
                                                                        49.5004
        37.0004
   1930589.41847   1514199.25443
                  23835602.0474                                   23835594.4884
                                                                        45.2504
        23.5004
    -53047.86746    -10727.03544
                  23984401.8284                                   23984397.0354
                                                                        41.2504
        24.0004
    646576.96946    540658.38744
                  24035114.9384                                   24035111.9574
                                                                        41.5004
        27.7504
 -10502447.41447  -8148458.32844
                  22862472.2814                                   22862468.1174
                                                                        45.7504
        29.5004
 09 10 17  0 32  0.0000000  0 10G02G04G10G05G13G29G23G16G07G25
  -8063516.41848  -6267122.80946
                  20863622.5704                                   20863616.5864
                                                                        52.2504
        41.7504
   4443044.14147   3468644.05545
                  23280591.8524                                   23280588.4654
                                                                        46.0004
        31.2504
 -24223459.21548 -18859914.50446
                  21094998.3204                                   21094994.2704
                                                                        50.7504
        39.5004
 -19404646.37148 -15079280.16846
                  21781664.4534                                   21781660.2464
                                                                        50.2504
        39.5004
 -10589900.34048  -8230867.91045
                  21469282.4844                                   21469277.9304
                                                                        48.0004
        35.2504
 -19687807.79348 -15326955.50046
                  22103822.0634                                   22103818.9494
                                                                        49.5004
        36.7504
   1952784.90647   1531494.48044
                  23839825.7664                                   23839818.4454
                                                                        43.0004
        24.7504
   -182383.08247   -111507.72343
                  23959790.7424                                   23959785.6334
                                                                        42.2504
        23.0004
    476485.83647    408119.87944
                  24002748.0394                                   24002744.3634
                                                                        42.0004
        28.0004
 -10626360.20347  -8245013.75445
                  22838892.4064                                   22838888.4964
                                                                        44.5004
        30.5004
 09 10 17  0 32 30.0000000  0 10G02G04G10G05G13G29G23G16G07G25
  -8090175.39548  -6287896.04746
                  20858549.2194                                   20858543.5274
                                                                        52.5004
        40.7504
   4472588.28147   3491665.44544
                  23286213.8914                                   23286210.0124
                                                                        45.7504
        29.0004
 -24365660.12148 -18970720.39846
                  21067938.0004                                   21067934.3754
                                                                        50.2504
        39.2504
 -19561895.04348 -15201811.59046
                  21751740.9774                                   21751737.0784
                                                                        49.5004
        39.2504
 -10625301.87148  -8258453.51645
                  21462546.0634                                   21462541.1174
                                                                        48.5004
        35.0004
 -19792158.96548 -15408268.06646
                  22083964.6644                                   22083961.2774
                                                                        49.5004
        36.5004
   1975287.77046   1549029.22343
                  23844107.5864                                   23844101.0314
                                                                        41.5004
        22.5004
   -311170.41447   -211861.50843
                  23935282.4304                                   23935278.0904
                                                                        42.0004
        22.5004
    306727.66047    275840.81344
                  23970443.9614                                   23970440.1884
                                                                        43.0004
        27.5004
 -10749732.38347  -8341147.91044
                  22815415.3134                                   22815411.2274
                                                                        45.0004
        29.5004
 09 10 17  0 33  0.0000000  0 10G02G04G10G05G13G29G23G16G07G25
  -8116281.52748  -6308238.47346
                  20853581.1804                                   20853575.2734
                                                                        52.5004
        40.7504
   4502364.68847   3514867.78144
                  23291879.7894                                   23291877.0044
                                                                        45.2504
        29.0004
 -24507361.34048 -19081136.92246
                  21040973.6174                                   21040969.3324
                                                                        50.2504
        39.5004
 -19718744.40248 -15324031.87146
                  21721893.6094                                   21721889.4144
                                                                        50.0004
        40.0004
 -10660078.14847  -8285551.91045
                  21455928.1174                                   21455923.9104
                                                                        47.0004
        35.2504
 -19895900.36348 -15489105.52346
                  22064223.6174                                   22064219.8834
                                                                        49.2504
        36.7504
   1998096.52346   1566802.24643
                  23848447.8444                                   23848441.7734
                                                                        40.5004
        23.0004
   -439407.35947   -311786.43443
                  23910880.6024                                   23910875.0044
                                                                        42.5004
        21.7504
    137305.66446    143823.71944
                  23938204.0704                                   23938200.0984
                                                                        41.2504
        26.0004
 -10872561.29747  -8436858.76644
                  22792041.6644                                   22792037.9884
                                                                        44.0004
        29.5004
 09 10 17  0 33 30.0000000  0 10G02G04G10G05G13G29G23G16G07G25
  -8141837.96148  -6328152.54746
                  20848718.5634                                   20848712.3874
                                                                        52.5004
        41.2504
   4532368.66847   3538247.46944
                  23297589.8674                                   23297586.1804
                                                                        45.5004
        29.7504
 -24648563.57448 -19191164.56246
                  21014103.2424                                   21014099.2274
                                                                        50.5004
        39.5004
 -19875194.84048 -15445941.30146
                  21692122.0394                                   21692117.7584
                                                                        49.0004
        39.7504
 -10694233.39848  -8312166.40245
                  21449428.4144                                   21449424.3954
                                                                        48.0004
        35.2504
 -19999033.43748 -15569469.01246
                  22044597.8444                                   22044594.2274
                                                                        49.7504
        36.5004
   2021206.16047   1584809.70344
                  23852845.6954                                   23852839.5394
                                                                        42.2504
        24.7504
   -567094.09447   -411282.62143
                  23886582.3524                                   23886577.0004
                                                                        42.0004
        21.5004
    -31779.28146     12069.20744
                  23906028.3754                                   23906023.6884
                                                                        40.5004
        25.5004
 -10994847.85947  -8532147.03545
                  22768771.7424                                   22768767.1484
                                                                        44.5004
        30.2504
 09 10 17  0 34  0.0000000  0 10G02G04G10G05G13G29G23G16G07G25
  -8166845.85548  -6347639.22346
                  20843959.3754                                   20843953.3094
                                                                        53.0004
        40.7504
   4562598.75047   3561803.34444
                  23303342.4844                                   23303339.0864
                                                                        45.5004
        29.0004
 -24789265.13348 -19300802.11346
                  20987328.5944                                   20987324.9534
                                                                        51.0004
        39.5004
 -20031244.16048 -15567538.16446
                  21662426.9454                                   21662422.8094
                                                                        48.7504
        39.7504
 -10727768.68747  -8338297.81245
                  21443046.7974                                   21443042.5234
                                                                        47.7504
        35.0004
 -20101556.46148 -15649357.03946
                  22025088.3984                                   22025084.5984
                                                                        50.0004
        36.5004
   2044614.36747   1603049.83644
                  23857300.2344                                   23857293.9734
                                                                        42.7504
        24.5004
   -694228.58246   -510348.52343
                  23862389.5394                                   23862384.1174
                                                                        41.5004
        21.5004
   -200523.48447   -119419.78144
                  23873917.7584                                   23873912.4694
                                                                        42.5004
        24.5004
 -11116589.82847  -8627010.90244
                  22745604.7194                                   22745599.9454
                                                                        45.2504
        28.5004
 09 10 17  0 34 30.0000000  0 10G02G04G10G05G13G29G23G16G07G25
  -8191306.59048  -6366699.52046
                  20839304.8204                                   20839298.4184
                                                                        52.0004
        40.7504
   4593052.56647   3585533.57045
                  23309137.8834                                   23309134.1214
                                                                        45.5004
        30.2504
 -24929464.32848 -19410048.25446
                  20960649.7584                                   20960645.9264
                                                                        50.5004
        40.0004
 -20186890.44548 -15688820.95746
                  21632808.2114                                   21632804.0554
                                                                        48.7504
        39.0004
 -10760685.87547  -8363947.56245
                  21436783.1804                                   21436778.8754
                                                                        46.7504
        34.5004
 -20203468.47748 -15728768.97346
                  22005695.2584                                   22005691.8754
                                                                        49.0004
        37.2504
   2068318.52747   1621520.60544
                  23861811.0084                                   23861804.6884
                                                                        44.2504
        25.5004
   -820808.64146   -608982.34043
                  23838301.7114                                   23838296.4344
                                                                        40.2504
        19.2504
   -368924.66847   -250641.48843
                  23841871.3364                                   23841867.3284
                                                                        42.5004
        23.2504
 -11237785.87947  -8721449.38345
                  22722541.6804                                   22722537.7034
                                                                        43.7504
        30.0004
 09 10 17  0 35  0.0000000  0 10G02G04G10G05G13G29G23G16G07G25
  -8215218.48848  -6385332.17246
                  20834754.4694                                   20834748.4104
                                                                        52.2504
        40.2504
   4623730.96147   3609438.78544
                  23314975.1954                                   23314972.6134
                                                                        45.2504
        29.7504
 -25069157.02348 -19518899.73446
                  20934067.2114                                   20934063.1214
                                                                        50.7504
        40.0004
 -20342129.57048 -15809786.46946
                  21603267.1724                                   21603263.1764
                                                                        50.5004
        39.5004
 -10792983.96947  -8389114.89845
                  21430637.0944                                   21430632.3954
                                                                        47.5004
        35.2504
 -20304766.08648 -15807702.16846
                  21986418.9844                                   21986415.6414
                                                                        49.2504
        37.0004
   2092318.85547   1640222.18843
                  23866377.6884                                   23866371.2624
                                                                        44.5004
        22.5004
   -946830.16146   -707180.87443
                  23814320.0864                                   23814315.7074
                                                                        39.5004
        19.2504
   -536976.85547   -381591.20344
                  23809891.5864                                   23809888.1604
                                                                        42.2504
        24.5004
 -11358431.41447  -8815458.88744
                  22699583.9224                                   22699579.6054
                                                                        44.5004
        29.5004
 09 10 17  0 35 30.0000000  0 10G02G04G10G05G13G29G23G16G07G25
  -8238587.93748  -6403542.14146
                  20830307.4224                                   20830301.2814
                                                                        51.5004
        40.5004
   4654626.96147   3633513.54745
                  23320854.6644                                   23320851.8524
                                                                        45.7504
        30.2504
 -25208345.91448 -19627358.64546
                  20907580.4694                                   20907576.3754
                                                                        51.2504
        39.2504
 -20496964.30548 -15930436.89146
                  21573803.1174                                   21573798.9694
                                                                        51.0004
        40.0004
 -10824669.63747  -8413805.00845
                  21424607.5704                                   21424603.2504
                                                                        47.5004
        34.7504
 -20405452.66048 -15886159.22746
                  21967258.7974                                   21967255.4304
                                                                        49.5004
        37.0004
   2116607.67247   1659148.55943
                  23871000.0164                                   23870993.4694
                                                                        43.0004
        22.5004
  -1072295.84846   -804946.35243
                  23790445.7424                                   23790440.7194
                                                                        40.2504
        21.2504
   -704682.04347   -512270.50444
                  23777979.0004                                   23777975.0514
                                                                        44.2504
        27.5004
 -11478529.80547  -8909042.04744
                  22676729.7504                                   22676725.4304
                                                                        45.0004
        29.7504
 09 10 17  0 36  0.0000000  0 10G02G04G10G05G13G29G23G16G07G25
  -8261416.64548  -6421330.75446
                  20825963.2114                                   20825957.0824
                                                                        52.5004
        40.7504
   4685738.25047   3657756.06645
                  23326775.6484                                   23326772.2074
                                                                        46.2504
        30.7504
 -25347029.36748 -19735423.58646
                  20881189.8284                                   20881185.5274
                                                                        50.7504
        40.5004
 -20651393.25048 -16050771.14146
                  21544416.5234                                   21544412.5274
                                                                        51.0004
        39.7504
 -10855744.59048  -8438019.25445
                  21418693.7584                                   21418689.2304
                                                                        49.0004
        35.0004
 -20505527.88748 -15964139.91046
                  21948215.1954                                   21948211.6564
                                                                        49.7504
        37.0004
   2141182.47746   1678297.74643
                  23875676.1564                                   23875670.2034
                                                                        41.0004
        20.7504
  -1197203.82047   -902277.26243
                  23766676.6334                                   23766671.4574
                                                                        42.5004
        21.7504
   -872037.25847   -642677.12544
                  23746132.2734                                   23746128.5204
                                                                        43.0004
        28.5004
 -11598079.52747  -9002197.65645
                  22653980.3594                                   22653976.0354
                                                                        45.2504
        30.5004
 09 10 17  0 36 30.0000000  0 10G02G04G10G05G13G29G23G16G07G25
  -8283706.08648  -6438699.15646
                  20821722.0004                                   20821715.3674
                                                                        52.5004
        40.7504
   4717062.29347   3682164.36344
                  23332735.9844                                   23332733.0984
                                                                        46.0004
        29.7504
 -25485206.87148 -19843094.35246
                  20854895.3204                                   20854891.0984
                                                                        51.2504
        40.5004
 -20805414.85248 -16170787.97346
                  21515107.2194                                   21515103.3674
                                                                        50.7504
        40.0004
 -10886211.17648  -8461759.44145
                  21412896.2974                                   21412891.9734
                                                                        49.0004
        34.7504
 -20604991.50048 -16041644.03146
                  21929287.7114                                   21929284.7154
                                                                        49.2504
        37.2504
   2166039.83246   1697667.11343
                  23880406.2664                                   23880399.7894
                                                                        40.7504
        21.0004
  -1321553.12947   -999172.87943
                  23743014.1884                                   23743008.8324
                                                                        42.0004
        22.5004
  -1039040.09847   -772809.16444
                  23714353.1094                                   23714348.6374
                                                                        44.5004
        28.2504
 -11717079.61347  -9094924.97345
                  22631335.1884                                   22631331.3484
                                                                        45.0004
        30.2504
 09 10 17  0 37  0.0000000  0 10G02G04G10G05G13G29G23G16G07G25
  -8305458.78148  -6455649.33246
                  20817582.2274                                   20817576.3524
                                                                        52.0004
        41.5004
   4748595.86747   3706735.93844
                  23338735.8594                                   23338733.4964
                                                                        45.0004
        27.2504
 -25622878.09048 -19950370.65646
                  20828697.2894                                   20828693.4454
                                                                        50.5004
        40.0004
 -20959028.34848 -16290486.77346
                  21485875.5634                                   21485871.4264
                                                                        51.0004
        40.0004
 -10916072.28148  -8485027.83645
                  21407214.2344                                   21407209.4184
                                                                        49.2504
        34.7504
 -20703843.16848 -16118671.34846
                  21910476.9614                                   21910473.4924
                                                                        49.2504
        37.2504
   2191176.50047   1717254.11343
                  23885189.9694                                   23885183.3594
                                                                        42.0004
        21.5004
  -1445342.73447  -1095632.32444
                  23719457.0784                                   23719452.6374
                                                                        43.0004
        24.0004
  -1205688.84447   -902665.26244
                  23682640.4534                                   23682636.1174
                                                                        44.5004
        27.5004
 -11835529.48847  -9187223.55945
                  22608794.8754                                   22608791.0704
                                                                        46.0004
        30.0004
 09 10 17  0 37 30.0000000  0 10G02G04G10G05G13G29G23G16G07G25
  -6751255.54348  -5244581.88346
                  21113337.4534                                   21113331.4494
                                                                        52.2504
        41.0004
   6355755.89547   4959068.39144
                  23644568.4144                                   23644565.8484
                                                                        44.7504
        29.0004
 -24184616.75848 -18829647.54746
                  21102389.4924                                   21102385.7504
                                                                        51.2504
        40.0004
 -19536806.97748 -15182262.30946
                  21756515.2194                                   21756511.2344
                                                                        50.7504
        40.2504
  -9369908.89548  -7280225.18045
                  21701439.0634                                   21701434.8714
                                                                        49.2504
        34.7504
 -19226659.30548 -14967619.03546
                  22191575.7814                                   22191572.0824
                                                                        49.2504
        37.0004
   3792008.31647   2964655.51644
                  24189818.1024                                   24189811.5204
                                                                        43.2504
        24.5004
      6852.68847     35948.52044
                  23995800.9064                                   23995796.5634
                                                                        42.2504
        24.2504
    203444.83647    195361.00444
                  23950789.2584                                   23950785.3874
                                                                        43.2504
        27.0004
 -10378003.95747  -8051489.36344
                  22886152.7424                                   22886149.0004
                                                                        46.0004
        29.5004
 09 10 17  0 38  0.0000000  0 10G02G04G10G05G13G29G23G16G07G25
  -6771942.04748  -5260701.24246
                  21109400.7974                                   21109394.9104
                                                                        51.5004
        40.7504
   6387699.74247   4983959.65644
                  23650647.7194                                   23650643.9024
                                                                        46.0004
        27.7504
 -24321273.05148 -18936132.93746
                  21076384.9924                                   21076380.8244
                                                                        51.2504
        40.2504
 -19689602.34448 -15301323.62946
                  21727439.0474                                   21727434.9924
                                                                        50.5004
        39.7504
  -9398567.25848  -7302556.37545
                  21695985.7894                                   21695981.1994
                                                                        49.2504
        35.2504
 -19324287.91848 -15043693.35546
                  22172997.9384                                   22172994.4304
                                                                        49.5004
        37.0004
   3817692.30146   2984668.98843
                  24194705.5634                                   24194699.4884
                                                                        41.2504
        22.7504
   -115815.39847    -59636.96544
                  23972458.2274                                   23972453.1684
                                                                        42.5004
        25.7504
     37510.05547     66061.23444
                  23919213.3204                                   23919208.7584
                                                                        43.5004
        26.5004
 -10495351.91047  -8142929.28145
                  22863822.2734                                   22863818.2034
                                                                        46.0004
        31.0004
 09 10 17  0 38 30.0000000  0 10G02G04G10G05G13G29G23G16G07G25
  -6792097.04348  -5276406.43046
                  21105565.3984                                   21105559.2344
                                                                        52.0004
        41.5004
   6419845.87547   5009008.57444
                  23656764.9454                                   23656761.7814
                                                                        45.0004
        29.0004
 -24457419.29748 -19042220.89846
                  21050476.7814                                   21050473.1374
                                                                        51.0004
        40.0004
 -19841985.44548 -15420063.70346
                  21698441.3594                                   21698437.4264
                                                                        51.0004
        39.5004
  -9426626.78548  -7324420.95345
                  21690646.2664                                   21690641.8284
                                                                        49.0004
        34.5004
 -19421303.32848 -15119289.81246
                  22154536.2274                                   22154532.9344
                                                                        49.0004
        37.5004
   3843646.42646   3004892.93444
                  24199644.1644                                   24199638.1214
                                                                        40.5004
        24.7504
   -237920.00047   -154783.39144
                  23949222.0314                                   23949217.6024
                                                                        43.0004
        24.7504
   -128062.82047    -62956.58244
                  23887705.4454                                   23887701.2544
                                                                        43.0004
        26.2504
 -10612146.30547  -8233937.88345
                  22841596.8204                                   22841593.0704
                                                                        46.5004
        30.5004
 09 10 17  0 39  0.0000000  0 10G02G04G10G05G13G29G23G16G07G25
  -6811723.94548  -5291700.11346
                  21101830.6334                                   21101824.4964
                                                                        51.5004
        41.2504
   6452190.50047   5034212.15244
                  23662920.4304                                   23662916.6914
                                                                        45.0004
        27.2504
 -24593055.96948 -19147911.76646
                  21024666.0634                                   21024662.4454
                                                                        50.7504
        40.2504
 -19993956.30948 -15538482.56646
                  21669522.1334                                   21669518.1174
                                                                        50.7504
        39.7504
  -9454091.16848  -7345821.76245
                  21685420.0554                                   21685415.2114
                                                                        49.0004
        34.7504
 -19517706.68048 -15194409.29746
                  22136191.4064                                   22136188.2854
                                                                        49.7504
        37.5004
   3869866.03146   3025323.76243
                  24204633.5314                                   24204627.6174
                                                                        39.5004
        22.5004
   -359461.44546   -249491.03144
                  23926093.4064                                   23926088.8484
                                                                        41.5004
        25.0004
   -293273.19547   -191691.91844
                  23856267.5084                                   23856263.0594
                                                                        44.0004
        25.0004
 -10728387.50447  -8324515.44545
                  22819476.5784                                   22819472.6844
                                                                        45.5004
        30.5004
 09 10 17  0 39 30.0000000  0 10G02G04G10G05G13G29G23G16G07G25
  -6830823.82448  -5306583.14546
                  21098196.2504                                   21098190.1454
                                                                        52.2504
        41.7504
   6484731.57047   5059568.79344
                  23669112.6484                                   23669109.1844
                                                                        44.5004
        28.7504
 -24728181.12948 -19253204.10946
                  20998952.4454                                   20998948.8634
                                                                        51.5004
        40.0004
 -20145513.02048 -15656578.68446
                  21640682.3984                                   21640678.2344
                                                                        51.2504
        40.0004
  -9480961.77048  -7366759.89145
                  21680306.4614                                   21680301.8164
                                                                        49.0004
        34.2504
 -19613496.72748 -15269050.86346
                  22117963.1174                                   22117959.7034
                                                                        48.5004
        37.2504
   3896349.09446   3045959.88743
                  24209673.5234                                   24209667.5354
                                                                        39.7504
        20.5004
   -480437.20747   -343757.89543
                  23903072.7424                                   23903068.2734
                                                                        42.0004
        22.5004
   -458117.38747   -320141.92244
                  23824898.8284                                   23824893.5354
                                                                        43.7504
        25.5004
 -10844073.84047  -8414660.59845
                  22797462.6884                                   22797458.4264
                                                                        46.0004
        30.0004
 09 10 17  0 40  0.0000000  0 10G02G04G10G05G13G29G23G16G07G25
  -6849397.64148  -5321056.24646
                  21094661.5084                                   21094655.6644
                                                                        51.5004
        40.7504
   6517467.69147   5085077.42244
                  23675341.5314                                   23675339.1454
                                                                        44.2504
        29.5004
 -24862793.19948 -19358096.64546
                  20973336.9614                                   20973332.8634
                                                                        51.5004
        40.0004
 -20296653.38348 -15774350.36746
                  21611920.9844                                   21611916.9224
                                                                        50.5004
        40.0004
  -9507240.21948  -7387236.60245
                  21675305.7034                                   21675301.0944
                                                                        49.2504
        34.2504
 -19708672.48448 -15343213.77746
                  22099851.9064                                   22099848.4534
                                                                        48.7504
        37.0004
   3923092.98046   3066799.30143
                  24214762.0864                                   24214755.8984
                                                                        39.7504
        18.2504
   -600845.47346   -437582.54343
                  23880159.8204                                   23880155.0664
                                                                        41.2504
        22.5004
   -622592.10947   -448304.05544
                  23793599.8914                                   23793595.9844
                                                                        44.2504
        27.2504
 -10959203.41847  -8504371.93445
                  22775554.0314                                   22775550.1374
                                                                        46.2504
        30.2504
 09 10 17  0 40 30.0000000  0 10G02G04G10G05G13G29G23G16G07G25
  -6867447.39148  -5335120.99246
                  21091226.6884                                   21091220.7154
                                                                        51.0004
        40.2504
   6550396.09847   5110735.88744
                  23681607.7194                                   23681604.9924
                                                                        43.0004
        27.0004
 -24996890.53948 -19462588.07846
                  20947818.8914                                   20947814.9614
                                                                        50.7504
        40.2504
 -20447376.40648 -15891796.84446
                  21583239.7584                                   21583235.3954
                                                                        50.7504
        40.5004
  -9532928.79348  -7407253.67645
                  21670417.3594                                   21670413.2234
                                                                        49.0004
        34.5004
 -19803233.63748 -15416897.77746
                  22081857.5634                                   22081853.8244
                                                                        49.0004
        37.0004
   3950095.17246   3087839.95743
                  24219901.1024                                   24219893.8404
                                                                        40.2504
        20.7504
   -720684.84846   -530963.88343
                  23857354.8594                                   23857350.4774
                                                                        40.7504
        22.5004
   -786695.12547   -576176.47744
                  23762371.8524                                   23762368.3484
                                                                        45.0004
        29.0004
 -11073775.33647  -8593648.75045
                  22753751.8754                                   22753747.5944
                                                                        45.7504
        30.7504
 09 10 17  0 41  0.0000000  0  9G02G04G10G05G13G29G16G07G25
  -6884975.28148  -5348779.08646
                  21087891.2584                                   21087885.0394
                                                                        50.5004
        40.0004
   6583514.55147   5136542.43044
                  23687909.8754                                   23687906.8094
                                                                        42.0004
        27.2504
 -25130472.46948 -19566677.89846
                  20922399.3524                                   20922395.3284
                                                                        50.7504
        40.2504
 -20597680.57848 -16008916.96946
                  21554637.3054                                   21554633.3164
                                                                        50.0004
        40.5004
  -9558029.84448  -7426812.93045
                  21665641.1024                                   21665636.2854
                                                                        48.7504
        34.7504
 -19897179.59448 -15490102.41046
                  22063980.2194                                   22063976.2114
                                                                        48.5004
        38.0004
   -839954.19546   -623901.06643
                  23834658.7814                                   23834653.8094
                                                                        40.0004
        22.2504
   -950423.84447   -703757.26645
                  23731216.4224                                   23731212.0204
                                                                        44.0004
        30.0004
 -11187788.51247  -8682490.17245
                  22732055.6564                                   22732051.3404
                                                                        46.2504
        30.2504
 09 10 17  0 41 30.0000000  0  9G02G04G10G05G13G29G16G07G25
  -6901982.14148  -5362031.19946
                  21084655.2034                                   21084648.9694
                                                                        50.7504
        40.7504
   6616821.35247   5162495.75444
                  23694247.9224                                   23694244.9064
                                                                        43.0004
        26.5004
 -25263537.09848 -19670364.61346
                  20897077.5634                                   20897073.8524
                                                                        49.7504
        40.0004
 -20747563.95348 -16125709.21146
                  21526115.5394                                   21526111.4534
                                                                        50.2504
        40.2504
  -9582545.20748  -7445915.81245
                  21660975.8054                                   21660971.4884
                                                                        49.7504
        34.2504
 -19990509.60947 -15562827.09446
                  22046220.1414                                   22046216.7274
                                                                        47.2504
        37.5004
   -958651.68046   -716392.61343
                  23812071.0234                                   23812066.2504
                                                                        39.5004
        21.2504
  -1113775.11747   -831043.96144
                  23700130.8524                                   23700126.5124
                                                                        43.5004
        29.7504
 -11301241.16047  -8770894.82445
                  22710466.5864                                   22710462.3954
                                                                        46.2504
        30.0004
 09 10 17  0 42  0.0000000  0  9G02G04G10G05G13G29G16G07G25
  -6918466.09848  -5374875.83246
                  21081518.2894                                   21081512.1254
                                                                        50.7504
        40.5004
   6650317.46547   5188596.60244
                  23700622.7664                                   23700619.0234
                                                                        44.0004
        27.0004
 -25396079.52748 -19773644.42246
                  20871855.5474                                   20871851.8554
                                                                        51.0004
        40.7504
 -20897021.47748 -16242169.61746
                  21497674.8594                                   21497670.5124
                                                                        49.7504
        39.7504
  -9606473.23048  -7464561.00845
                  21656422.5234                                   21656418.2504
                                                                        49.0004
        34.0004
 -20083219.53148 -15635068.58246
                  22028577.5864                                   22028574.4494
                                                                        48.0004
        37.5004
  -1076772.21546   -808434.55543
                  23789593.0084                                   23789589.0784
                                                                        41.2504
        22.0004
  -1276742.91447   -958031.83644
                  23669118.7894                                   23669115.2664
                                                                        42.5004
        29.5004
 -11414128.91847  -8858859.31245
                  22688984.3674                                   22688980.3524
                                                                        47.0004
        30.5004
 09 10 17  0 42 30.0000000  0  9G02G04G10G05G13G29G16G07G25
  -6934426.61748  -5387312.60546
                  21078481.1334                                   21078475.4454
                                                                        51.0004
        41.0004
   6684003.48447   5214845.40244
                  23707032.6334                                   23707029.5474
                                                                        44.0004
        27.7504
 -25528096.19548 -19876514.54746
                  20846733.7274                                   20846729.7854
                                                                        51.0004
        40.0004
 -21046049.02048 -16358294.98446
                  21469315.9304                                   21469311.0594
                                                                        49.2504
        40.5004
  -9629813.64148  -7482748.34045
                  21651980.9144                                   21651976.4024
                                                                        49.2504
        33.7504
 -20175306.76647 -15706824.85246
                  22011054.7504                                   22011050.4964
                                                                        47.0004
        38.0004
  -1194311.96146   -900023.96143
                  23767226.6564                                   23767221.6334
                                                                        40.5004
        22.0004
  -1439322.09046  -1084716.87944
                  23638180.9384                                   23638176.9884
                                                                        41.7504
        28.2504
 -11526448.02047  -8946380.69145
                  22667611.3204                                   22667607.0084
                                                                        46.2504
        30.7504
 09 10 17  0 43  0.0000000  0  9G02G04G10G05G13G29G16G07G25
  -6949867.11748  -5399344.18446
                  21075542.7274                                   21075537.1334
                                                                        51.0004
        40.2504
   6717875.00047   5241238.78544
                  23713478.2424                                   23713475.2344
                                                                        44.0004
        28.5004
 -25659588.12148 -19978975.79346
                  20821711.7344                                   20821707.8484
                                                                        51.0004
        40.2504
 -21194646.74648 -16474085.41046
                  21441038.8594                                   21441034.1564
                                                                        50.0004
        40.5004
  -9652570.44548  -7500480.90645
                  21647650.3674                                   21647645.9804
                                                                        49.5004
        33.7504
 -20266772.28548 -15778096.70746
                  21993648.9924                                   21993645.2974
                                                                        48.0004
        37.7504
  -1311271.74246   -991161.54343
                  23744970.0704                                   23744964.8914
                                                                        41.5004
        22.0004
  -1601511.52046  -1211098.24244
                  23607316.8284                                   23607313.4654
                                                                        41.2504
        25.5004
 -11638199.01647  -9033459.39845
                  22646345.3674                                   22646341.1564
                                                                        45.5004
        30.5004
 09 10 17  0 43 30.0000000  0  9G02G04G10G05G13G29G16G07G25
  -6964794.11348  -5410975.60246
                  21072702.3754                                   21072696.4534
                                                                        51.0004
        40.2504
   6751925.11347   5267771.29744
                  23719957.7734                                   23719954.9344
                                                                        43.2504
        28.5004
 -25790558.53548 -20081030.66446
                  20796788.8054                                   20796785.2854
                                                                        51.0004
        40.5004
 -21342818.28948 -16589543.76246
                  21412842.5234                                   21412838.4654
                                                                        50.2504
        40.5004
  -9674750.84848  -7517764.34045
                  21643429.5944                                   21643425.2584
                                                                        49.0004
        33.7504
 -20357620.68048 -15848887.71546
                  21976361.4304                                   21976357.1524
                                                                        48.7504
        38.2504
  -1427654.61746  -1081849.50043
                  23722823.2194                                   23722817.7664
                                                                        41.2504
        22.2504
  -1763313.61347  -1337177.73844
                  23576527.5704                                   23576523.1884
                                                                        42.5004
        25.0004
 -11749385.79347  -9120098.43045
                  22625187.0234                                   22625183.0984
                                                                        46.0004
        30.2504
 09 10 17  0 44  0.0000000  0  9G02G04G10G05G13G29G16G07G25
  -6979210.56248  -5422209.21146
                  21069958.5784                                   21069952.9064
                                                                        50.2504
        39.7504
   6786150.41447   5294440.33244
                  23726470.4144                                   23726467.3324
                                                                        42.5004
        27.5004
 -25921007.21148 -20182679.00046
                  20771965.2034                                   20771961.3554
                                                                        50.2504
        40.7504
 -21490563.31648 -16704669.75846
                  21384727.4224                                   21384723.3164
                                                                        50.0004
        41.0004
  -9696358.01248  -7534601.08245
                  21639318.0474                                   21639313.5434
                                                                        49.2504
        34.2504
 -20447852.78547 -15919198.48846
                  21959190.1564                                   21959187.1334
                                                                        47.5004
        37.7504
  -1543460.58246  -1172087.91843
                  23700785.6724                                   23700780.6024
                                                                        41.5004
        22.0004
  -1924726.66047  -1462954.13344
                  23545812.0634                                   23545807.3284
                                                                        43.0004
        26.7504
 -11860008.38747  -9206297.82045
                  22604136.7504                                   22604132.4804
                                                                        45.7504
        30.5004
 09 10 17  0 44 30.0000000  0  9G02G04G10G05G13G29G16G07G25
  -6993120.58648  -5433048.18046
                  21067311.9844                                   21067305.9694
                                                                        50.2504
        40.0004
   6820546.23447   5321242.21944
                  23733015.5164                                   23733013.1644
                                                                        42.5004
        26.5004
 -26050935.76248 -20283922.03546
                  20747240.7584                                   20747236.9734
                                                                        51.0004
        40.7504
 -21637882.57048 -16819463.96546
                  21356693.6174                                   21356689.3244
                                                                        49.7504
        41.0004
  -9717397.01648  -7550995.10945
                  21635314.2814                                   21635310.2154
                                                                        49.0004
        33.5004
 -20537470.78148 -15989030.70746
                  21942137.0164                                   21942133.4264
                                                                        48.0004
        37.5004
  -1658691.08247  -1261877.91843
                  23678858.7734                                   23678853.2194
                                                                        42.5004
        22.5004
  -2085750.65647  -1588427.37144
                  23515170.3594                                   23515165.6644
                                                                        44.7504
        28.7504
 -11970068.30547  -9292058.76645
                  22583192.8594                                   22583188.5554
                                                                        46.5004
        31.2504
 09 10 17  0 45  0.0000000  0  9G02G04G10G05G13G29G16G07G25
  -7006524.24248  -5443492.59446
                  21064761.0704                                   21064755.2814
                                                                        51.0004
        40.0004
   6855112.21147   5348176.67644
                  23739593.7664                                   23739591.2664
                                                                        43.0004
        27.5004
 -26180340.97348 -20384757.25846
                  20722615.5474                                   20722611.8484
                                                                        51.2504
        40.5004
 -21784772.48448 -16933923.65246
                  21328741.4924                                   21328737.3054
                                                                        49.7504
        40.5004
  -9737867.73048  -7566946.32045
                  21631418.9224                                   21631414.5744
                                                                        49.7504
        34.0004
 -20626471.85947 -16058382.20346
                  21925200.3984                                   21925197.0864
                                                                        47.7504
        37.2504
  -1773342.31647  -1351216.52043
                  23657041.0864                                   23657035.6914
                                                                        42.2504
        22.5004
  -2246380.91447  -1713593.81244
                  23484603.0784                                   23484598.1804
                                                                        43.2504
        28.5004
 -12079562.37147  -9377378.81245
                  22562356.8524                                   22562352.6994
                                                                        46.7504
        30.0004
 09 10 17  0 45 30.0000000  0  9G02G04G10G05G13G29G16G07G25
  -7019425.15248  -5453545.27746
                  21062306.4384                                   21062300.3164
                                                                        51.2504
        40.0004
   6889844.35247   5375240.67244
                  23746203.4144                                   23746200.0824
                                                                        44.2504
        27.7504
 -26309223.39148 -20485185.10246
                  20698090.2584                                   20698086.0004
                                                                        51.0004
        40.5004
 -21931233.90248 -17048049.44946
                  21300870.5944                                   21300866.5944
                                                                        50.5004
        40.7504
  -9757773.81248  -7582457.54745
                  21627631.2274                                   21627626.3484
                                                                        49.5004
        33.5004
 -20714858.10248 -16127254.61746
                  21908380.9224                                   21908377.5554
                                                                        48.0004
        37.7504
  -1887415.30547  -1440104.58243
                  23635333.8364                                   23635328.3444
                                                                        42.0004
        22.5004
  -2406616.57447  -1838452.73444
                  23454111.7504                                   23454106.9104
                                                                        42.5004
        28.7504
 -12188491.44147  -9462258.60245
                  22541628.4774                                   22541623.9064
                                                                        46.2504
        31.2504
 09 10 17  0 46  0.0000000  0  9G02G04G10G05G13G29G16G07G25
  -7031825.73048  -5463208.08646
                  21059946.7894                                   21059940.6564
                                                                        50.5004
        39.7504
   6924739.71147   5402431.85544
                  23752843.6484                                   23752840.3484
                                                                        44.2504
        25.5004
 -26437582.44948 -20585205.13746
                  20673664.5004                                   20673660.3054
                                                                        50.5004
        40.5004
 -22077265.53148 -17161840.33246
                  21273081.7814                                   21273077.5084
                                                                        51.0004
        40.7504
  -9777118.96548  -7597531.68045
                  21623949.5004                                   21623945.0394
                                                                        49.0004
        33.7504
 -20802629.33647 -16195647.76246
                  21891679.1644                                   21891675.5744
                                                                        47.5004
        37.2504
  -2000909.15646  -1528541.34843
                  23613736.2974                                   23613731.2854
                                                                        40.7504
        22.2504
  -2566455.55547  -1963002.53544
                  23423694.6954                                   23423690.3754
                                                                        42.2504
        28.7504
 -12296855.17247  -9546697.85945
                  22521007.5164                                   22521002.8364
                                                                        46.2504
        31.2504
 09 10 17  0 46 30.0000000  0  9G02G04G10G05G13G29G16G07G25
  -7043726.44548  -5472481.37546
                  21057682.1804                                   21057676.0634
                                                                        50.5004
        40.5004
   6959797.05147   5429749.25043
                  23759514.6884                                   23759511.0354
                                                                        43.0004
        23.7504
 -26565415.90648 -20684815.62146
                  20649338.5704                                   20649334.7034
                                                                        51.0004
        40.0004
 -22222864.68748 -17275294.21146
                  21245375.0394                                   21245370.9654
                                                                        49.7504
        41.0004
  -9795903.85248  -7612169.26245
                  21620374.9224                                   21620370.4184
                                                                        49.0004
        33.2504
 -20889784.14147 -16263560.60546
                  21875093.7114                                   21875090.3284
                                                                        47.2504
        37.5004
  -2113821.41846  -1616524.88743
                  23592249.9144                                   23592244.7774
                                                                        40.5004
        22.7504
  -2725894.38346  -2087240.48844
                  23393354.4534                                   23393350.7154
                                                                        41.5004
        29.5004
 -12404651.39547  -9630694.87945
                  22500494.4614                                   22500490.3054
                                                                        46.7504
        31.0004
 09 10 17  0 47  0.0000000  0  9G02G04G10G05G13G29G16G07G25
  -7055130.88348  -5481367.96146
                  21055511.6334                                   21055506.0164
                                                                        50.0004
        40.5004
   6995012.73047   5457190.03544
                  23766215.4694                                   23766212.9224
                                                                        42.7504
        24.0004
 -26692724.60248 -20784017.23846
                  20625112.2734                                   20625108.5594
                                                                        50.0004
        40.2504
 -22368031.98048 -17388411.57846
                  21217750.8134                                   21217746.6054
                                                                        50.2504
        41.0004
  -9814133.50048  -7626374.19545
                  21616906.1334                                   21616901.6844
                                                                        49.0004
        33.7504
 -20976324.43748 -16330994.60546
                  21858625.5704                                   21858622.0434
                                                                        48.0004
        38.0004
  -2226153.27047  -1704056.14843
                  23570873.7894                                   23570868.9104
                                                                        43.0004
        23.0004
  -2884932.20346  -2211165.95344
                  23363090.2664                                   23363086.7074
                                                                        41.5004
        29.0004
 -12511881.12547  -9714250.51245
                  22480089.1644                                   22480085.2074
                                                                        47.0004
        30.7504
 09 10 17  0 47 30.0000000  0  9G02G04G10G05G13G29G16G07G25
  -7066036.37548  -5489865.73046
                  21053436.4534                                   21053430.5864
                                                                        51.0004
        40.2504
   7030389.14847   5484756.00444
                  23772947.0164                                   23772945.0704
                                                                        43.2504
        25.2504
 -26819502.68048 -20882805.30546
                  20600987.1334                                   20600983.2464
                                                                        51.2504
        40.2504
 -22512761.55148 -17501187.85946
                  21190209.7424                                   21190205.5234
                                                                        50.7504
        41.0004
  -9831804.11748  -7640143.53945
                  21613543.5164                                   21613539.3204
                                                                        49.0004
        33.0004
 -21062245.22348 -16397945.90246
                  21842275.7814                                   21842272.4064
                                                                        48.7504
        38.0004
  -2337898.40646  -1791130.30143
                  23549609.7034                                   23549604.5514
                                                                        41.7504
        23.7504
  -3043562.08647  -2334773.58244
                  23332904.2814                                   23332900.0984
                                                                        43.0004
        29.0004
 -12618538.53147  -9797360.18745
                  22459793.0004                                   22459788.5824
                                                                        46.7504
        31.2504
 09 10 17  0 48  0.0000000  0  9G02G04G10G05G13G29G16G07G25
  -5501023.37548  -4270375.08646
                  21351248.8134                                   21351242.6644
                                                                        50.7504
        39.7504
   8641343.83247   6740045.32044
                  24079502.5234                                   24079499.8834
                                                                        44.0004
        27.5004
 -25370323.66048 -19753574.92646
                  20876756.8204                                   20876752.4224
                                                                        51.5004
        40.2504
 -21081625.59448 -16386016.98846
                  21462545.9064                                   21462541.4574
                                                                        50.5004
        40.7504
  -8273497.16048  -6425878.40645
                  21910079.0004                                   21910074.7274
                                                                        49.0004
        33.5004
 -19572122.29748 -15236811.16846
                  22125836.5784                                   22125833.0204
                                                                        48.2504
        38.0004
   -873630.70346   -650142.49644
                  23828249.6644                                   23828245.6414
                                                                        41.5004
        24.5004
  -1626354.05547  -1230455.57444
                  23602589.9144                                   23602585.7894
                                                                        42.5004
        29.5004
 -11149198.08247  -8652419.57845
                  22739399.0554                                   22739395.1524
                                                                        46.5004
        31.0004
 09 10 17  0 48 30.0000000  0  9G02G04G10G05G13G29G16G07G25
  -5510936.02348  -4278099.24646
                  21349362.2344                                   21349356.4024
                                                                        50.7504
        39.5004
   8677035.27747   6767856.79744
                  24086294.3204                                   24086291.6334
                                                                        44.7504
        28.0004
 -25496037.18048 -19851533.50046
                  20852834.7034                                   20852830.4734
                                                                        50.7504
        40.7504
 -21225474.18748 -16498106.80146
                  21435172.3524                                   21435168.1334
                                                                        51.7504
        40.7504
  -8290057.37948  -6438782.49645
                  21906928.0394                                   21906923.5944
                                                                        48.7504
        33.7504
 -19656802.42248 -15302795.66446
                  22109722.5084                                   22109718.9454
                                                                        49.2504
        37.5004
   -984198.30547   -736298.96944
                  23807209.7974                                   23807205.5394
                                                                        42.2504
        25.5004
  -1784158.28547  -1353419.91844
                  23572560.6644                                   23572556.2074
                                                                        43.5004
        29.0004
 -11254707.76247  -8734634.90245
                  22719321.3914                                   22719317.4654
                                                                        46.0004
        30.5004
 09 10 17  0 49  0.0000000  0  9G02G04G10G05G13G29G16G07G25
  -5520356.80948  -4285440.12146
                  21347569.5234                                   21347563.2424
                                                                        50.5004
        40.0004
   8712879.15247   6795787.04744
                  24093115.2424                                   24093112.5664
                                                                        44.5004
        26.7504
 -25621217.97748 -19949076.96946
                  20829013.2974                                   20829009.3054
                                                                        50.7504
        40.2504
 -21368881.78948 -16609852.94946
                  21407882.5554                                   21407878.5044
                                                                        51.7504
        40.7504
  -8306067.89548  -6451258.23845
                  21903881.8134                                   21903877.0824
                                                                        49.0004
        33.0004
 -19740863.80948 -15368298.00846
                  22093726.0474                                   22093722.6804
                                                                        49.5004
        38.0004
  -1094177.20747   -821996.73844
                  23786282.2894                                   23786276.7384
                                                                        42.7504
        26.0004
  -1941547.67647  -1476061.00444
                  23542610.3364                                   23542605.5864
                                                                        43.0004
        28.5004
 -11359643.78947  -8816403.23845
                  22699352.6564                                   22699348.9264
                                                                        47.0004
        31.0004
 09 10 17  0 49 30.0000000  0  9G02G04G10G05G13G29G16G07G25
  -5529285.42648  -4292397.49646
                  21345870.6884                                   21345864.8204
                                                                        50.5004
        40.0004
   8748875.31647   6823836.01244
                  24099964.8134                                   24099961.9844
                                                                        43.2504
        26.0004
 -25745862.87548 -20046202.88746
                  20805294.3134                                   20805290.1884
                                                                        51.0004
        39.5004
 -21511844.83648 -16721252.73846
                  21380677.8204                                   21380673.7704
                                                                        51.2504
        41.2504
  -8321528.76248  -6463305.65645
                  21900939.6724                                   21900934.9454
                                                                        49.0004
        33.5004
 -19824304.35248 -15433316.60546
                  22077847.8444                                   22077844.7234
                                                                        49.7504
        38.0004
  -1203564.67647   -907233.69944
                  23765465.8364                                   23765461.4384
                                                                        42.5004
        25.5004
  -2098517.96947  -1598375.56644
                  23512740.2274                                   23512735.3874
                                                                        43.0004
        28.2504
 -11464003.60947  -8897722.57045
                  22679493.6724                                   22679489.7114
                                                                        46.5004
        31.0004
 09 10 17  0 50  0.0000000  0  9G02G04G10G05G13G29G16G07G25
  -5537724.02348  -4298973.03146
                  21344264.6804                                   21344258.7154
                                                                        51.0004
        40.0004
   8785021.38746   6852001.77344
                  24106842.9454                                   24106840.1914
                                                                        41.5004
        25.0004
 -25869971.57848 -20142911.00446
                  20781677.1334                                   20781673.1804
                                                                        51.7504
        41.0004
 -21654362.57448 -16832305.53146
                  21353557.4534                                   21353553.6764
                                                                        51.0004
        41.5004
  -8336442.39148  -6474926.65245
                  21898101.4774                                   21898096.4494
                                                                        48.7504
        32.5004
 -19907124.24648 -15497851.55946
                  22062087.7584                                   22062084.1174
                                                                        49.2504
        37.7504
  -1312359.57446   -992008.91844
                  23744762.7974                                   23744758.5514
                                                                        41.5004
        24.7504
  -2255066.64846  -1720361.53544
                  23482950.1644                                   23482945.3674
                                                                        41.7504
        29.0004
 -11567786.25447  -8978592.16045
                  22659744.2274                                   22659740.0434
                                                                        46.7504
        31.5004
 09 10 17  0 50 30.0000000  0  9G02G04G10G05G13G29G16G07G25
  -5545673.35948  -4305167.33246
                  21342751.9304                                   21342746.1884
                                                                        50.5004
        40.5004
   8821316.49646   6880283.62943
                  24113750.1254                                   24113746.9804
                                                                        39.5004
        22.5004
 -25993541.28948 -20239199.10546
                  20758162.7504                                   20758159.0164
                                                                        51.0004
        41.0004
 -21796431.82848 -16943008.85246
                  21326522.5944                                   21326518.5514
                                                                        51.2504
        41.5004
  -8350810.74648  -6486122.77045
                  21895367.0864                                   21895362.4924
                                                                        48.2504
        32.5004
 -19989321.34848 -15561901.21146
                  22046445.9844                                   22046442.6254
                                                                        49.7504
        37.2504
  -1420559.32047  -1076320.38343
                  23724173.6484                                   23724168.5864
                                                                        42.0004
        23.7504
  -2411189.76646  -1842015.94144
                  23453240.5164                                   23453235.8794
                                                                        41.7504
        27.2504
 -11670989.64147  -9059010.37545
                  22640105.6644                                   22640101.4454
                                                                        46.2504
        30.7504
 09 10 17  0 51  0.0000000  0  9G02G04G10G05G13G29G16G07G25
  -5553135.80948  -4310982.23046
                  21341332.2584                                   21341326.5704
                                                                        50.2504
        39.5004
   8857757.81346   6908679.39843
                  24120684.6024                                   24120681.4734
                                                                        41.0004
        22.5004
 -26116571.74248 -20335066.98846
                  20734750.5944                                   20734746.4774
                                                                        51.2504
        40.5004
 -21938051.94548 -17053362.20746
                  21299573.1414                                   21299568.8794
                                                                        51.0004
        41.0004
  -8364635.76648  -6496895.50445
                  21892736.3594                                   21892731.6564
                                                                        48.5004
        33.2504
 -20070896.90248 -15625466.57046
                  22030922.7504                                   22030919.2704
                                                                        50.0004
        37.7504
  -1528163.64147  -1160167.89843
                  23703696.0784                                   23703691.8284
                                                                        42.0004
        23.5004
  -2566885.43046  -1963337.22744
                  23423612.7814                                   23423608.0044
                                                                        41.5004
        27.5004
 -11773613.79347  -9138977.24245
                  22620576.6804                                   22620572.7154
                                                                        46.0004
        30.7504
 09 10 17  0 51 30.0000000  0  9G02G04G10G05G13G29G16G07G25
  -5560112.00848  -4316418.23846
                  21340004.5634                                   21339998.6214
                                                                        51.0004
        39.5004
   8894344.15647   6937188.21544
                  24127647.3834                                   24127643.8794
                                                                        42.2504
        24.7504
 -26239061.13748 -20430513.28546
                  20711441.5944                                   20711437.9574
                                                                        51.5004
        40.5004
 -22079220.39548 -17163363.61346
                  21272709.6804                                   21272705.7934
                                                                        51.2504
        40.7504
  -8377918.60948  -6507245.76645
                  21890208.7034                                   21890204.0634
                                                                        48.5004
        32.5004
 -20151849.36748 -15688546.39546
                  22015518.3444                                   22015514.4774
                                                                        49.5004
        38.2504
  -1635170.29347  -1243549.68443
                  23683333.6174                                   23683328.9454
                                                                        42.5004
        23.5004
  -2722149.94146  -2084322.51644
                  23394066.9144                                   23394062.5434
                                                                        41.5004
        29.0004
 -11875656.48047  -9218491.02045
                  22601158.3914                                   22601154.6174
                                                                        46.0004
        31.5004
 09 10 17  0 52  0.0000000  0  9G02G04G10G05G13G29G16G07G25
  -5566602.98448  -4321476.14546
                  21338769.3284                                   21338763.2464
                                                                        51.0004
        39.0004
   8931074.55147   6965809.28544
                  24134636.9454                                   24134633.5944
                                                                        42.2504
        26.7504
 -26361007.09048 -20525536.07846
                  20688236.0944                                   20688232.1954
                                                                        50.7504
        40.5004
 -22219935.01248 -17273011.36746
                  21245932.7034                                   21245928.5824
                                                                        50.5004
        41.0004
  -8390661.48448  -6517175.30145
                  21887783.8524                                   21887779.3244
                                                                        48.0004
        32.0004
 -20232178.03148 -15751140.13746
                  22000231.8134                                   22000228.3984
                                                                        49.7504
        37.5004
  -1741577.75847  -1326464.57844
                  23663084.8364                                   23663080.3404
                                                                        42.5004
        24.7504
  -2876979.89546  -2204969.21145
                  23364603.4774                                   23364599.3484
                                                                        41.7504
        30.0004
 -11977116.07847  -9297550.45745
                  22581851.5704                                   22581847.3134
                                                                        46.2504
        30.5004
 09 10 17  0 52 30.0000000  0  9G02G04G10G05G13G29G16G07G25
  -5572611.41448  -4326158.03546
                  21337626.1254                                   21337620.1884
                                                                        51.0004
        39.5004
   8967946.09047   6994540.34044
                  24141653.2894                                   24141650.1604
                                                                        43.2504
        26.0004
 -26482409.24248 -20620135.11346
                  20665134.2344                                   20665130.4304
                                                                        51.2504
        41.0004
 -22360194.41048 -17382304.41046
                  21219242.2734                                   21219238.3484
                                                                        51.5004
        41.0004
  -8402867.21548  -6526686.25845
                  21885461.3914                                   21885456.3244
                                                                        48.0004
        32.2504
 -20311882.85948 -15813247.78946
                  21985064.6484                                   21985061.3714
                                                                        49.7504
        37.5004
  -1847385.35547  -1408912.11743
                  23642950.0394                                   23642945.7624
                                                                        42.5004
        22.5004
  -3031372.89847  -2325275.40645
                  23335223.6884                                   23335219.6484
                                                                        42.0004
        31.0004
 -12077992.53147  -9376155.50445
                  22562655.0784                                   22562651.1914
                                                                        46.0004
        31.0004
 09 10 17  0 53  0.0000000  0  9G02G04G10G05G13G29G16G07G25
  -5578140.20748  -4330466.19146
                  21336573.6804                                   21336568.2584
                                                                        50.5004
        40.2504
   9004955.85547   7023379.09044
                  24148695.4454                                   24148693.1214
                                                                        42.2504
        25.7504
 -26603267.49248 -20714310.39546
                  20642135.5004                                   20642131.6954
                                                                        51.0004
        41.0004
 -22499998.60548 -17491242.71546
                  21192638.2734                                   21192634.2194
                                                                        51.2504
        41.0004
  -8414538.93048  -6535781.09845
                  21883239.9774                                   21883235.6254
                                                                        48.2504
        31.7504
 -20390965.13348 -15874870.30946
                  21970015.9924                                   21970012.6024
                                                                        49.5004
        38.0004
  -1952592.68047  -1490891.85243
                  23622930.3134                                   23622925.8364
                                                                        42.5004
        22.7504
  -3185327.23047  -2445239.82445
                  23305927.6024                                   23305923.1804
                                                                        42.5004
        31.5004
 -12178285.74247  -9454306.05945
                  22543570.4224                                   22543566.4654
                                                                        45.7504
        30.2504
 09 10 17  0 53 30.0000000  0  9G02G04G10G05G13G29G16G07G25
  -5583190.09848  -4334401.18746
                  21335613.0634                                   21335607.2154
                                                                        51.2504
        39.2504
   9042102.40646   7052324.37544
                  24155764.0704                                   24155761.9144
                                                                        41.7504
        24.5004
 -26723579.94948 -20808060.34446
                  20619241.0784                                   20619237.1254
                                                                        52.0004
        40.5004
 -22639345.16048 -17599824.40246
                  21166121.4144                                   21166117.1724
                                                                        51.5004
        41.5004
  -8425677.94548  -6544460.85245
                  21881120.2974                                   21881115.6684
                                                                        48.5004
        32.7504
 -20469423.94948 -15936007.03946
                  21955085.5004                                   21955081.9384
                                                                        49.0004
        37.5004
  -2057198.24647  -1572402.68044
                  23603023.9064                                   23603019.8014
                                                                        42.5004
        24.5004
  -3338840.17247  -2564860.27345
                  23276715.5944                                   23276710.2854
                                                                        43.0004
        31.0004
 -12277994.38347  -9532001.10545
                  22524596.3134                                   22524591.9964
                                                                        45.7504
        31.0004
 09 10 17  0 54  0.0000000  0  9G02G04G10G05G13G29G16G07G25
  -5587763.30148  -4337964.73846
                  21334742.6724                                   21334736.4964
                                                                        51.0004
        39.5004
   9079383.70347   7081374.69943
                  24162858.5634                                   24162855.9964
                                                                        42.7504
        23.7504
 -26843345.69148 -20901384.28946
                  20596450.1804                                   20596446.4024
                                                                        52.0004
        41.0004
 -22778232.71548 -17708048.49246
                  21139692.3754                                   21139688.3444
                                                                        51.5004
        41.2504
  -8436287.60948  -6552728.15645
                  21879101.8834                                   21879097.2814
                                                                        48.0004
        33.0004
 -20547258.88348 -15996657.62946
                  21940274.0474                                   21940270.4694
                                                                        49.0004
        37.7504
  -2161200.73447  -1653443.55544
                  23583233.6884                                   23583229.2504
                                                                        42.2504
        24.2504
  -3491908.53547  -2684134.27045
                  23247586.7734                                   23247582.6254
                                                                        43.5004
        30.2504
 -12377117.41047  -9609239.80545
                  22505733.8754                                   22505729.5944
                                                                        45.2504
        31.0004
 09 10 17  0 54 30.0000000  0  9G02G04G10G05G13G29G16G07G25
  -5591860.21148  -4341157.12546
                  21333963.2114                                   21333956.8714
                                                                        51.0004
        39.2504
   9116799.06647   7110529.50443
                  24169978.7584                                   24169975.4844
                                                                        43.5004
        22.5004
 -26962562.53148 -20994280.51246
                  20573764.0474                                   20573760.3244
                                                                        52.2504
        41.0004
 -22916658.36748 -17815912.66046
                  21113350.7274                                   21113346.7304
                                                                        50.7504
        41.2504
  -8446368.14548  -6560583.14145
                  21877183.5784                                   21877179.3594
                                                                        49.0004
        33.0004
 -20624469.18748 -16056821.50446
                  21925581.3754                                   21925577.6334
                                                                        49.2504
        37.7504
  -2264598.14847  -1734012.96943
                  23563558.0474                                   23563553.1254
                                                                        42.7504
        22.7504
  -3644528.86347  -2803059.13744
                  23218543.7194                                   23218539.2974
                                                                        43.5004
        29.5004
 -12475652.98447  -9686020.80145
                  22486983.2424                                   22486979.0634
                                                                        45.7504
        31.5004
 09 10 17  0 55  0.0000000  0  9G02G04G10G05G13G29G16G07G25
  -5595484.10948  -4343980.94146
                  21333273.3204                                   21333267.2704
                                                                        50.2504
        39.5004
   9154344.75847   7139785.89843
                  24177123.3204                                   24177120.2154
                                                                        44.0004
        22.7504
 -27081230.80548 -21086749.35946
                  20551182.0864                                   20551178.0824
                                                                        52.2504
        41.0004
 -23054622.00448 -17923416.78147
                  21087097.2814                                   21087093.0124
                                                                        51.5004
        42.0004
  -8455923.21147  -6568028.64845
                  21875364.7894                                   21875360.8914
                                                                        47.5004
        32.5004
 -20701056.10248 -16116499.64846
                  21911007.5084                                   21911003.5354
                                                                        50.0004
        38.0004
  -2367390.94547  -1814111.23843
                  23543997.1884                                   23543992.0314
                                                                        42.5004
        22.7504
  -3796699.78146  -2921633.78544
                  23189586.3594                                   23189581.6374
                                                                        41.5004
        28.2504
 -12573601.61347  -9762344.40245
                  22468344.3754                                   22468340.3634
                                                                        45.5004
        31.0004
 09 10 17  0 55 30.0000000  0  9G02G04G10G05G13G29G16G07G25
  -5598636.85248  -4346437.63346
                  21332673.3914                                   21332667.7704
                                                                        50.7504
        39.2504
   9192018.79347   7169142.27344
                  24184293.0634                                   24184289.8794
                                                                        43.5004
        25.2504
 -27199349.31648 -21178789.76246
                  20528704.6564                                   20528701.0984
                                                                        51.7504
        40.2504
 -23192122.18448 -18030559.73846
                  21060931.7344                                   21060927.4304
                                                                        51.5004
        41.7504
  -8464955.30147  -6575066.63345
                  21873646.2814                                   21873641.7664
                                                                        47.2504
        32.0004
 -20777019.21148 -16175691.67646
                  21896552.4064                                   21896548.5044
                                                                        49.0004
        38.0004
  -2469578.23847  -1893737.70744
                  23524551.4924                                   23524546.3634
                                                                        42.5004
        24.0004
  -3948418.63347  -3039856.18044
                  23160715.4454                                   23160711.0314
                                                                        43.0004
        29.0004
 -12670962.73447  -9838210.21145
                  22449817.2114                                   22449812.7894
                                                                        46.0004
        31.7504
 09 10 17  0 56  0.0000000  0  9G02G04G10G05G13G29G16G07G25
  -5601318.78148  -4348527.45746
                  21332163.3674                                   21332157.5234
                                                                        50.7504
        39.0004
   9229820.94547   7198598.47744
                  24191486.4144                                   24191483.7894
                                                                        44.5004
        25.5004
 -27316915.61748 -21270399.86746
                  20506332.8134                                   20506329.1334
                                                                        51.0004
        40.5004
 -23329156.01648 -18137339.37946
                  21034855.0394                                   21034850.7894
                                                                        50.7504
        41.7504
  -8473465.81248  -6581698.21945
                  21872026.5084                                   21872022.3204
                                                                        48.0004
        31.7504
 -20852357.35948 -16234396.74246
                  21882215.8594                                   21882212.2624
                                                                        48.5004
        37.2504
  -2571157.37147  -1972890.27743
                  23505222.0474                                   23505216.0124
                                                                        43.7504
        22.5004
  -4099681.39146  -3157723.27344
                  23131931.0784                                   23131926.4494
                                                                        41.5004
        29.5004
 -12767733.93447  -9913616.33645
                  22431402.4774                                   22431398.0354
                                                                        45.0004
        31.7504
 09 10 17  0 56 30.0000000  0  9G02G04G10G05G13G29G16G07G25
  -5603531.54348  -4350251.68446
                  21331741.9064                                   21331736.0004
                                                                        50.0004
        38.7504
   9267749.25047   7228152.96144
                  24198703.5784                                   24198701.3164
                                                                        43.2504
        25.5004
 -27433928.09848 -21361578.41046
                  20484066.1094                                   20484062.1214
                                                                        52.2504
        41.0004
 -23465721.49248 -18243754.02346
                  21008867.4534                                   21008863.7464
                                                                        51.2504
        41.7504
  -8481456.38347  -6587924.64845
                  21870506.0004                                   21870501.6454
                                                                        47.7504
        31.7504
 -20927070.06248 -16292614.41046
                  21867998.5164                                   21867995.0634
                                                                        49.2504
        37.5004
  -2672127.03147  -2051567.91843
                  23486008.1174                                   23486002.0904
                                                                        43.5004
        22.7504
  -4250485.17247  -3275232.70345
                  23103234.3134                                   23103229.3754
                                                                        43.7504
        30.0004
 -12863914.10247  -9988561.92245
                  22413099.5944                                   22413095.1994
                                                                        45.2504
        31.0004
 09 10 17  0 57  0.0000000  0  9G02G04G10G05G13G29G16G07G25
  -5605276.60248  -4351611.47746
                  21331410.3204                                   21331403.8244
                                                                        49.7504
        39.0004
   9305802.17246   7257804.53944
                  24205944.5084                                   24205942.3794
                                                                        41.5004
        24.2504
 -27550385.09448 -21452324.13746
                  20461905.0314                                   20461901.1414
                                                                        52.0004
        40.7504
 -23601816.94148 -18349802.43046
                  20982969.3524                                   20982965.3164
                                                                        50.0004
        41.5004
  -8488928.73047  -6593747.26245
                  21869084.3984                                   21869079.9694
                                                                        47.7504
        32.2504
 -21001156.49647 -16350344.07046
                  21853900.3524                                   21853896.8244
                                                                        47.5004
        37.7504
  -2772485.50847  -2129769.31243
                  23466910.5784                                   23466904.9104
                                                                        43.7504
        23.7504
  -4400826.48447  -3392381.78544
                  23074625.4844                                   23074620.4064
                                                                        44.0004
        29.7504
 -12959502.14147 -10063046.12145
                  22394909.8754                                   22394905.6374
                                                                        44.5004
        30.0004
 09 10 17  0 57 30.0000000  0  9G02G04G10G05G13G29G16G07G25
  -5606556.16448  -4352608.52746
                  21331166.4534                                   21331160.5784
                                                                        50.0004
        39.7504
   9343977.49646   7287551.46143
                  24213209.0314                                   24213206.7464
                                                                        41.5004
        23.5004
 -27666286.77048 -21542637.18046
                  20439849.4774                                   20439846.0904
                                                                        52.5004
        41.0004
 -23737441.40648 -18455483.87546
                  20957160.9844                                   20957156.8754
                                                                        51.0004
        41.7504
  -8495886.23047  -6599168.70745
                  21867760.2504                                   21867755.5124
                                                                        47.7504
        31.7504
 -21074618.10548 -16407586.85546
                  21839920.6954                                   21839917.2934
                                                                        48.5004
        37.2504
  -2872233.15647  -2207494.72743
                  23447928.6644                                   23447923.1254
                                                                        44.0004
        22.7504
  -4550703.66047  -3509169.18445
                  23046104.2424                                   23046100.1484
                                                                        43.5004
        30.5004
 -13054497.87147 -10137068.76645
                  22376832.8444                                   22376828.5274
                                                                        44.5004
        30.5004
 09 10 17  0 58  0.0000000  0  9G02G04G10G05G13G29G16G07G25
  -4031953.34048  -3125645.29346
                  21630803.6954                                   21630797.6214
                                                                        50.2504
        39.5004
  10957690.52047   8544990.18043
                  24520289.3444                                   24520286.0044
                                                                        43.0004
        21.7504
 -26206209.05948 -20404914.34046
                  20717693.2734                                   20717689.4804
                                                                        51.5004
        41.0004
 -22297169.65648 -17333194.21146
                  21231235.4454                                   21231231.5164
                                                                        51.2504
        41.7504
  -6926911.55147  -5376591.02045
                  22166326.1414                                   22166321.5514
                                                                        47.2504
        31.5004
 -19572032.82848 -15236741.14546
                  22125853.2814                                   22125849.5904
                                                                        49.0004
        37.5004
  -1395946.21547  -1057141.27343
                  23728857.0554                                   23728851.8484
                                                                        43.0004
        22.5004
  -3124690.04347  -2397989.71145
                  23317465.8674                                   23317461.2584
                                                                        45.0004
        30.0004
 -11573478.46147  -8983027.64845
                  22658661.3134                                   22658656.9384
                                                                        45.0004
        31.0004
 09 10 17  0 58 30.0000000  0  9G02G04G10G05G13G29G16G07G25
  -4032309.08248  -3125922.49246
                  21630735.8364                                   21630729.4344
                                                                        49.7504
        39.0004
  10996102.79747   8574921.85943
                  24527598.9844                                   24527594.9534
                                                                        43.5004
        21.7504
 -26320997.55148 -20494359.89546
                  20695849.8284                                   20695845.8134
                                                                        52.0004
        40.2504
 -22431848.66848 -17438138.89546
                  21205606.9454                                   21205602.8714
                                                                        50.7504
        41.2504
  -6932846.55147  -5381215.69145
                  22165196.8674                                   22165192.3484
                                                                        47.5004
        31.5004
 -19644245.30548 -15293010.61346
                  22112111.7584                                   22112107.9774
                                                                        48.7504
        37.7504
  -1494470.02347  -1133913.07444
                  23710108.2424                                   23710103.2814
                                                                        42.7504
        24.2504
  -3273632.43047  -2514048.70745
                  23289123.1644                                   23289118.1214
                                                                        44.5004
        31.0004
 -11667289.00447  -9056126.78145
                  22640809.5164                                   22640805.4224
                                                                        44.2504
        31.0004
 09 10 17  0 59  0.0000000  0  9G02G04G10G05G13G29G16G07G25
  -4032206.11748  -3125842.27046
                  21630755.1644                                   21630749.1174
                                                                        49.7504
        38.7504
  11034630.64847   8604943.59443
                  24534930.7194                                   24534927.3714
                                                                        43.5004
        22.5004
 -26435228.15648 -20583370.73046
                  20674112.4064                                   20674108.4804
                                                                        51.7504
        41.0004
 -22566053.11748 -17542713.79746
                  21180068.5474                                   21180064.5204
                                                                        50.5004
        41.0004
  -6938274.16047  -5385445.01245
                  22164164.1254                                   22164159.5944
                                                                        47.2504
        31.7504
 -19715833.13748 -15348793.34446
                  22098489.2114                                   22098485.5744
                                                                        48.7504
        38.0004
  -1592380.61747  -1210207.03543
                  23691476.4064                                   23691471.5514
                                                                        42.0004
        22.7504
  -3422103.46547  -2629740.43445
                  23260869.7734                                   23260865.4144
                                                                        45.0004
        30.5004
 -11760505.62947  -9128763.10945
                  22623071.4454                                   22623067.1844
                                                                        44.0004
        31.5004
 09 10 17  0 59 30.0000000  0  9G02G04G10G05G13G29G16G07G25
  -4031646.67648  -3125406.34446
                  21630861.3594                                   21630855.7704
                                                                        49.2504
        38.7504
  11073271.53546   8635053.37144
                  24542283.1254                                   24542280.6644
                                                                        41.7504
        25.7504
 -26548900.60548 -20671946.66046
                  20652481.1884                                   20652477.3634
                                                                        52.2504
        41.2504
 -22699782.10948 -17646918.24646
                  21154621.2194                                   21154616.7624
                                                                        51.0004
        41.5004
  -6943198.18447  -5389281.92245
                  22163227.2274                                   22163222.7344
                                                                        47.2504
        32.5004
 -19786797.49248 -15404090.25846
                  22084985.2734                                   22084981.3054
                                                                        49.0004
        37.5004
  -1689678.00847  -1286023.19943
                  23672961.0394                                   23672956.1454
                                                                        42.5004
        23.0004
  -3570101.40247  -2745063.47744
                  23232706.9454                                   23232702.2234
                                                                        44.2504
        29.7504
 -11853128.93747  -9200937.13345
                  22605445.4384                                   22605441.6024
                                                                        45.7504
        31.0004
 09 10 17  1  0  0.0000000  0  9G02G04G10G05G13G29G16G07G25
  -4030629.56248  -3124613.77346
                  21631055.0944                                   21631048.9454
                                                                        50.0004
        38.5004
  11112026.26646   8665251.78943
                  24549657.1804                                   24549655.8364
                                                                        39.5004
        22.7504
 -26662010.55148 -20760084.26246
                  20630957.1884                                   20630953.1094
                                                                        52.5004
        41.2504
 -22833030.48848 -17750748.12547
                  21129264.6644                                   21129260.5984
                                                                        50.5004
        42.0004
  -6947616.96147  -5392725.11745
                  22162385.7664                                   22162381.5474
                                                                        47.2504
        31.7504
 -19857135.23447 -15458898.92246
                  22071600.4384                                   22071597.0164
                                                                        47.7504
        37.7504
  -1786357.87947  -1361358.15644
                  23654563.8134                                   23654558.8014
                                                                        42.5004
        24.2504
  -3717620.52047  -2860013.41045
                  23204634.8134                                   23204630.4844
                                                                        44.7504
        30.0004
 -11945154.77047  -9272645.56645
                  22587933.6174                                   22587929.5044
                                                                        44.7504
        31.7504
 09 10 17  1  0 30.0000000  0  9G02G04G10G05G13G29G16G07G25
  -4029159.58248  -3123468.30546
                  21631334.9224                                   21631329.4104
                                                                        49.7504
        38.5004
  11150890.35946   8695535.41443
                  24557053.8834                                   24557051.5004
                                                                        40.7504
        23.5004
 -26774560.04748 -20847785.18446
                  20609539.6644                                   20609535.6884
                                                                        52.0004
        41.0004
 -22965800.36348 -17854205.19146
                  21103999.4924                                   21103995.2384
                                                                        50.7504
        41.5004
  -6951536.02047  -5395778.89145
                  22161640.5084                                   22161636.2854
                                                                        47.0004
        31.7504
 -19926849.41448 -15513221.65246
                  22058333.8754                                   22058330.2194
                                                                        48.2504
        37.7504
  -1882422.94147  -1436214.05544
                  23636283.2974                                   23636278.3554
                                                                        42.0004
        24.0004
  -3864661.03147  -2974590.37945
                  23176653.3594                                   23176649.6414
                                                                        44.0004
        30.2504
 -12036585.80947  -9343890.55545
                  22570534.9224                                   22570530.5634
                                                                        45.0004
        31.2504
 09 10 17  1  1  0.0000000  0  9G02G04G10G05G13G29G16G07G25
  -4027237.38348  -3121970.50446
                  21631700.7894                                   21631694.9774
                                                                        49.2504
        38.5004
  11189862.92247   8725903.56644
                  24564470.4844                                   24564467.6484
                                                                        42.7504
        26.0004
 -26886547.03548 -20935047.80946
                  20588229.0704                                   20588225.4804
                                                                        51.5004
        41.0004
 -23098088.62148 -17957286.87146
                  21078825.6094                                   21078821.1414
                                                                        51.5004
        41.7504
  -6954956.49247  -5398444.17645
                  22160989.3594                                   22160984.8444
                                                                        47.0004
        31.0004
 -19995938.93448 -15567057.68746
                  22045186.7274                                   22045183.0274
                                                                        49.5004
        38.0004
  -1977870.68046  -1510588.89844
                  23618120.0164                                   23618114.9264
                                                                        41.7504
        24.0004
  -4011219.08647  -3088791.41445
                  23148764.5474                                   23148760.5124
                                                                        44.5004
        31.2504
 -12127419.92247  -9414670.42245
                  22553249.6564                                   22553245.6994
                                                                        45.0004
        31.0004
 09 10 17  1  1 30.0000000  0  9G02G04G10G05G13G29G16G07G25
  -4024867.80948  -3120124.12146
                  21632151.7814                                   21632145.6094
                                                                        49.2504
        38.5004
  11228939.24647   8756352.62544
                  24571906.3134                                   24571903.4024
                                                                        44.5004
        24.7504
 -26997973.34848 -21021873.53946
                  20567025.5314                                   20567022.0004
                                                                        51.7504
        41.2504
 -23229897.13748 -18059994.82846
                  21053743.1564                                   21053738.8364
                                                                        51.0004
        41.5004
  -6957883.89547  -5400725.27345
                  22160432.2814                                   22160428.0124
                                                                        46.5004
        31.7504
 -20064406.73448 -15620409.22746
                  22032157.7274                                   22032154.0594
                                                                        48.7504
        38.2504
  -2072703.16446  -1584484.31244
                  23600073.9774                                   23600069.7934
                                                                        41.7504
        24.5004
  -4157295.14547  -3202616.87145
                  23120967.5084                                   23120962.8284
                                                                        43.7504
        31.0004
 -12217659.43447  -9484986.89145
                  22536077.9144                                   22536073.8054
                                                                        44.7504
        31.2504
 09 10 17  1  2  0.0000000  0  9G02G04G10G05G13G29G16G07G25
  -4022053.14148  -3117930.95346
                  21632687.2974                                   21632681.2544
                                                                        48.5004
        38.7504
  11268117.37947   8786881.08643
                  24579362.5474                                   24579358.4924
                                                                        44.5004
        22.0004
 -27108837.80148 -21108261.49646
                  20545928.8134                                   20545925.1334
                                                                        51.7504
        41.0004
 -23361224.24248 -18162327.62146
                  21028752.4304                                   21028748.0314
                                                                        51.2504
        41.5004
  -6960320.55547  -5402623.97345
                  22159968.5394                                   22159964.4264
                                                                        46.0004
        31.0004
 -20132253.05948 -15673276.47346
                  22019247.0084                                   22019243.6294
                                                                        48.7504
        37.5004
  -2166919.80547  -1657899.87944
                  23582145.0474                                   23582140.9264
                                                                        42.5004
        24.7504
  -4302886.84047  -3316064.91445
                  23093262.2194                                   23093257.7774
                                                                        43.7504
        31.0004
 -12307303.88747  -9554839.68045
                  22519019.0474                                   22519014.9414
                                                                        45.2504
        31.0004
 09 10 17  1  2 30.0000000  0  9G02G04G10G05G13G29G16G07G25
  -4018799.55948  -3115395.74246
                  21633306.8594                                   21633300.7114
                                                                        49.5004
        38.2504
  11307390.64847   8817483.71143
                  24586834.8054                                   24586830.5744
                                                                        42.0004
        19.5004
 -27219144.42248 -21194214.72746
                  20524937.7664                                   20524934.1644
                                                                        52.2504
        41.0004
 -23492073.31248 -18264287.98847
                  21003852.6254                                   21003848.6094
                                                                        51.2504
        42.0004
  -6962273.44547  -5404145.69545
                  22159597.0634                                   22159592.3014
                                                                        46.7504
        31.7504
 -20199483.20348 -15725663.59846
                  22006453.7814                                   22006450.0204
                                                                        49.5004
        38.0004
  -2260524.79347  -1730838.80544
                  23564332.7504                                   23564327.8594
                                                                        43.0004
        24.2504
  -4447995.94147  -3429136.91445
                  23065649.0784                                   23065644.0744
                                                                        44.5004
        30.2504
 -12396357.46147  -9624232.09045
                  22502072.2814                                   22502068.8164
                                                                        45.5004
        30.7504
 09 10 17  1  3  0.0000000  0  9G02G04G10G05G13G29G16G07G25
  -4015104.23848  -3112516.32846
                  21634009.9304                                   21634003.9144
                                                                        49.2504
        38.0004
  11346762.12146   8848162.74243
                  24594325.8524                                   24594324.0084
                                                                        38.2504
        19.0004
 -27328887.57448 -21279728.93446
                  20504054.5784                                   20504050.8244
                                                                        52.0004
        41.0004
 -23622437.80948 -18365870.73847
                  20979045.4614                                   20979041.1254
                                                                        51.0004
        42.5004
  -6963740.15647  -5405288.55145
                  22159317.6644                                   22159312.8954
                                                                        46.7504
        30.7504
 -20266092.06248 -15777566.59446
                  21993778.2504                                   21993774.4694
                                                                        48.5004
        38.0004
  -2353512.35247  -1803296.63344
                  23546637.5314                                   23546633.0394
                                                                        42.5004
        24.5004
  -4592615.41447  -3541827.38345
                  23038128.6954                                   23038124.1454
                                                                        44.5004
        30.7504
 -12484814.83647  -9693159.92645
                  22485239.7664                                   22485235.4774
                                                                        45.0004
        31.5004
 09 10 17  1  3 30.0000000  0  9G02G04G10G05G13G29G16G07G25
  -4010969.21548  -3109294.26646
                  21634796.9384                                   21634791.1684
                                                                        49.0004
        38.0004
  11386229.80946   8878916.68843
                  24601837.2274                                   24601834.8834
                                                                        39.2504
        21.5004
 -27438066.48048 -21364803.43046
                  20483278.5864                                   20483275.1174
                                                                        52.0004
        41.2504
 -23752316.56248 -18467074.98847
                  20954330.2974                                   20954326.2384
                                                                        51.7504
        42.7504
  -6964723.16447  -5406054.51645
                  22159130.9304                                   22159126.3404
                                                                        46.2504
        30.5004
 -20332080.03948 -15828985.81246
                  21981221.0784                                   21981217.4924
                                                                        49.5004
        37.2504
  -2445881.64847  -1875272.69544
                  23529060.5784                                   23529056.1804
                                                                        42.7504
        25.0004
  -4736742.74647  -3654134.37545
                  23010702.0634                                   23010697.1954
                                                                        43.0004
        30.5004
 -12572675.36347  -9761622.64545
                  22468519.9924                                   22468516.4184
                                                                        45.2504
        31.0004
 09 10 17  1  4  0.0000000  0  9G02G04G10G05G13G29G16G07G25
  -4006397.50048  -3105731.89546
                  21635666.5864                                   21635660.5664
                                                                        49.2504
        38.0004
  11425790.68046   8909743.30544
                  24609365.7034                                   24609363.1294
                                                                        41.5004
        27.0004
 -27546681.08648 -21449438.21146
                  20462609.8984                                   20462606.1024
                                                                        51.5004
        40.7504
 -23881709.28948 -18567900.49647
                  20929707.6644                                   20929703.7814
                                                                        52.0004
        42.2504
  -6965226.07047  -5406446.35245
                  22159035.2034                                   22159030.4654
                                                                        47.0004
        30.5004
 -20397448.70748 -15879922.45346
                  21968781.9844                                   21968778.2464
                                                                        49.5004
        38.0004
  -2537633.59047  -1946767.70344
                  23511600.8594                                   23511596.4574
                                                                        43.0004
        24.2504
  -4880376.55547  -3766056.82045
                  22983369.8284                                   22983364.9774
                                                                        46.0004
        30.7504
 -12659939.84847  -9829620.92245
                  22451914.1564                                   22451910.4694
                                                                        46.0004
        31.0004
 09 10 17  1  4 30.0000000  0  9G02G04G10G05G13G29G16G07G25
  -4001389.91848  -3101829.86746
                  21636619.8054                                   21636613.9344
                                                                        48.2504
        38.5004
  11465443.84847   8940641.87144
                  24616911.7114                                   24616909.1254
                                                                        43.7504
        27.7504
 -27654729.54748 -21533631.81246
                  20442049.1024                                   20442045.2894
                                                                        51.5004
        41.0004
 -24010613.40648 -18668345.28546
                  20905177.9454                                   20905173.9064
                                                                        51.5004
        41.5004
  -6965250.10547  -5406465.04745
                  22159030.5474                                   22159026.2854
                                                                        46.2504
        30.5004
 -20462196.97748 -15930375.64846
                  21956460.9224                                   21956457.3284
                                                                        50.2504
        38.0004
  -2628765.82047  -2017779.80543
                  23494258.6724                                   23494253.6174
                                                                        42.5004
        22.7504
  -5023513.05947  -3877591.73445
                  22956131.8594                                   22956127.0164
                                                                        45.0004
        31.0004
 -12746606.77047  -9897153.55945
                  22435422.1024                                   22435418.3054
                                                                        44.7504
        30.7504
 09 10 17  1  5  0.0000000  0  8G02G10G05G13G29G16G07G25
  -3995949.71548  -3097590.75046
                  21637654.8674                                   21637649.1994
                                                                        49.0004
        37.5004
 -27762212.38348 -21617384.67246
                  20421595.7584                                   20421591.9024
                                                                        51.7504
        41.0004
 -24139028.93048 -18768409.35547
                  20880741.6724                                   20880737.3554
                                                                        51.5004
        42.0004
  -6964799.22347  -5406113.70345
                  22159115.7894                                   22159112.0204
                                                                        47.0004
        30.5004
 -20526326.65648 -15980346.83246
                  21944257.4844                                   21944254.3364
                                                                        49.5004
        38.0004
  -2719279.28947  -2088309.77344
                  23477034.2894                                   23477030.1484
                                                                        42.5004
        24.2504
  -5166151.28947  -3988738.39545
                  22928988.0784                                   22928983.7034
                                                                        43.7504
        31.0004
 -12832676.93747  -9964221.20745
                  22419043.2274                                   22419039.2854
                                                                        45.0004
        31.2504
 09 10 17  1  5 30.0000000  0  8G02G10G05G13G29G16G07G25
  -3990077.74248  -3093015.15646
                  21638772.0944                                   21638765.9804
                                                                        49.2504
        37.7504
 -27869127.26248 -21700694.94146
                  20401250.5554                                   20401246.7384
                                                                        51.7504
        40.5004
 -24266953.25048 -18868090.66446
                  20856398.1564                                   20856394.1644
                                                                        50.7504
        41.7504
  -6963874.62147  -5405393.23845
                  22159292.3284                                   22159288.4184
                                                                        45.7504
        30.5004
 -20589836.93748 -16029835.40646
                  21932172.0784                                   21932168.6454
                                                                        49.2504
        38.0004
  -2809172.59047  -2158356.48844
                  23459928.2424                                   23459924.1094
                                                                        43.0004
        27.0004
  -5308287.50847  -4099493.86345
                  22901940.1024                                   22901936.3594
                                                                        43.2504
        31.2504
 -12918148.67647 -10030822.55945
                  22402779.0164                                   22402774.8834
                                                                        44.7504
        32.0004
 09 10 17  1  6  0.0000000  0  8G02G10G05G13G29G16G07G25
  -3983773.42248  -3088102.70746
                  21639971.9844                                   21639965.8444
                                                                        48.7504
        38.0004
 -27975471.02748 -21783560.21146
                  20381014.1804                                   20381010.1724
                                                                        52.0004
        41.0004
 -24394382.36748 -18967386.11746
                  20832149.2344                                   20832145.1724
                                                                        51.0004
        41.7504
  -6962476.02047  -5404303.41045
                  22159558.3054                                   22159553.8444
                                                                        45.7504
        30.7504
 -20652725.62148 -16078839.59446
                  21920204.3594                                   21920201.3634
                                                                        48.7504
        38.0004
  -2898442.30547  -2227917.30144
                  23442941.0394                                   23442936.7974
                                                                        43.2504
        26.5004
  -5449916.74647  -4209854.26645
                  22874989.3984                                   22874985.0704
                                                                        44.5004
        31.5004
 -13003019.35547 -10096955.54345
                  22386628.4534                                   22386624.5554
                                                                        45.7504
        32.2504
 09 10 17  1  6 30.0000000  0  8G02G10G05G13G29G16G07G25
  -3977038.27048  -3082854.53946
                  21641254.0314                                   21641247.8054
                                                                        48.7504
        38.0004
 -28081242.39548 -21865979.46546
                  20360886.6174                                   20360882.8014
                                                                        52.5004
        41.5004
 -24521314.24248 -19066294.10246
                  20807995.0164                                   20807990.9224
                                                                        51.7504
        41.5004
  -6960605.29347  -5402845.69544
                  22159914.5704                                   22159909.8914
                                                                        46.0004
        29.5004
 -20714992.62948 -16127359.38746
                  21908355.6564                                   21908352.2304
                                                                        49.5004
        38.0004
  -2987087.30547  -2296991.29744
                  23426072.9454                                   23426068.2624
                                                                        42.5004
        25.5004
  -5591035.82847  -4319817.15645
                  22848135.3524                                   22848130.9384
                                                                        44.5004
        30.5004
 -13087287.71547 -10162619.18745
                  22370593.1334                                   22370589.0084
                                                                        45.5004
        31.7504
 09 10 17  1  7  0.0000000  0  8G02G10G05G13G29G16G07G25
  -3969875.32448  -3077273.00846
                  21642616.7034                                   21642610.0944
                                                                        49.2504
        38.0004
 -28186441.54748 -21947952.82046
                  20340867.8134                                   20340863.6484
                                                                        52.0004
        41.5004
 -24647748.87548 -19164814.61346
                  20783935.3444                                   20783931.2274
                                                                        51.7504
        41.7504
  -6958266.42647  -5401023.19145
                  22160359.4614                                   22160355.0004
                                                                        45.7504
        30.5004
 -20776639.19148 -16175395.71546
                  21896624.3754                                   21896621.0944
                                                                        49.0004
        37.7504
  -3075108.28947  -2365579.06644
                  23409322.5704                                   23409317.9494
                                                                        42.7504
        26.5004
  -5731643.69947  -4429381.72345
                  22821378.4384                                   22821374.0594
                                                                        44.0004
        32.0004
 -13170954.61747 -10227814.16845
                  22354671.5784                                   22354667.7504
                                                                        45.0004
        31.7504
 09 10 17  1  7 30.0000000  0  8G02G10G05G13G29G16G07G25
  -3962291.01248  -3071363.16046
                  21644059.9694                                   21644054.2704
                                                                        48.7504
        37.0004
 -28291071.81648 -22029482.89846
                  20320956.9454                                   20320953.2704
                                                                        52.0004
        41.7504
 -24773688.85548 -19262949.68047
                  20759969.7034                                   20759965.6174
                                                                        51.7504
        43.0004
  -6955465.83247  -5398840.89844
                  22160892.5784                                   22160887.7344
                                                                        46.5004
        29.5004
 -20837669.87148 -16222952.07446
                  21885011.1254                                   21885007.8164
                                                                        50.0004
        38.5004
  -3162508.65247  -2433683.26244
                  23392690.9304                                   23392686.8134
                                                                        42.7504
        25.7504
  -5871742.15647  -4538549.33245
                  22794718.7424                                   22794713.7424
                                                                        45.5004
        32.0004
 -13254023.98847 -10292543.53545
                  22338863.8364                                   22338860.1214
                                                                        45.5004
        32.0004
 09 10 17  1  8  0.0000000  0  8G02G10G05G13G29G16G07G25
  -2378870.39148  -1837528.92646
                  21945374.6484                                   21945368.9344
                                                                        48.2504
        38.0004
 -26819712.43048 -20882969.09446
                  20600947.6484                                   20600943.7424
                                                                        52.2504
        41.0004
 -23323712.62148 -18133098.08647
                  21035890.9224                                   21035886.6884
                                                                        52.0004
        42.5004
  -5376789.21547  -4168703.26245
                  22461304.4384                                   22461299.7424
                                                                        46.0004
        30.0004
 -19322666.80548 -15042430.20746
                  22173306.4384                                   22173302.9694
                                                                        49.5004
        38.2504
  -1673868.48047  -1273703.89144
                  23675969.9844                                   23675965.4144
                                                                        43.0004
        25.7504
  -4435907.43447  -3419717.07845
                  23067948.7344                                   23067944.1214
                                                                        44.5004
        31.5004
 -11761076.08647  -9129207.50045
                  22622962.5474                                   22622958.1844
                                                                        45.5004
        31.2504
 09 10 17  1  8 30.0000000  0  8G02G10G05G13G29G16G07G25
  -2370458.38748  -1830974.15246
                  21946975.5314                                   21946969.2854
                                                                        48.5004
        38.0004
 -26923212.59848 -20963618.55546
                  20581252.3674                                   20581248.5204
                                                                        52.2504
        41.0004
 -23448669.48848 -18230467.08647
                  21012112.5474                                   21012108.4224
                                                                        51.7504
        42.0004
  -5373082.27047  -4165814.73045
                  22462009.9384                                   22462005.2464
                                                                        45.5004
        30.0004
 -19382477.57048 -15089036.00846
                  22161924.7504                                   22161921.4494
                                                                        49.5004
        37.2504
  -1760036.41047  -1340847.73044
                  23659572.8364                                   23659568.1884
                                                                        42.7504
        26.0004
  -4574989.23447  -3528092.46545
                  23041482.7034                                   23041478.1094
                                                                        46.0004
        31.5004
 -11842959.02047  -9193012.36745
                  22607380.8594                                   22607376.6564
                                                                        46.0004
        31.7504
 09 10 17  1  9  0.0000000  0  8G02G10G05G13G29G16G07G25
  -2361634.40248  -1824098.34046
                  21948654.7894                                   21948648.8244
                                                                        48.2504
        38.0004
 -27026145.52048 -21043826.03546
                  20561664.8444                                   20561661.0474
                                                                        52.2504
        41.0004
 -23573131.54748 -18327450.50447
                  20988427.9844                                   20988424.2074
                                                                        51.7504
        42.7504
  -5368924.59447  -4162574.98044
                  22462800.8524                                   22462796.6914
                                                                        45.0004
        29.7504
 -19441677.55948 -15135165.86746
                  22150659.3054                                   22150656.0864
                                                                        49.0004
        38.0004
  -1845586.35246  -1407510.00044
                  23643292.8134                                   23643288.2504
                                                                        41.2504
        25.5004
  -4713558.29347  -3636068.34445
                  23015113.9924                                   23015109.1804
                                                                        46.0004
        32.0004
 -11924247.40647  -9256353.97345
                  22591911.8524                                   22591908.3954
                                                                        45.7504
        32.0004
 09 10 17  1  9 30.0000000  0  8G02G10G05G13G29G16G07G25
  -2352402.57448  -1816904.70746
                  21950411.7034                                   21950405.9184
                                                                        48.0004
        37.5004
 -27128512.55148 -21123592.55146
                  20542184.9774                                   20542181.2934
                                                                        52.5004
        41.5004
 -23697099.66448 -18424049.03547
                  20964837.8674                                   20964834.1024
                                                                        51.7504
        42.5004
  -5364320.84447  -4158987.64144
                  22463677.4614                                   22463672.5124
                                                                        45.7504
        29.2504
 -19500269.59848 -15180821.97346
                  22139509.2504                                   22139506.6214
                                                                        49.0004
        37.7504
  -1930519.87947  -1473691.98044
                  23627130.4224                                   23627126.3594
                                                                        42.2504
        26.0004
  -4851614.23047  -3743644.37945
                  22988842.6724                                   22988837.7704
                                                                        45.0004
        31.5004
 -12004942.99247  -9319233.64545
                  22576556.2424                                   22576552.4494
                                                                        45.5004
        31.7504
 09 10 17  1 10  0.0000000  0  8G02G10G05G13G29G16G07G25
  -2342767.16847  -1809396.61746
                  21952245.1334                                   21952239.2544
                                                                        47.7504
        37.2504
 -27230315.03948 -21202919.11346
                  20522812.3444                                   20522808.4734
                                                                        51.7504
        41.2504
 -23820574.53148 -18520263.21547
                  20941341.4454                                   20941337.2424
                                                                        52.2504
        42.0004
  -5359275.61347  -4155056.28945
                  22464637.2274                                   22464632.6334
                                                                        44.7504
        30.2504
 -19558256.31248 -15226006.39546
                  22128475.0554                                   22128471.9064
                                                                        49.2504
        37.7504
  -2014838.39146  -1539394.71544
                  23611085.7344                                   23611080.6844
                                                                        41.5004
        26.2504
  -4989156.45747  -3850820.15245
                  22962669.1724                                   22962664.1564
                                                                        44.5004
        31.5004
 -12085047.35247  -9381652.61345
                  22561313.0164                                   22561308.7974
                                                                        45.0004
        32.0004
 09 10 17  1 10 30.0000000  0  8G02G10G05G13G29G16G07G25
  -2332729.14148  -1801574.80146
                  21954155.0704                                   21954149.3984
                                                                        48.5004
        37.0004
 -27331551.17248 -21281804.39146
                  20503548.0394                                   20503544.2934
                                                                        52.2504
        41.2504
 -23943553.70348 -18616091.11747
                  20917939.1414                                   20917935.0474
                                                                        52.0004
        42.0004
  -5353790.46547  -4150782.14144
                  22465681.1254                                   22465676.8984
                                                                        44.2504
        29.0004
 -19615637.02048 -15270718.63746
                  22117556.0394                                   22117553.0664
                                                                        49.0004
        38.0004
  -2098540.87547  -1604617.43044
                  23595157.7814                                   23595153.3404
                                                                        42.7504
        25.7504
  -5126181.73047  -3957593.05945
                  22936593.9774                                   22936589.2504
                                                                        45.2504
        30.5004
 -12164559.60547  -9443610.21545
                  22546182.4534                                   22546178.3364
                                                                        46.0004
        32.0004
 09 10 17  1 11  0.0000000  0  8G02G10G05G13G29G16G07G25
  -2322290.97748  -1793441.14846
                  21956141.6484                                   21956136.0354
                                                                        48.0004
        37.2504
 -27432220.84448 -21360248.28146
                  20484391.0314                                   20484387.2544
                                                                        52.5004
        41.5004
 -24066036.60548 -18711532.30547
                  20894631.1954                                   20894627.4574
                                                                        51.5004
        42.0004
  -5347868.55947  -4146167.67645
                  22466807.6644                                   22466803.0314
                                                                        45.2504
        30.0004
 -19672413.07448 -15314959.75446
                  22106751.8674                                   22106748.3444
                                                                        49.5004
        38.0004
  -2181627.31647  -1669360.10544
                  23579346.5164                                   23579342.0664
                                                                        42.2504
        26.0004
  -5262688.35547  -4063961.83645
                  22910617.8364                                   22910612.5744
                                                                        45.5004
        30.7504
 -12243479.80147  -9505106.46145
                  22531164.6804                                   22531160.2624
                                                                        46.0004
        32.7504
 09 10 17  1 11 30.0000000  0  8G02G10G05G13G29G16G07G25
  -2311451.69548  -1784994.96946
                  21958204.4304                                   21958198.4414
                                                                        48.5004
        37.2504
 -27532320.43448 -21438247.97746
                  20465342.8914                                   20465339.2664
                                                                        52.0004
        41.0004
 -24188018.79748 -18806583.26647
                  20871418.7034                                   20871414.9654
                                                                        52.0004
        42.0004
  -5341508.82447  -4141212.03144
                  22468017.7814                                   22468013.9534
                                                                        44.5004
        29.7504
 -19728582.27348 -15358727.96946
                  22096063.2344                                   22096059.9384
                                                                        49.7504
        38.0004
  -2264094.55146  -1733620.29744
                  23563653.3204                                   23563648.7384
                                                                        41.2504
        26.2504
  -5398671.29747  -4169922.57445
                  22884741.0474                                   22884736.4224
                                                                        44.7504
        31.2504
 -12321805.10247  -9566139.15645
                  22516259.6174                                   22516255.2344
                                                                        44.5004
        32.0004
 09 10 17  1 12  0.0000000  0  8G02G10G05G13G29G16G07G25
  -2300214.83248  -1776238.98446
                  21960342.1254                                   21960336.6564
                                                                        48.0004
        37.0004
 -27631850.26648 -21515803.67246
                  20446402.6414                                   20446399.2464
                                                                        52.2504
        41.2504
 -24309500.80948 -18901244.58647
                  20848301.6954                                   20848297.5594
                                                                        52.0004
        42.0004
  -5334716.07047  -4135918.97744
                  22469310.6484                                   22469306.5594
                                                                        45.2504
        29.2504
 -19784146.07848 -15402024.41446
                  22085489.5474                                   22085486.4104
                                                                        48.7504
        37.7504
  -2345943.59046  -1797398.75844
                  23548078.4774                                   23548073.4264
                                                                        41.2504
        26.0004
  -5534129.23047  -4275474.19145
                  22858964.0084                                   22858959.8554
                                                                        44.5004
        31.7504
 -12399536.51247  -9626709.08245
                  22501467.6564                                   22501463.4964
                                                                        45.5004
        31.7504
 09 10 17  1 12 30.0000000  0  8G02G10G05G13G29G16G07G25
  -2288581.89548  -1767174.37946
                  21962556.0784                                   21962550.6954
                                                                        48.0004
        36.7504
 -27730809.70748 -21592914.92646
                  20427571.5864                                   20427567.7194
                                                                        51.5004
        41.0004
 -24430480.70748 -18995514.64847
                  20825280.0394                                   20825275.9344
                                                                        52.2504
        42.0004
  -5327491.62147  -4130289.52044
                  22470685.5234                                   22470681.6334
                                                                        44.0004
        29.2504
 -19839105.03148 -15444849.59846
                  22075031.6644                                   22075028.1954
                                                                        48.5004
        37.7504
  -2427173.79747  -1860695.02744
                  23532620.3914                                   23532615.9384
                                                                        42.0004
        26.5004
  -5669059.67647  -4380614.81245
                  22833288.0394                                   22833283.1804
                                                                        45.2504
        32.0004
 -12476673.63347  -9686815.93045
                  22486789.0234                                   22486784.8364
                                                                        44.7504
        30.7504
 09 10 17  1 13  0.0000000  0  8G02G10G05G13G29G16G07G25
  -2276554.37947  -1757802.31246
                  21964844.7584                                   21964839.0634
                                                                        47.7504
        36.2504
 -27829197.53548 -21669580.78546
                  20408848.9144                                   20408845.0824
                                                                        51.5004
        41.2504
 -24550956.65248 -19089392.02347
                  20802353.9454                                   20802350.2344
                                                                        52.5004
        42.5004
  -5319836.93447  -4124324.82044
                  22472141.8444                                   22472137.8404
                                                                        44.5004
        29.7504
 -19893459.22748 -15487203.55946
                  22064687.9454                                   22064684.8874
                                                                        50.0004
        38.0004
  -2507784.13347  -1923508.26644
                  23517280.7734                                   23517276.2114
                                                                        42.0004
        26.2504
  -5803459.42247  -4485341.84445
                  22807712.4144                                   22807708.1134
                                                                        45.0004
        32.2504
 -12553215.46147  -9746458.90245
                  22472223.2034                                   22472219.6214
                                                                        44.7504
        31.5004
 09 10 17  1 13 30.0000000  0  8G02G10G05G13G29G16G07G25
  -2264133.70748  -1748123.89546
                  21967208.6804                                   21967202.9494
                                                                        48.0004
        36.0004
 -27927012.41448 -21745800.16446
                  20390235.3984                                   20390231.6684
                                                                        51.7504
        41.7504
 -24670926.67648 -19182875.16847
                  20779524.5234                                   20779520.4144
                                                                        52.5004
        42.0004
  -5311755.21547  -4118027.37944
                  22473680.2114                                   22473675.1564
                                                                        43.5004
        28.2504
 -19947208.24248 -15529085.91846
                  22054460.0784                                   22054457.0904
                                                                        48.7504
        38.5004
  -2587773.60947  -1985837.73844
                  23502059.9144                                   23502055.0864
                                                                        42.2504
        27.0004
  -5937326.07447  -4589653.51245
                  22782238.4454                                   22782233.9534
                                                                        46.0004
        32.5004
 -12629161.71547  -9805637.78945
                  22457771.0634                                   22457767.0474
                                                                        45.2504
        31.2504
 09 10 17  1 14  0.0000000  0  8G02G10G05G13G29G16G07G25
  -2251324.41448  -1738142.64846
                  21969646.3364                                   21969640.5664
                                                                        48.2504
        36.7504
 -28024256.25048 -21821574.54346
                  20371730.3054                                   20371726.4454
                                                                        51.7504
        41.5004
 -24790392.00048 -19275965.02347
                  20756791.0554                                   20756786.6214
                                                                        52.7504
        42.2504
  -5303250.43747  -4111400.28144
                  22475298.1254                                   22475294.0084
                                                                        44.2504
        28.5004
 -20000355.70348 -15570499.51646
                  22044346.5004                                   22044343.2464
                                                                        50.2504
        38.0004
  -2667144.84846  -2047685.45744
                  23486955.7344                                   23486950.9924
                                                                        41.5004
        27.0004
  -6070659.25847  -4693549.46145
                  22756866.0704                                   22756861.7074
                                                                        46.2504
        32.5004
 -12704514.32447  -9864354.10545
                  22443432.6884                                   22443428.2704
                                                                        44.7504
        31.2504
 09 10 17  1 14 30.0000000  0  8G02G10G05G13G29G16G07G25
  -2238128.55147  -1727860.18446
                  21972157.3054                                   21972151.6844
                                                                        47.5004
        37.0004
 -28120928.24248 -21896903.35946
                  20353334.5084                                   20353330.7854
                                                                        52.0004
        40.7504
 -24909351.23848 -19368660.53547
                  20734153.9144                                   20734149.5824
                                                                        53.0004
        42.0004
  -5294325.44547  -4104445.73844
                  22476996.9774                                   22476992.1724
                                                                        44.7504
        29.2504
 -20052902.05948 -15611444.72346
                  22034347.0554                                   22034343.5124
                                                                        49.5004
        38.0004
  -2745897.15247  -2109050.87544
                  23471970.1094                                   23471964.8164
                                                                        42.0004
        27.0004
  -6203457.16047  -4797028.34045
                  22731595.3754                                   22731591.0744
                                                                        45.5004
        32.5004
 -12779273.53547  -9922608.03945
                  22429205.8754                                   22429201.8874
                                                                        45.0004
        31.5004
 09 10 17  1 15  0.0000000  0  8G02G10G05G13G29G16G07G25
  -2224545.03947  -1717275.65646
                  21974742.4304                                   21974736.4104
                                                                        47.0004
        36.2504
 -28217024.52348 -21971783.57046
                  20335047.6804                                   20335043.8484
                                                                        52.0004
        41.0004
 -25027800.46948 -19460958.65247
                  20711613.5704                                   20711610.1884
                                                                        52.2504
        42.5004
  -5284979.37547  -4097163.07844
                  22478775.3364                                   22478770.6174
                                                                        43.5004
        29.5004
 -20104845.09448 -15651919.82046
                  22024462.7974                                   22024459.0394
                                                                        48.7504
        37.5004
  -2824027.66846  -2169931.78544
                  23457101.6334                                   23457097.2664
                                                                        41.5004
        26.2504
  -6335714.38347  -4900085.90245
                  22706427.7114                                   22706423.3554
                                                                        46.0004
        32.2504
 -12853436.06247  -9980397.02045
                  22415093.2034                                   22415089.0594
                                                                        44.5004
        32.5004
 09 10 17  1 15 30.0000000  0  8G02G10G05G13G29G16G07G25
  -2210577.39147  -1706391.77746
                  21977400.1174                                   21977394.2584
                                                                        47.5004
        36.0004
 -28312546.23448 -22046216.07046
                  20316870.8594                                   20316866.8244
                                                                        52.0004
        41.7504
 -25145739.62548 -19552859.30547
                  20689170.7504                                   20689166.5594
                                                                        52.2504
        42.2504
  -5275216.80547  -4089555.89144
                  22480633.1564                                   22480628.6684
                                                                        44.5004
        29.2504
 -20156186.89548 -15691926.42246
                  22014692.7584                                   22014689.4024
                                                                        49.2504
        37.2504
  -2901537.64147  -2230329.18044
                  23442351.5704                                   23442347.3794
                                                                        43.0004
        24.5004
  -6467430.18447  -5002721.56245
                  22681363.2584                                   22681357.9694
                                                                        45.7504
        32.0004
 -12927003.46147 -10037722.24245
                  22401094.0084                                   22401089.7114
                                                                        44.5004
        31.7504
 09 10 17  1 16  0.0000000  0  8G02G10G05G13G29G16G07G25
  -2196227.38747  -1695209.95345
                  21980131.1724                                   21980124.8554
                                                                        47.5004
        35.5004
 -28407492.73848 -22120200.33646
                  20298803.0944                                   20298799.2234
                                                                        52.2504
        41.0004
 -25263167.35948 -19644361.44147
                  20666824.9064                                   20666821.0394
                                                                        52.2504
        42.2504
  -5265039.47747  -4081625.49644
                  22482570.1334                                   22482565.5514
                                                                        45.5004
        28.0004
 -20206927.79748 -15731464.73446
                  22005037.2114                                   22005033.7814
                                                                        49.0004
        38.0004
  -2978426.49247  -2290242.55544
                  23427720.5474                                   23427715.9264
                                                                        42.5004
        26.5004
  -6598602.21947  -5104933.53545
                  22656401.6804                                   22656396.9774
                                                                        47.0004
        32.0004
 -12999975.42647 -10094583.52045
                  22387207.6094                                   22387203.5904
                                                                        45.0004
        31.2504
 09 10 17  1 16 30.0000000  0  8G02G10G05G13G29G16G07G25
  -2181497.26648  -1683731.95745
                  21982933.9534                                   21982928.3244
                                                                        48.0004
        35.7504
 -28501863.58648 -22193736.03546
                  20280845.0164                                   20280840.7854
                                                                        52.0004
        41.5004
 -25380082.77348 -19735464.34047
                  20644576.8284                                   20644572.9264
                                                                        52.5004
        42.5004
  -5254450.09047  -4073374.02744
                  22484584.1254                                   22484580.2504
                                                                        45.0004
        29.5004
 -20257069.25848 -15770535.97346
                  21995495.3524                                   21995491.9844
                                                                        48.2504
        38.0004
  -3054694.53547  -2349672.21944
                  23413207.4844                                   23413202.6454
                                                                        42.7504
        26.2504
  -6729228.22347  -5206719.99645
                  22631544.3134                                   22631539.5354
                                                                        45.5004
        31.7504
 -13072352.11747 -10150980.93445
                  22373434.4844                                   22373431.1484
                                                                        45.5004
        31.7504
 09 10 17  1 17  0.0000000  0  8G02G10G05G13G29G16G07G25
  -2166388.84048  -1671959.18446
                  21985808.9844                                   21985803.1094
                                                                        48.5004
        36.7504
 -28595657.86348 -22266822.52346
                  20262996.2504                                   20262992.3054
                                                                        52.0004
        41.0004
 -25496483.72348 -19826166.37147
                  20622426.2974                                   20622422.6134
                                                                        52.0004
        42.0004
  -5243451.00447  -4064803.32044
                  22486677.2734                                   22486673.4384
                                                                        44.0004
        27.5004
 -20306611.07848 -15809139.98846
                  21986067.7504                                   21986064.4024
                                                                        49.2504
        37.5004
  -3130340.71947  -2408617.30944
                  23398812.8284                                   23398807.3134
                                                                        43.5004
        26.2504
  -6859305.59847  -5308078.96545
                  22606791.1484                                   22606786.4654
                                                                        46.5004
        31.5004
 -13144133.08247 -10206914.16845
                  22359775.4304                                   22359771.3754
                                                                        45.7504
        31.0004
